     2.11           OBSERVATION DATA    G (GPS)             RINEX VERSION / TYPE
teqc  2012Jun6      GSI, JAPAN          20160101 17:06:48UTCPGM / RUN BY / DATE
Linux 2.4.21-27.ELsmp|Opteron|gcc -static|Linux x86_64|=+   COMMENT
0338                                                        MARKER NAME
GSI, JAPAN          GEOSPATIAL INFORMATION AUTHORITY OF JAPAOBSERVER / AGENCY
00000               TRIMBLE NETR9       5.01,07/APR/2015    REC # / TYPE / VERS
                    TRM59800.80     GSI                     ANT # / TYPE
 -3762367.1763  3680867.6206  3590465.3596                  APPROX POSITION XYZ
        0.0000        0.0000        0.0000                  ANTENNA: DELTA H/E/N
     1     1                                                WAVELENGTH FACT L1/2
     6    L1    C1    L2    P2    S1    S2                  # / TYPES OF OBSERV
    30.0000                                                 INTERVAL
Forced Modulo Decimation to 30 seconds                      COMMENT
  2015    12    31     0     0    0.0000000     GPS         TIME OF FIRST OBS
                                                            END OF HEADER
 15 12 31  0  0  0.0000000  0  8G19G02G12G23G06G17G05G09
 121085053.954 7  23041724.148    94351990.57645  23041728.4384         45.600  
        35.9004 
 117137901.924 7  22290603.391    91276300.26246  22290606.4694         47.000  
        36.9004 
 125652796.436 6  23910937.313    97911276.48944  23910943.0824         41.900  
        24.7004 
 121930973.538 7  23202659.273    95011020.64245  23202663.1414         45.400  
        32.5004 
 107986345.043 8  20549118.484    84145241.74747  20549126.4224         53.000  
        46.7004 
 113421018.269 8  21583304.195    88380041.63246  21583309.9614         48.900  
        40.7004 
 122719177.120 7  23352678.859    95625360.12045  23352685.5554         42.300  
        31.1004 
 110781343.640 8  21081002.156    86323209.59547  21081009.1684         51.900  
        43.8004 
 15 12 31  0  0 30.0000000  0  8G19G02G12G23G06G17G05G09
 121184130.983 7  23060576.953    94429193.41445  23060581.4844         45.800  
        35.4004 
 117070482.605 7  22277774.016    91223765.73846  22277776.8554         47.300  
        36.7004 
 125679525.830 7  23916023.305    97932104.55044  23916028.6564         42.100  
        26.0004 
 121992823.443 7  23214429.063    95059215.33645  23214432.7704         46.300  
        32.3004 
 107973808.274 8  20546732.977    84135472.83447  20546740.8594         53.100  
        46.8004 
 113500137.233 8  21598360.000    88441692.74646  21598365.8874         49.300  
        41.1004 
 122638925.273 7  23337408.203    95562826.21144  23337414.3594         42.400  
        29.3004 
 110786142.596 8  21081915.305    86326949.03547  21081922.9454         51.200  
        43.9004 
 15 12 31  0  1  0.0000000  0  8G19G02G12G23G06G17G05G09
 121283437.565 7  23079474.313    94506575.10745  23079478.6214         44.600  
        35.7004 
 117003109.373 7  22264953.398    91171267.12246  22264956.1454         46.700  
        37.0004 
 125706731.325 7  23921200.711    97953303.61644  23921206.3484         43.200  
        26.5004 
 122055081.891 7  23226276.633    95107728.37145  23226280.3674         46.000  
        32.4004 
 107961518.493 8  20544394.250    84125896.38147  20544402.5004         53.400  
        47.0004 
 113579665.079 8  21613493.703    88503662.46146  21613500.0394         48.600  
        41.2004 
 122558895.619 6  23322178.523    95500465.42744  23322185.0984         41.900  
        29.0004 
 110791536.377 8  21082942.141    86331151.98147  21082949.1684         51.100  
        44.5004 
 15 12 31  0  1 30.0000000  0  8G19G02G12G23G06G17G05G09
 121382972.170 7  23098414.984    94584134.47345  23098419.6724         44.800  
        35.1004 
 116935783.552 7  22252141.492    91118805.45146  22252144.0784         45.900  
        36.9004 
 125734410.486 7  23926467.594    97974871.77944  23926473.4694         43.200  
        24.0004 
 122117747.101 7  23238201.109    95156558.36545  23238205.0514         45.400  
        31.5004 
 107949476.891 8  20542102.750    84116513.31047  20542110.7894         52.500  
        47.2004 
 113659600.591 7  21628705.102    88565949.83946  21628711.3204         47.500  
        40.9004 
 122479089.149 7  23306992.430    95438278.57345  23306998.9574         42.400  
        32.3004 
 110797524.976 8  21084081.578    86335818.41347  21084088.3794         51.700  
        44.8004 
 15 12 31  0  2  0.0000000  0  8G19G02G12G23G06G17G05G09
 121482732.653 7  23117399.289    94661869.87045  23117403.3984         44.700  
        35.2004 
 116868505.659 7  22239338.445    91066381.12746  22239342.2584         47.400  
        37.2004 
 125762561.895 7  23931824.461    97996807.91144  23931829.5704         42.600  
        26.1004 
 122180816.744 7  23250202.773    95205703.51745  23250206.5124         45.300  
        31.9004 
 107937684.309 8  20539858.805    84107324.27547  20539867.1294         53.000  
        47.0004 
 113739941.495 8  21643993.656    88628553.11546  21643999.5514         48.600  
        40.3004 
 122399505.901 7  23291847.820    95376265.67445  23291854.5084         42.200  
        31.9004 
 110804107.951 8  21085334.109    86340947.99847  21085341.1024         51.100  
        44.6004 
 15 12 31  0  2 30.0000000  0  8G19G02G12G23G06G17G05G09
 121582716.656 7  23136425.898    94739779.42345  23136430.0904         44.700  
        35.1004 
 116801276.714 7  22226545.492    91013994.94946  22226548.6024         46.800  
        37.1004 
 125791183.495 7  23937271.453    98019110.42044  23937276.7544         43.000  
        27.0004 
 122244289.021 7  23262281.773    95255162.41645  23262285.2584         46.200  
        31.8004 
 107926141.783 8  20537662.641    84098330.08647  20537670.4024         51.700  
        46.7004 
 113820685.651 7  21659358.836    88691470.60846  21659364.7624         47.800  
        40.8004 
 122320146.847 7  23276746.836    95314427.44445  23276753.7814         43.100  
        32.8004 
 110811285.048 8  21086699.719    86346540.53047  21086707.1254         51.100  
        43.7004 
 15 12 31  0  3  0.0000000  0  8G19G02G12G23G06G17G05G09
 121682921.964 7  23155493.984    94817861.41445  23155498.4734         44.500  
        34.4004 
 116734097.822 7  22213761.797    90961647.76846  22213764.6054         46.800  
        37.7004 
 125820273.126 7  23942806.914    98041777.61444  23942812.7304         42.300  
        26.2004 
 122308161.741 7  23274436.086    95304933.32945  23274439.4104         46.100  
        31.8004 
 107914850.201 8  20535513.758    84089531.44747  20535521.3094         52.500  
        46.9004 
 113901830.779 7  21674799.969    88754700.54046  21674806.3794         47.300  
        40.8004 
 122241012.282 7  23261688.727    95252764.16945  23261694.7894         43.400  
        33.0004 
 110819055.893 8  21088178.492    86352595.74447  21088185.4924         49.500  
        43.8004 
 15 12 31  0  3 30.0000000  0  8G19G02G12G23G06G17G05G09
 121783346.941 7  23174604.109    94896114.58745  23174609.0044         43.900  
        34.4004 
 116666970.325 7  22200988.234    90909340.64246  22200991.0554         47.200  
        37.7004 
 125849829.107 7  23948431.273    98064808.21044  23948437.5554         42.600  
        24.8004 
 122372433.416 7  23286666.375    95355015.12545  23286669.5784         46.200  
        31.1004 
 107903811.031 8  20533412.719    84080929.48547  20533420.9614         52.700  
        47.0004 
 113983374.987 7  21690317.930    88818241.45046  21690324.0514         47.900  
        41.4004 
 122162102.967 7  23246672.273    95191276.38245  23246678.8634         43.600  
        32.1004 
 110827420.615 8  21089770.609    86359113.70247  21089777.5204         49.500  
        44.0004 
 15 12 31  0  4  0.0000000  0  8G19G02G12G23G06G17G05G09
 121883989.039 7  23193755.969    94974536.93045  23193759.8324         44.100  
        34.4004 
 116599895.416 7  22188223.820    90857074.48646  22188226.7424         47.700  
        37.7004 
 125879849.461 7  23954143.547    98088200.67544  23954150.3364         42.300  
        26.2004 
 122437101.893 7  23298972.844    95405406.12745  23298975.7704         46.700  
        31.3004 
 107893025.178 8  20531360.484    84072524.91147  20531368.3594         52.900  
        46.8004 
 114065316.309 8  21705910.602    88882091.79046  21705916.9144         48.900  
        40.3004 
 122083418.986 7  23231698.930    95129964.20045  23231705.9144         43.400  
        32.2004 
 110836378.692 8  21091475.070    86366094.02247  21091482.4104         49.600  
        44.2004 
 15 12 31  0  4 30.0000000  0  8G19G02G12G23G06G17G05G09
 121984846.118 7  23212948.625    95053126.80745  23212952.9614         46.000  
        35.0004 
 116532873.662 7  22175470.063    90804849.76846  22175473.0164         47.500  
        37.3004 
 125910332.133 7  23959944.234    98111953.36444  23959950.1524         43.000  
        26.4004 
 122502165.201 7  23311353.945    95456104.77145  23311356.9734         47.000  
        31.4004 
 107882493.567 8  20529356.336    84064318.45647  20529364.6884         52.900  
        46.7004 
 114147652.578 8  21721578.828    88946249.89646  21721584.6254         49.200  
        40.4004 
 122004961.077 7  23216769.039    95068828.16545  23216775.2664         44.100  
        31.6004 
 110845929.693 8  21093292.633    86373536.35947  21093299.6684         49.500  
        43.9004 
 15 12 31  0  5  0.0000000  0  8G19G02G12G23G06G17G05G09
 122085916.185 7  23232181.398    95131882.63945  23232185.5984         47.000  
        34.6004 
 116465906.181 7  22162726.438    90752667.31846  22162729.4924         47.800  
        37.1004 
 125941275.050 7  23965833.133    98136064.69144  23965837.7154         43.100  
        25.1004 
 122567621.339 7  23323809.945    95507109.52745  23323813.3594         46.700  
        32.1004 
 107872217.307 8  20527400.828    84056310.97047  20527408.8914         52.600  
        47.3004 
 114230382.046 8  21737321.570    89010714.37446  21737327.3164         49.100  
        40.9004 
 121926729.824 7  23201882.227    95007868.76745  23201888.9144         43.400  
        31.8004 
 110856073.322 8  21095222.508    86381440.48547  21095229.5664         51.300  
        43.7004 
 15 12 31  0  5 30.0000000  0  8G19G02G12G23G06G17G05G09
 122187197.240 7  23251454.867    95210802.86945  23251459.0664         46.400  
        34.8004 
 116398993.969 7  22149993.648    90700527.95146  22149996.6414         47.100  
        38.3004 
 125972675.923 7  23971808.523    98160532.86044  23971814.1024         43.200  
        26.7004 
 122633468.238 7  23336339.750    95558418.75845  23336343.6054         47.000  
        31.8004 
 107862197.417 8  20525494.156    84048503.26547  20525502.1174         52.900  
        46.8004 
 114313502.005 8  21753138.406    89075483.12846  21753145.4384         49.400  
        39.6004 
 121848725.589 7  23187038.070    94947086.25045  23187045.0164         44.900  
        32.4004 
 110866809.129 8  21097265.578    86389806.04147  21097272.8404         50.700  
        43.9004 
 15 12 31  0  6  0.0000000  0  8G19G02G12G23G06G17G05G09
 122288686.976 7  23270767.406    95289885.71745  23270772.0984         46.400  
        33.9004 
 116332138.311 7  22137271.516    90648432.64146  22137274.4804         46.400  
        37.9004 
 126004533.158 6  23977869.930    98185356.63644  23977876.5234         41.800  
        26.4004 
 122699703.771 7  23348943.805    95610030.83445  23348948.1764         46.400  
        31.2004 
 107852434.757 8  20523636.461    84040895.99147  20523644.2424         52.500  
        47.1004 
 114397010.567 7  21769029.734    89140554.69246  21769035.9964         47.800  
        39.8004 
 121770948.343 7  23172237.711    94886480.61045  23172244.7344         43.900  
        31.2004 
 110878136.539 8  21099421.273    86398632.59747  21099428.3714         51.200  
        43.9004 
 15 12 31  0  6 30.0000000  0  8G19G02G12G23G06G17G05G09
 122390383.216 7  23290119.688    95369129.49145  23290123.2074         45.400  
        34.3004 
 116265340.375 7  22124559.844    90596382.32246  22124563.0704         46.300  
        37.6004 
 126036844.600 6  23984019.125    98210534.36344  23984025.2464         41.400  
        25.9004 
 122766326.528 7  23361621.867    95661944.62545  23361626.2424         45.900  
        30.4004 
 107842930.828 8  20521827.922    84033490.32847  20521836.0314         52.300  
        46.9004 
 114480905.770 8  21784995.102    89205927.53846  21785001.0314         48.100  
        39.7004 
 121693399.092 7  23157480.359    94826052.64245  23157486.8754         43.700  
        32.4004 
 110890055.534 8  21101689.508    86407920.12747  21101696.3444         51.000  
        44.6004 
 15 12 31  0  7  0.0000000  0  8G19G02G12G23G06G17G05G09
 122492283.789 7  23309510.438    95448532.46645  23309515.5124         45.100  
        33.7004 
 116198601.144 7  22111859.820    90544377.73946  22111863.2544         46.200  
        37.3004 
 126069608.182 7  23990253.953    98236064.38044  23990259.7584         42.300  
        25.8004 
 122833333.742 7  23374372.859    95714157.99445  23374376.4614         46.000  
        30.9004 
 107833686.169 8  20520068.742    84026286.69147  20520076.6334         53.500  
        47.1004 
 114565185.370 8  21801032.406    89271599.91146  21801038.9844         49.200  
        39.8004 
 121616077.854 7  23142767.719    94765802.34645  23142773.8364         43.000  
        33.1004 
 110902565.089 8  21104069.672    86417667.83647  21104077.3404         49.200  
        43.8004 
 15 12 31  0  7 30.0000000  0  8G19G02G12G23G06G17G05G09
 122594386.512 7  23328939.898    95528092.96345  23328944.5784         45.500  
        33.6004 
 116131921.796 7  22099171.711    90492419.81146  22099174.7544         46.100  
        38.4004 
 126102821.682 6  23996573.789    98261944.98244  23996580.3324         41.600  
        26.9004 
 122900723.759 7  23387197.188    95766669.64545  23387200.6994         44.300  
        30.9004 
 107824701.932 8  20518359.359    84019285.97247  20518367.1564         52.800  
        47.0004 
 114649847.174 8  21817143.531    89337570.11246  21817149.2504         49.300  
        40.4004 
 121538985.488 7  23128096.508    94705730.39645  23128103.0044         43.200  
        32.6004 
 110915664.873 8  21106562.438    86427875.45647  21106569.8984         49.100  
        44.1004 
 15 12 31  0  8  0.0000000  0  8G19G02G12G23G06G17G05G09
 122696689.585 7  23348408.031    95607809.56545  23348412.7974         43.700  
        34.2004 
 116065303.486 7  22086494.680    90440509.45446  22086497.4654         46.000  
        38.1004 
 126136483.204 7  24002979.969    98288174.70644  24002985.6604         43.200  
        26.1004 
 122968494.480 7  23400093.492    95819477.94545  23400097.1454         44.900  
        31.5004 
 107815979.437 8  20516699.266    84012489.21047  20516707.1054         52.800  
        47.0004 
 114734889.225 8  21833325.992    89403836.59746  21833332.5004         48.400  
        39.9004 
 121462122.122 7  23113470.500    94645836.87445  23113476.0744         43.500  
        32.7004 
 110929354.597 8  21109167.656    86438542.76847  21109175.0594         49.200  
        43.7004 
 15 12 31  0  8 30.0000000  0  8G19G02G12G23G06G17G05G09
 122799190.262 7  23367912.930    95687680.15745  23367917.8954         43.600  
        33.6004 
 115998746.977 7  22073829.203    90388647.25046  22073831.9924         46.400  
        38.4004 
 126170590.118 7  24009469.805    98314751.48144  24009475.8834         42.300  
        25.8004 
 123036643.898 7  23413061.938    95872581.34145  23413065.4494         44.600  
        30.4004 
 107807519.236 8  20515089.297    84005896.84247  20515097.1484         52.700  
        47.1004 
 114820308.688 8  21849580.742    89470397.17346  21849587.0784         48.500  
        40.1004 
 121385488.113 7  23098887.008    94586122.08845  23098892.8914         43.600  
        31.8004 
 110943633.197 8  21111884.672    86449668.94647  21111891.8054         51.300  
        43.9004 
 15 12 31  0  9  0.0000000  0  8G19G02G12G23G06G17G05G09
 122901886.816 7  23387455.469    95767703.37545  23387460.3594         43.500  
        34.0004 
 115932253.827 7  22061176.078    90336834.41346  22061178.7304         46.700  
        38.2004 
 126205140.703 7  24016044.945    98341673.99644  24016050.9454         42.700  
        26.8004 
 123105169.776 7  23426102.055    95925978.07245  23426106.0314         44.400  
        31.4004 
 107799322.909 8  20513529.500    83999510.07847  20513537.8204         53.000  
        47.3004 
 114906103.995 7  21865907.164    89537250.61346  21865913.7934         47.800  
        40.0004 
 121309084.370 7  23084347.438    94526586.72545  23084353.6564         43.600  
        32.3004 
 110958500.633 8  21114714.078    86461253.95947  21114721.1644         51.000  
        43.7004 
 15 12 31  0  9 30.0000000  0  8G19G02G12G23G06G17G05G09
 123004776.871 7  23407035.547    95847877.37145  23407040.1844         43.900  
        33.5004 
 115865825.208 7  22048535.227    90285071.84746  22048537.4144         46.300  
        38.3004 
 126240132.731 7  24022704.023    98368940.47744  24022710.1804         42.600  
        26.8004 
 123174070.073 7  23439213.125    95979666.55745  23439217.1134         44.600  
        31.5004 
 107791391.386 8  20512020.328    83993329.65947  20512028.3164         52.900  
        47.0004 
 114992272.965 8  21882304.859    89604395.22146  21882310.8954         48.300  
        39.2004 
 121232911.059 7  23069852.672    94467230.90145  23069858.1764         43.400  
        32.2004 
 110973956.163 8  21117655.367    86473297.21647  21117662.4414         51.500  
        43.7004 
 15 12 31  0 10  0.0000000  0  8G19G02G12G23G06G17G05G09
 123107858.461 7  23426651.063    95928200.62945  23426655.1564         44.100  
        33.2004 
 115799462.136 7  22035906.563    90233360.36246  22035909.0354         46.400  
        37.9004 
 126275563.728 7  24029445.977    98396549.03244  24029452.2344         42.900  
        27.3004 
 123243342.851 7  23452395.500    96033645.27044  23452399.4734         45.000  
        29.9004 
 107783725.694 8  20510561.531    83987356.38347  20510569.6884         53.400  
        47.2004 
 115078813.188 8  21898773.047    89671829.11746  21898779.0944         48.200  
        39.7004 
 121156968.431 7  23055401.617    94408054.84745  23055406.9304         43.800  
        33.0004 
 110989999.209 8  21120708.094    86485798.28947  21120715.1914         51.700  
        44.4004 
 15 12 31  0 10 30.0000000  0  8G19G02G12G23G06G17G05G09
 123211129.384 7  23446302.813    96008671.40245  23446307.6484         43.900  
        33.3004 
 115733165.752 7  22023290.609    90181700.84146  22023293.5594         46.800  
        38.7004 
 126311431.604 7  24036271.445    98424497.99344  24036276.9414         42.000  
        25.3004 
 123312986.242 7  23465648.461    96087912.79345  23465651.7704         45.300  
        30.0004 
 107776327.022 8  20509153.570    83981591.16847  20509161.8444         52.600  
        47.1004 
 115165722.631 7  21915311.094    89739550.72146  21915317.2814         47.700  
        38.7004 
 121081257.197 7  23040994.125    94349059.09345  23040999.9104         44.000  
        33.0004 
 111006629.195 8  21123872.438    86498756.71747  21123879.5784         51.000  
        44.3004 
 15 12 31  0 11  0.0000000  0  8G19G02G12G23G06G17G05G09
 123314587.003 7  23465990.117    96089287.67545  23465995.1094         43.400  
        33.2004 
 115666937.116 7  22010687.984    90130094.11646  22010690.4804         46.700  
        38.6004 
 126347734.595 6  24043179.648    98452785.99044  24043185.2774         41.800  
        25.9004 
 123382997.579 7  23478971.313    96142467.01145  23478974.7154         46.100  
        30.9004 
 107769196.009 8  20507796.672    83976034.52647  20507804.9384         53.400  
        47.2004 
 115252998.710 7  21931919.555    89807558.00046  21931925.2894         47.400  
        38.8004 
 121005776.968 7  23026630.539    94290243.34245  23026636.6884         43.400  
        33.4004 
 111023845.017 8  21127148.422    86512171.63147  21127155.7894         51.200  
        44.1004 
 15 12 31  0 11 30.0000000  0  8G19G02G12G23G06G17G05G09
 123418229.629 7  23485713.031    96170048.08945  23485717.0634         43.800  
        32.7004 
 115600777.851 7  21998098.594    90078541.44546  21998101.3404         47.000  
        39.2004 
 126384469.912 6  24050169.867    98481410.88244  24050176.1094         41.500  
        26.3004 
 123453374.994 7  23492363.344    96197306.50045  23492367.1254         46.200  
        30.4004 
 107762333.911 8  20506490.727    83970687.42347  20506498.6054         53.300  
        47.2004 
 115340639.417 8  21948597.117    89875849.41346  21948603.1414         48.400  
        39.4004 
 120930528.610 7  23012310.813    94231608.27545  23012317.2274         43.800  
        32.3004 
 111041646.203 8  21130535.781    86526042.68347  21130543.3324         51.000  
        43.8004 
 15 12 31  0 12  0.0000000  0  8G19G02G12G23G06G17G05G09
 123522055.028 7  23505470.180    96250950.91945  23505475.0704         43.800  
        33.7004 
 115534688.544 7  21985521.992    90027043.28546  21985524.8324         47.900  
        38.4004 
 126421635.706 6  24057242.391    98510371.19244  24057248.9224         40.900  
        26.1004 
 123524116.748 7  23505825.547    96252429.88245  23505829.3284         46.700  
        31.0004 
 107755742.020 8  20505236.461    83965550.87247  20505244.6684         53.200  
        47.1004 
 115428642.447 8  21965343.500    89944423.15546  21965349.4024         49.000  
        40.1004 
 120855512.646 7  22998035.938    94173154.29845  22998042.2814         45.400  
        33.0004 
 111060032.261 8  21134034.766    86540369.46747  21134042.3524         51.900  
        43.3004 
 15 12 31  0 12 30.0000000  0  8G19G02G12G23G06G17G05G09
 123626060.520 7  23525261.305    96331994.08645  23525266.7704         43.400  
        33.5004 
 115468670.519 7  21972959.359    89975600.66146  21972961.4774         47.800  
        38.5004 
 126459229.272 6  24064397.016    98539664.86144  24064403.1564         41.200  
        26.9004 
 123595220.118 7  23519355.711    96307835.04944  23519359.4574         44.800  
        29.8004 
 107749420.943 8  20504033.523    83960625.34747  20504041.3484         53.000  
        46.9004 
 115517005.059 8  21982158.680    90013277.09246  21982164.4614         48.900  
        38.9004 
 120780729.262 7  22983805.313    94114881.53845  22983811.6094         45.200  
        33.9004 
 111079001.985 8  21137644.953    86555151.06247  21137652.1134         51.500  
        43.9004 
 15 12 31  0 13  0.0000000  0  8G19G02G12G23G06G17G05G09
 123730244.309 7  23545087.141    96413176.18545  23545092.6484         43.600  
        33.4004 
 115402725.332 7  21960409.531    89924214.79146  21960412.3914         46.800  
        38.5004 
 126497248.610 6  24071631.672    98569290.27844  24071637.6334         40.400  
        24.4004 
 123666683.410 7  23532954.984    96363520.65745  23532958.7034         44.000  
        30.2004 
 107743372.020 8  20502882.695    83955911.88747  20502890.8284         53.300  
        47.2004 
 115605725.669 8  21999040.438    90082409.97646  21999047.2704         49.100  
        39.2004 
 120706179.043 7  22969619.070    94056790.48245  22969625.2504         45.500  
        34.2004 
 111098554.872 8  21141365.336    86570387.06247  21141372.3984         50.900  
        43.6004 
 15 12 31  0 13 30.0000000  0  8G19G02G12G23G06G17G05G09
 123834604.124 7  23564946.305    96494495.43545  23564951.6094         44.300  
        32.6004 
 115336854.303 8  21947875.281    89872886.71046  21947877.9964         48.100  
        38.9004 
 126535691.434 6  24078946.961    98599245.69644  24078952.7774         40.500  
        26.2004 
 123738504.479 7  23546621.594    96419485.05844  23546625.6994         44.100  
        29.1004 
 107737596.397 8  20501783.367    83951411.38647  20501791.8014         53.200  
        47.1004 
 115694801.439 8  22015991.859    90151819.61146  22015998.0784         49.100  
        39.4004 
 120631861.926 7  22955476.789    93998881.05445  22955483.2194         45.900  
        34.0004 
 111118690.272 8  21145197.180    86586076.97647  21145204.5864         49.900  
        43.6004 
 15 12 31  0 14  0.0000000  0  8G19G02G12G23G06G17G05G09
 123939137.743 7  23584838.555    96575950.15045  23584843.1214         44.300  
        32.8004 
 115271058.116 7  21935354.344    89821616.94346  21935357.4774         46.800  
        38.7004 
 126574555.565 6  24086342.148    98629529.39644  24086348.4344         40.400  
        25.6004 
 123810680.918 7  23560356.977    96475726.37344  23560360.9414         44.200  
        29.4004 
 107732094.980 8  20500736.531    83947124.56247  20500744.8714         52.300  
        47.3004 
 115784230.418 8  22033009.500    90221504.47846  22033015.9454         49.500  
        39.2004 
 120557778.661 7  22941379.234    93941153.86345  22941385.1524         45.800  
        34.3004 
 111139407.140 8  21149139.336    86602219.97147  21149146.7234         49.900  
        43.0004 
 15 12 31  0 14 30.0000000  0  8G19G02G12G23G06G17G05G09
 124043843.190 7  23604763.211    96657538.73445  23604768.4494         43.900  
        32.8004 
 115205338.161 7  21922848.711    89770406.58246  21922851.4454         47.000  
        38.4004 
 126613838.046 6  24093817.945    98660139.08044  24093824.6174         41.400  
        24.3004 
 123883210.670 7  23574158.945    96532243.00244  23574162.7304         44.100  
        29.3004 
 107726868.575 8  20499741.961    83943052.02647  20499750.1054         52.800  
        47.0004 
 115874010.262 8  22050094.102    90291462.75346  22050100.2544         49.800  
        38.9004 
 120483929.010 7  22927325.914    93883608.71045  22927331.6134         45.600  
        33.3004 
 111160704.432 8  21153192.258    86618815.25247  21153199.0514         51.400  
        43.7004 
 15 12 31  0 15  0.0000000  0  8G19G02G12G23G06G17G05G09
 124148717.919 7  23624720.305    96739259.21345  23624725.7464         44.300  
        32.4004 
 115139695.811 7  21910357.383    89719256.68946  21910360.0824         46.700  
        38.7004 
 126653537.080 7  24101372.719    98691073.38344  24101378.1094         42.500  
        26.9004 
 123956091.521 7  23588027.477    96589033.19445  23588031.7704         43.600  
        30.5004 
 107721918.487 8  20498799.930    83939194.80647  20498808.2114         51.600  
        47.2004 
 115964138.321 8  22067245.023    90361692.34146  22067251.3554         49.300  
        38.7004 
 120410313.638 7  22913317.805    93826246.10645  22913323.4454         46.400  
        33.9004 
 111182581.502 8  21157355.336    86635862.31047  21157362.5204         50.200  
        43.2004 
 15 12 31  0 15 30.0000000  0  8G19G02G12G23G06G17G05G09
 124253759.787 7  23644709.367    96821109.94145  23644714.3874         44.400  
        33.0004 
 115074132.547 7  21897880.914    89668168.42746  21897884.2074         46.700  
        39.2004 
 126693650.335 7  24109005.117    98722330.43144  24109011.5004         42.800  
        24.0004 
 124029321.549 7  23601963.141    96646095.47545  23601967.5354         44.200  
        30.1004 
 107717245.951 8  20497910.906    83935553.85947  20497918.8714         51.800  
        47.2004 
 116054612.551 8  22084461.797    90432191.68946  22084467.8484         48.200  
        38.1004 
 120336933.026 7  22899353.555    93769066.43345  22899359.7544         46.300  
        33.7004 
 111205037.651 8  21161628.742    86653360.59447  21161635.8244         49.800  
        43.7004 
 15 12 31  0 16  0.0000000  0  8G19G02G12G23G06G17G05G09
 124358966.528 7  23664729.750    96903089.12645  23664734.6024         44.600  
        31.8004 
 115008649.045 7  21885419.945    89617142.31846  21885423.0204         47.000  
        39.2004 
 126734174.934 7  24116716.742    98753908.00644  24116723.1844         42.100  
        24.5004 
 124102898.195 7  23615964.031    96703427.83944  23615968.4964         43.700  
        29.7004 
 107712851.526 8  20497074.828    83932129.62547  20497083.1454         52.000  
        47.3004 
 116145430.527 8  22101743.883    90502958.88046  22101750.1884         48.900  
        38.9004 
 120263787.205 7  22885434.313    93712069.70145  22885440.1174         45.500  
        34.0004 
 111228071.492 8  21166011.391    86671309.02747  21166018.8134         49.400  
        43.0004 
 15 12 31  0 16 30.0000000  0  8G19G02G12G23G06G17G05G09
 124464335.912 7  23684780.695    96985195.07045  23684786.0474         44.300  
        31.8004 
 114943246.415 7  21872974.227    89566179.21746  21872977.1524         47.000  
        38.6004 
 126775109.000 7  24124506.813    98785804.66143  24124512.8594         42.100  
        23.6004 
 124176819.337 7  23630030.859    96761028.66044  23630035.0824         43.800  
        29.4004 
 107708736.229 8  20496291.633    83928922.88347  20496299.6954         51.900  
        47.4004 
 116236589.515 8  22119090.414    90573991.81046  22119097.3634         48.200  
        38.1004 
 120190876.115 7  22871559.188    93655255.89145  22871565.6844         46.000  
        34.2004 
 111251681.998 8  21170504.633    86689706.80547  21170511.6134         50.000  
        43.7004 
 15 12 31  0 17  0.0000000  0  8G19G02G12G23G06G17G05G09
 124569865.929 7  23704862.531    97067426.17245  23704867.2384         44.500  
        31.9004 
 114877926.843 7  21860544.609    89515280.85246  21860547.6174         47.800  
        38.6004 
 126816449.983 6  24132373.047    98818018.37144  24132379.7584         39.200  
        25.6004 
 124251083.116 7  23644162.859    96818896.46444  23644167.2894         45.100  
        29.6004 
 107704901.667 8  20495561.961    83925934.90947  20495569.8404         53.300  
        47.5004 
 116328087.633 8  22136502.336    90645288.97146  22136508.3954         48.000  
        38.4004 
 120118200.728 7  22857730.375    93598625.75345  22857736.3754         46.500  
        33.2004 
 111275868.773 8  21175107.367    86708553.63347  21175114.7974         51.200  
        43.7004 
 15 12 31  0 17 30.0000000  0  8G19G02G12G23G06G17G05G09
 124675554.254 7  23724974.914    97149780.64045  23724979.1174         44.500  
        31.2004 
 114812691.473 7  21848130.523    89464448.08246  21848133.4304         47.200  
        39.2004 
 126858194.972 6  24140317.008    98850546.89044  24140323.5634         39.800  
        24.2004 
 124325687.460 7  23658359.398    96877029.64344  23658363.6564         44.800  
        28.6004 
 107701348.881 8  20494886.086    83923166.49747  20494893.8484         51.900  
        47.3004 
 116419922.357 8  22153978.273    90716848.45146  22153984.1764         48.000  
        38.3004 
 120045761.361 7  22843945.305    93542179.51145  22843951.4454         44.700  
        34.2004 
 111300630.795 8  21179819.367    86727848.69647  21179826.6094         50.400  
        43.1004 
 15 12 31  0 18  0.0000000  0  8G19G02G12G23G06G17G05G09
 124781398.712 7  23745115.953    97232256.75445  23745120.8324         44.300  
        31.1004 
 114747541.151 7  21835732.594    89413681.59746  21835735.6134         46.800  
        39.3004 
 126900342.248 6  24148337.297    98883388.90344  24148343.9344         39.900  
        25.4004 
 124400629.656 7  23672620.195    96935426.08644  23672624.1414         44.700  
        27.9004 
 107698078.565 8  20494263.508    83920618.18947  20494271.8134         52.300  
        47.2004 
 116512091.245 8  22171517.719    90788668.30646  22171523.4774         48.800  
        38.6004 
 119973557.894 7  22830205.656    93485917.09245  22830211.5744         46.100  
        34.4004 
 111325966.760 8  21184640.656    86747590.99247  21184648.1524         50.900  
        43.2004 
 15 12 31  0 18 30.0000000  0  8G19G02G12G23G06G17G05G09
 124887396.923 7  23765286.609    97314852.68345  23765291.7854         44.900  
        31.1004 
 114682477.062 7  21823351.813    89362982.30446  21823354.3984         47.000  
        38.9004 
 126942888.998 6  24156434.531    98916542.15744  24156440.5124         40.300  
        25.8004 
 124475907.653 7  23686945.305    96994084.19844  23686949.8054         45.300  
        28.8004 
 107695091.642 8  20493695.367    83918290.70847  20493703.3954         52.400  
        47.1004 
 116604591.841 8  22189119.281    90860746.62346  22189125.6884         48.100  
        37.5004 
 119901590.424 7  22816510.289    93429838.56645  22816516.4774         45.400  
        33.6004 
 111351875.463 8  21189571.063    86767779.57247  21189578.4734         49.800  
        43.2004 
 15 12 31  0 19  0.0000000  0  8G19G02G12G23G06G17G05G09
 124993546.603 7  23785486.875    97397566.62845  23785491.7664         44.000  
        30.9004 
 114617500.862 7  21810986.906    89312351.49146  21810990.1054         46.800  
        39.1004 
 126985832.856 6  24164606.281    98950004.85344  24164612.6884         40.000  
        26.6004 
 124551519.423 7  23701334.391    97053002.39244  23701338.1134         45.900  
        27.9004 
 107692389.389 8  20493180.672    83916185.04947  20493188.7704         51.300  
        47.2004 
 116697421.763 8  22206785.141    90933081.57446  22206791.0394         48.300  
        37.8004 
 119829859.709 7  22802860.430    93373944.53445  22802866.7464         45.600  
        34.2004 
 111378356.062 8  21194610.078    86788413.79647  21194617.1604         50.100  
        43.1004 
 15 12 31  0 19 30.0000000  0  8G19G02G12G23G06G17G05G09
 125099845.577 7  23805714.586    97480396.91745  23805719.9654         45.400  
        31.8004 
 114552613.870 7  21798639.148    89261790.19946  21798642.1524         46.600  
        38.9004 
 127029171.401 6  24172853.219    98983775.12344  24172859.4414         40.900  
        24.7004 
 124627462.526 7  23715785.359    97112178.77244  23715789.9104         45.100  
        29.0004 
 107689972.793 8  20492721.063    83914301.98447  20492729.3484         52.500  
        46.9004 
 116790578.527 7  22224512.070    91005671.19546  22224517.9804         47.200  
        37.5004 
 119758365.722 7  22789255.656    93318234.96345  22789261.6804         44.700  
        34.4004 
 111405407.479 8  21199757.773    86809492.79547  21199764.6954         50.400  
        43.4004 
 15 12 31  0 20  0.0000000  0  8G19G02G12G23G06G17G05G09
 125206291.816 7  23825970.688    97563341.95045  23825975.3164         44.400  
        30.4004 
 114487817.297 7  21786308.914    89211299.36346  21786311.8914         47.100  
        39.4004 
 127072902.105 6  24181174.633    99017850.94743  24181180.8984         41.200  
        23.4004 
 124703735.158 7  23730299.836    97171611.90644  23730304.1764         43.900  
        28.2004 
 107687843.192 8  20492315.797    83912642.54447  20492323.5274         52.000  
        47.2004 
 116884059.995 8  22242300.859    91078513.84946  22242307.5124         48.600  
        38.0004 
 119687108.952 7  22775695.836    93262710.24145  22775701.5434         45.600  
        34.5004 
 111433028.784 8  21205014.055    86831015.86947  21205021.1294         50.200  
        43.4004 
 15 12 31  0 20 30.0000000  0  8G19G02G12G23G06G17G05G09
 125312882.911 7  23846254.461    97646399.86045  23846259.2774         43.900  
        30.6004 
 114423112.690 7  21773996.359    89160880.18846  21773998.9454         47.200  
        39.7004 
 127117022.189 6  24189571.453    99052230.18944  24189577.1644         41.800  
        26.4004 
 124780334.909 7  23744876.570    97231299.92144  23744880.5904         44.500  
        28.4004 
 107686001.426 8  20491965.391    83911207.39747  20491973.7154         51.100  
        47.0004 
 116977863.413 8  22260151.094    91151607.35046  22260157.5514         48.600  
        37.4004 
 119616089.787 7  22762180.984    93207370.64745  22762187.1724         46.200  
        34.2004 
 111461218.801 8  21210378.273    86852982.09747  21210385.4844         49.600  
        42.7004 
 15 12 31  0 21  0.0000000  0  8G19G02G12G23G06G17G05G09
 125419616.355 7  23866564.961    97729568.67845  23866570.5784         44.100  
        31.7004 
 114358501.253 7  21761701.000    89110533.60846  21761703.8484         47.300  
        39.2004 
 127161529.711 6  24198039.961    99086911.33143  24198045.9964         40.700  
        23.6004 
 124857259.178 7  23759515.133    97291240.85244  23759519.0904         44.200  
        28.3004 
 107684448.339 8  20491670.008    83909997.18947  20491678.5004         51.400  
        47.2004 
 117071986.466 8  22278062.367    91224949.93446  22278068.2304         49.000  
        38.0004 
 119545308.028 7  22748711.875    93152216.05145  22748718.3054         45.800  
        34.4004 
 111489976.041 8  21215850.539    86875390.31847  21215857.7074         49.700  
        44.0004 
 15 12 31  0 21 30.0000000  0  8G19G02G12G23G06G17G05G09
 125526490.043 7  23886903.438    97812846.77345  23886908.4064         45.600  
        31.9004 
 114293984.393 7  21749423.953    89060260.72246  21749426.6994         47.900  
        39.9004 
 127206421.888 6  24206582.602    99121892.20644  24206588.7974         41.600  
        24.7004 
 124934506.046 7  23774214.609    97351433.13344  23774218.3984         44.700  
        28.0004 
 107683185.216 8  20491429.375    83909012.92947  20491437.5784         53.300  
        47.2004 
 117166426.879 8  22296033.664    91298539.80546  22296039.5664         48.100  
        37.6004 
 119474764.098 7  22735288.047    93097246.76645  22735293.6684         45.900  
        34.9004 
 111519299.649 8  21221430.727    86898239.85647  21221438.2704         50.200  
        42.7004 
 15 12 31  0 22  0.0000000  0  8G19G02G12G23G06G17G05G09
 125633501.944 7  23907266.875    97896232.59445  23907271.8244         45.300  
        32.1004 
 114229563.291 8  21737164.531    89010062.46146  21737167.5554         48.800  
        39.8004 
 127251695.835 6  24215198.664    99157170.55344  24215204.9064         41.200  
        24.5004 
 125012072.961 7  23788974.883    97411874.80344  23788979.4534         45.100  
        27.8004 
 107682212.840 8  20491244.266    83908255.23147  20491253.0944         52.700  
        47.5004 
 117261182.101 7  22314064.898    91372374.98946  22314071.3834         47.300  
        36.9004 
 119404457.979 7  22721908.820    93042462.78445  22721915.2074         46.500  
        35.4004 
 111549188.112 8  21227118.352    86921529.54147  21227125.7074         48.800  
        43.1004 
 15 12 31  0 22 30.0000000  0  8G19G02G12G23G06G17G05G09
 125740649.821 7  23927655.742    97979724.34645  23927660.9774         44.100  
        30.5004 
 114165239.484 8  21724924.445    88959940.01646  21724927.6724         49.000  
        40.0004 
 127297349.088 7  24223885.938    99192744.46544  24223892.4384         42.200  
        25.0004 
 125089957.986 7  23803796.477    97472564.33944  23803800.1374         45.700  
        28.8004 
 107681532.458 8  20491115.203    83907725.04447  20491123.0124         53.400  
        47.3004 
 117356249.286 7  22332155.852    91446453.24446  22332162.1684         46.600  
        37.0004 
 119334390.194 7  22708575.531    92987864.53445  22708582.0044         46.600  
        34.5004 
 111579640.505 8  21232913.195    86945258.65247  21232920.4804         49.700  
        43.2004 
 15 12 31  0 23  0.0000000  0  8G19G02G12G23G06G17G05G09
 125847931.157 7  23948070.633    98063320.11644  23948076.3444         43.500  
        29.7004 
 114101014.261 8  21712702.773    88909894.37346  21712705.4104         49.300  
        40.3004 
 127343379.056 6  24232645.523    99228611.93344  24232651.7074         41.300  
        25.6004 
 125168158.813 7  23818677.492    97533499.92544  23818681.3874         44.300  
        28.2004 
 107681144.911 8  20491041.227    83907423.04947  20491049.3484         52.300  
        47.3004 
 117451625.802 7  22350305.641    91520772.53446  22350311.9264         46.600  
        37.6004 
 119264560.767 7  22695287.352    92933452.00945  22695293.8634         46.400  
        35.4004 
 111610655.357 8  21238815.109    86969426.04847  21238822.7344         48.900  
        42.9004 
 15 12 31  0 23 30.0000000  0  8G19G02G12G23G06G17G05G09
 125955343.874 7  23968511.477    98147018.22245  23968516.0594         43.400  
        30.2004 
 114036888.730 8  21700499.789    88859926.41246  21700502.7624         49.500  
        39.9004 
 127389783.453 6  24241475.641    99264771.15844  24241481.7704         41.200  
        25.6004 
 125246673.140 7  23833618.086    97594679.81644  23833622.1644         44.400  
        28.2004 
 107681051.315 8  20491023.313    83907350.10747  20491031.7424         53.000  
        47.0004 
 117547309.771 7  22368513.367    91595331.40846  22368519.7464         45.500  
        37.1004 
 119194969.893 7  22682044.813    92879225.36745  22682051.0514         47.300  
        35.5004 
 111642231.509 8  21244824.367    86994030.80747  21244831.7154         49.400  
        43.4004 
 15 12 31  0 24  0.0000000  0  8G19G02G12G23G06G17G05G09
 126062885.655 7  23988975.516    98230816.89444  23988980.9494         43.100  
        29.1004 
 113972864.602 8  21688316.781    88810037.47746  21688319.5234         48.900  
        39.6004 
 127436559.496 6  24250376.539    99301219.98544  24250383.2774         40.200  
        24.3004 
 125325498.750 7  23848618.570    97656102.26544  23848622.5864         44.800  
        28.9004 
 107681252.711 8  20491061.766    83907507.02247  20491069.9614         51.000  
        47.4004 
 117643298.528 7  22386779.648    91670127.78646  22386785.9384         46.100  
        36.9004 
 119125617.783 7  22668847.766    92825184.77045  22668853.9694         47.300  
        35.0004 
 111674367.646 8  21250939.422    87019071.93147  21250946.8244         49.000  
        43.7004 
 15 12 31  0 24 30.0000000  0  8G19G02G12G23G06G17G05G09
 126170554.285 7  24009464.430    98314714.44544  24009469.2504         43.400  
        29.3004 
 113908943.606 8  21676152.906    88760228.89946  21676155.8444         49.300  
        40.1004 
 127483704.451 6  24259348.078    99337956.25644  24259354.2854         40.900  
        24.2004 
 125404633.480 7  23863677.875    97717765.55644  23863681.9304         44.100  
        29.1004 
 107681750.096 8  20491156.500    83907894.58547  20491164.7234         52.500  
        47.0004 
 117739589.730 7  22405103.195    91745159.82846  22405109.4414         45.500  
        36.5004 
 119056504.617 7  22655695.563    92771330.36445  22655701.9344         47.200  
        35.8004 
 111707062.458 8  21257160.961    87044548.38447  21257168.3364         49.600  
        43.6004 
 15 12 31  0 25  0.0000000  0  8G19G02G12G23G06G17G05G09
 126278347.454 7  24029976.938    98398709.02844  24029981.9774         43.200  
        29.1004 
 113845126.771 8  21664009.117    88710501.49146  21664012.1374         49.400  
        40.0004 
 127531215.988 6  24268388.922    99374978.20244  24268395.7774         41.300  
        25.1004 
 125484074.952 7  23878794.703    97779667.87744  23878799.1334         44.700  
        27.8004 
 107682544.635 8  20491307.516    83908513.68847  20491315.4534         52.200  
        47.1004 
 117836180.472 7  22423484.234    91820425.29246  22423490.5944         46.700  
        37.6004 
 118987630.758 7  22642589.281    92717662.43745  22642595.8714         46.700  
        35.0004 
 111740314.723 8  21263488.539    87070459.21047  21263495.9614         48.800  
        42.5004 
 15 12 31  0 25 30.0000000  0  8G19G02G12G23G06G17G05G09
 126386262.889 7  24050512.875    98482798.88344  24050517.9304         43.400  
        29.3004 
 113781415.489 8  21651885.070    88660856.32546  21651888.3014         48.800  
        40.8004 
 127579091.325 6  24277500.234    99412283.62544  24277506.5434         41.700  
        25.6004 
 125563820.743 7  23893969.672    97841807.33044  23893973.9144         44.700  
        27.7004 
 107683637.289 8  20491515.352    83909365.08947  20491523.5514         53.500  
        47.1004 
 117933068.286 7  22441920.750    91895922.22746  22441927.8094         45.600  
        37.0004 
 118918996.355 7  22629528.883    92664181.09345  22629534.8754         46.300  
        35.5004 
 111774123.058 8  21269922.203    87096803.33847  21269929.4224         49.900  
        43.2004 
 15 12 31  0 26  0.0000000  0  8G19G02G12G23G06G17G05G09
 126494298.343 7  24071071.281    98566982.24745  24071075.7624         44.600  
        30.9004 
 113717811.270 8  21639781.484    88611294.58546  21639784.3594         49.500  
        40.6004 
 127627327.740 7  24286679.391    99449870.36744  24286685.4384         42.700  
        26.5004 
 125643868.724 7  23909202.953    97904182.26844  23909207.9454         44.100  
        28.5004 
 107685029.119 8  20491780.328    83910449.61947  20491788.2464         52.600  
        47.3004 
 118030250.894 7  22460414.313    91971648.86646  22460421.1684         45.400  
        36.1004 
 118850601.501 7  22616513.797    92610886.40645  22616520.2194         46.900  
        35.4004 
 111808486.137 8  21276461.445    87123579.74047  21276468.8364         48.800  
        42.6004 
 15 12 31  0 26 30.0000000  0  8G19G02G12G23G06G17G05G09
 126602451.462 7  24091652.758    98651257.30945  24091656.8954         44.600  
        31.0004 
 113654315.321 8  21627698.688    88561817.19846  21627701.4614         49.000  
        40.5004 
 127675922.765 6  24295926.695    99487736.57544  24295933.3094         41.900  
        25.4004 
 125724216.503 7  23924492.289    97966790.79544  23924496.1844         44.300  
        28.6004 
 107686720.870 8  20492102.453    83911767.84847  20492110.3834         51.600  
        47.1004 
 118127725.525 7  22478963.070    92047603.07846  22478969.4414         45.200  
        36.9004 
 118782445.925 7  22603543.938    92557778.17245  22603550.1524         45.700  
        34.8004 
 111843402.277 8  21283105.664    87150787.08747  21283113.0434         48.800  
        43.1004 
 15 12 31  0 27  0.0000000  0  8G19G02G12G23G06G17G05G09
 126710719.861 7  24112255.383    98735622.19345  24112259.6374         43.700  
        30.2004 
 113590929.404 8  21615637.203    88512425.56546  21615640.0824         49.600  
        40.2004 
 127724873.775 6  24305241.539    99525880.17244  24305247.5554         40.800  
        26.0004 
 125804861.770 7  23939838.398    98029631.15344  23939842.7464         43.800  
        27.1004 
 107688713.729 8  20492481.727    83913320.70147  20492489.6524         52.100  
        47.2004 
 118225489.606 7  22497567.273    92123782.81946  22497573.5594         45.100  
        36.4004 
 118714530.403 7  22590620.195    92504856.99045  22590626.1764         47.300  
        35.4004 
 111878870.253 8  21289854.828    87178424.44347  21289862.6054         48.900  
        42.6004 
 15 12 31  0 27 30.0000000  0  9G19G02G12G23G06G07G17G05G09
 126819101.646 7  24132880.078    98820075.43044  24132884.5784         43.700  
        29.9004 
 113527655.180 8  21603596.414    88463120.96346  21603599.4454         50.000  
        40.7004 
 127774177.815 6  24314623.734    99564298.85144  24314630.2584         41.000  
        25.8004 
 125885802.620 7  23955241.461    98092701.82044  23955245.9844         43.500  
        27.8004 
 107691008.822 8  20492918.391    83915109.06147  20492926.3834         51.500  
        47.3004 
 130818090.57515  24893896.867                                          31.900  
                
 118323540.594 7  22516225.734    92200186.13845  22516231.6724         45.800  
        34.7004 
 118646854.798 7  22577741.672    92452122.76145  22577747.9104         46.700  
        35.4004 
 111914888.731 8  21296708.969    87206490.76747  21296716.4534         48.900  
        43.1004 
 15 12 31  0 28  0.0000000  0  9G19G02G12G23G06G07G17G05G09
 126927594.510 7  24153524.852    98904615.22644  24153530.1414         43.000  
        29.4004 
 113464494.210 8  21591577.023    88413904.61446  21591579.7074         50.300  
        40.6004 
 127823832.440 6  24324073.188    99602990.70844  24324079.1724         41.300  
        25.8004 
 125967036.662 7  23970699.414    98156000.95444  23970704.3204         43.900  
        27.2004 
 107693607.384 8  20493412.633    83917133.88247  20493420.7734         53.400  
        47.1004 
 130750460.722 6  24880969.445   101883447.46442  24880978.7114         36.600  
        16.3004 
 118421876.388 7  22534938.117    92276811.36645  22534944.9694         45.600  
        35.8004 
 118579419.789 7  22564909.750    92399576.00745  22564915.1884         47.100  
        35.5004 
 111951456.503 8  21303667.664    87234985.09947  21303674.9774         50.200  
        42.7004 
 15 12 31  0 28 30.0000000  0  9G19G02G12G23G06G07G17G05G09
 127036196.327 7  24174191.016    98989239.90744  24174197.1884         43.200  
        29.3004 
 113401447.543 8  21579579.828    88364777.32446  21579582.8674         50.000  
        40.7004 
 127873834.758 6  24333588.086    99641953.49543  24333593.7154         41.200  
        22.6004 
 126048561.657 7  23986213.500    98219526.82244  23986218.3634         44.100  
        27.1004 
 107696510.171 8  20493965.344    83919395.77247  20493973.6684         53.500  
        47.2004 
 130682586.502 6  24868054.688   101830558.48943  24868062.2034         40.700  
        23.3004 
 118520494.508 7  22553704.672    92353656.59946  22553711.5664         46.500  
        36.3004 
 118512225.068 7  22552122.719    92347216.49045  22552128.7194         47.300  
        35.1004 
 111988571.865 8  21310730.508    87263906.12447  21310737.5594         48.800  
        42.6004 
 15 12 31  0 29  0.0000000  0  9G19G02G12G23G06G07G17G05G09
 127144904.803 7  24194877.688    99073947.71044  24194883.9574         43.300  
        28.6004 
 113338516.302 8  21567604.313    88315739.98646  21567607.4494         50.100  
        40.5004 
 127924182.231 6  24343168.656    99681185.26144  24343174.5744         41.300  
        25.0004 
 126130374.665 7  24001781.227    98283277.10944  24001786.1914         43.200  
        26.8004 
 107699717.720 8  20494575.711    83921895.12447  20494584.0784         52.800  
        47.3004 
 130614765.407 6  24855149.273   101777710.92743  24855156.2624         39.600  
        22.3004 
 118619391.443 7  22572524.578    92430719.08745  22572530.5904         45.500  
        35.4004 
 118445270.565 7  22539381.484    92295044.16646  22539387.4384         47.500  
        36.0004 
 112026232.774 8  21317897.227    87293252.26047  21317904.5904         50.300  
        42.9004 
 15 12 31  0 29 30.0000000  0  9G19G02G12G23G06G07G17G05G09
 127253717.787 7  24215584.422    99158736.95644  24215590.5044         43.100  
        28.6004 
 113275702.444 8  21555651.320    88266794.10946  21555654.4384         50.200  
        41.2004 
 127974872.108 6  24352814.570    99720683.82644  24352820.7934         39.900  
        25.6004 
 126212473.941 7  24017404.930    98347250.47644  24017409.4344         43.100  
        27.5004 
 107703231.687 8  20495244.297    83924633.25847  20495252.2894         53.200  
        47.0004 
 130547000.221 6  24842253.625   101724906.88243  24842261.1334         40.200  
        21.1004 
 118718565.022 7  22591396.102    92507997.15345  22591403.6334         44.900  
        35.5004 
 118378556.817 7  22526686.633    92243059.43545  22526692.6054         47.400  
        35.9004 
 112064438.380 8  21325167.516    87323022.83247  21325174.6294         49.900  
        43.1004 
 15 12 31  0 30  0.0000000  0  9G19G02G12G23G06G07G17G05G09
 127362632.042 7  24236309.625    99243605.08344  24236315.8404         42.300  
        27.2004 
 113213007.257 8  21543720.875    88217940.70346  21543723.7154         50.200  
        40.4004 
 128025901.736 6  24362526.133    99760447.12843  24362531.6804         41.200  
        22.8004 
 126294856.931 7  24033082.016    98411444.90644  24033087.0984         44.400  
        27.4004 
 107707052.664 8  20495971.531    83927610.60947  20495979.7774         53.900  
        47.3004 
 130479293.671 6  24829368.781   101672148.50643  24829377.4804         39.600  
        22.5004 
 118818012.827 7  22610320.883    92585488.87545  22610327.4964         45.300  
        35.7004 
 118312083.488 7  22514037.461    92191262.04145  22514042.8484         47.000  
        35.9004 
 112103186.788 8  21332540.773    87353216.36747  21332548.6564         49.800  
        42.6004 
 15 12 31  0 30 30.0000000  0  9G19G02G12G23G06G07G17G05G09
 127471645.865 7  24257054.641    99328550.82544  24257060.4024         43.900  
        27.8004 
 113150432.720 8  21531813.508    88169181.31046  21531816.3364         50.000  
        41.0004 
 128077268.211 6  24372299.906    99800472.89143  24372306.7664         40.400  
        23.8004 
 126377521.580 7  24048813.148    98475858.83944  24048817.3364         44.100  
        27.9004 
 107711181.909 9  20496757.266    83930828.17647  20496765.5704         54.000  
        47.0004 
 130411648.797 6  24816496.594   101619438.21343  24816504.7504         39.600  
        22.5004 
 118917731.955 7  22629296.828    92663192.02845  22629304.0664         45.200  
        35.8004 
 118245850.791 7  22501433.414    92139652.15746  22501439.3914         46.600  
        36.0004 
 112142476.699 8  21340017.672    87383831.84447  21340024.7854         49.900  
        42.6004 
 15 12 31  0 31  0.0000000  0  9G19G02G12G23G06G07G17G05G09
 127580757.245 7  24277818.258    99413572.58744  24277823.1254         44.100  
        28.4004 
 113087979.948 8  21519928.500    88120516.79646  21519931.9414         50.100  
        41.4004 
 128128968.288 6  24382137.945    99840758.62844  24382144.8984         39.600  
        24.5004 
 126460465.530 7  24064596.477    98540490.37844  24064601.4454         43.800  
        27.0004 
 107715620.351 8  20497602.172    83934286.68047  20497610.1644         52.200  
        47.1004 
 130344068.324 6  24803636.242   101566778.12243  24803645.1054         37.300  
        20.4004 
 119017720.168 7  22648324.250    92741104.86746  22648330.2974         45.000  
        36.0004 
 118179859.101 7  22488875.469    92088230.07046  22488881.3094         47.300  
        36.6004 
 112182306.448 8  21347597.070    87414867.98947  21347604.3094         49.400  
        42.5004 
 15 12 31  0 31 30.0000000  0  9G19G02G12G23G06G07G17G05G09
 127689963.921 7  24298599.781    99498668.61444  24298605.6374         43.700  
        28.9004 
 113025650.912 8  21508068.000    88071948.70646  21508070.9614         49.900  
        41.3004 
 128180999.946 6  24392040.008    99881302.73143  24392046.0394         41.000  
        23.0004 
 126543686.524 7  24080433.172    98605337.80944  24080437.7504         44.200  
        27.6004 
 107720369.407 9  20498505.695    83937987.21747  20498513.8954         54.300  
        47.4004 
 130276555.604 6  24790789.633   101514170.80543  24790798.5204         38.400  
        22.0004 
 119117975.065 7  22667401.711    92819225.49945  22667408.3054         45.400  
        35.3004 
 118114108.928 7  22476363.664    92036996.17746  22476369.5084         47.200  
        36.0004 
 112222674.877 8  21355278.672    87446323.87847  21355286.3164         49.200  
        42.6004 
 15 12 31  0 32  0.0000000  0  9G19G02G12G23G06G07G17G05G09
 127799263.097 7  24319398.453    99583836.69844  24319404.8594         43.900  
        28.7004 
 112963446.818 8  21496230.953    88023477.97046  21496234.0664         50.000  
        40.9004 
 128233360.499 6  24402004.516    99922103.07943  24402009.9924         41.400  
        22.5004 
 126627181.917 7  24096321.898    98670399.05044  24096326.1374         44.600  
        27.6004 
 107725429.298 8  20499468.742    83941929.96447  20499477.0744         51.100  
        47.2004 
 130209112.886 6  24777955.648   101461618.06843  24777964.1604         40.000  
        22.5004 
 119218493.402 7  22686529.758    92897551.43145  22686536.1254         44.900  
        34.4004 
 118048599.242 7  22463897.820    91985949.67245  22463903.5394         47.200  
        35.3004 
 112263579.635 8  21363063.055    87478197.68147  21363070.3164         48.800  
        42.5004 
 15 12 31  0 32 30.0000000  0  9G19G02G12G23G06G07G17G05G09
 127908652.863 7  24340214.883    99669075.38144  24340220.7274         44.200  
        29.8004 
 112901368.698 7  21484418.000    87975105.39946  21484420.9844         47.800  
        41.3004 
 128286046.790 6  24412029.859    99963157.30443  24412035.0354         41.600  
        22.5004 
 126710949.600 7  24112262.359    98735672.46644  24112266.7734         42.400  
        26.8004 
 107730801.137 8  20500490.563    83946115.79847  20500498.9774         53.800  
        47.3004 
 130141742.829 6  24765135.039   101409122.00643  24765143.7704         38.000  
        21.7004 
 119319272.708 7  22705707.758    92976080.68245  22705714.0824         44.500  
        34.7004 
 117983330.792 7  22451477.391    91935091.14645  22451483.7734         44.800  
        35.8004 
 112305019.001 8  21370948.461    87510488.05447  21370956.2584         49.600  
        42.5004 
 15 12 31  0 33  0.0000000  0  9G19G02G12G23G06G07G17G05G09
 128018130.879 7  24361047.938    99754382.83644  24361053.6994         44.100  
        28.8004 
 112839418.813 7  21472629.227    87926832.75346  21472632.3714         47.900  
        41.0004 
 128339056.093 6  24422117.414   100004463.21644  24422123.7504         41.800  
        24.2004 
 126794987.351 7  24128254.016    98801156.35344  24128258.8754         43.400  
        26.0004 
 107736486.231 9  20501572.695    83950545.71547  20501581.0044         54.100  
        47.0004 
 130074448.812 6  24752328.641   101356685.20743  24752338.0044         39.300  
        21.1004 
 119420310.539 7  22724934.977    93054811.39645  22724940.8204         45.500  
        34.7004 
 117918303.931 7  22439103.102    91884420.87646  22439108.4574         45.100  
        36.0004 
 112346992.083 8  21378935.961    87543194.31047  21378943.5084         51.100  
        42.3004 
 15 12 31  0 33 30.0000000  0  9G19G02G12G23G06G07G17G05G09
 128127694.928 7  24381896.922    99839757.33344  24381903.1884         43.400  
        29.3004 
 112777598.312 8  21460865.258    87878660.92446  21460868.2854         49.200  
        40.8004 
 128392385.452 6  24432265.625   100046018.52944  24432272.1764         41.500  
        25.1004 
 126879292.641 7  24144297.844    98866848.67344  24144302.2384         44.600  
        28.1004 
 107742485.393 8  20502714.172    83955220.36747  20502722.4144         53.700  
        46.9004 
 130007233.551 6  24739538.500   101304309.81043  24739547.1024         39.400  
        21.8004 
 119521604.182 7  22744209.844    93133741.45545  22744216.3444         45.100  
        34.4004 
 117853518.315 7  22426775.063    91833938.59446  22426780.9804         47.100  
        36.0004 
 112389496.799 8  21387024.133    87576314.83247  21387031.5474         50.600  
        42.3004 
 15 12 31  0 34  0.0000000  0  9G19G02G12G23G06G07G17G05G09
 128237342.653 7  24402762.508    99925197.03044  24402769.0944         43.100  
        28.3004 
 112715909.087 8  21449126.242    87830591.40046  21449129.4184         48.000  
        40.9004 
 128446032.424 6  24442474.555   100087821.30444  24442481.9344         41.900  
        27.3004 
 126963863.042 7  24160390.461    98932747.57544  24160395.1564         43.300  
        26.9004 
 107748799.592 8  20503915.938    83960140.49247  20503923.8984         53.700  
        47.4004 
 129940099.528 6  24726763.844   101251997.73443  24726771.6174         40.500  
        22.2004 
 119623151.177 7  22763534.000    93212868.91045  22763540.5354         45.000  
        34.5004 
 117788974.142 7  22414492.367    91783644.44946  22414498.4024         45.300  
        36.9004 
 112432531.476 8  21395213.633    87609848.31547  21395220.8874         50.800  
        42.1004 
 15 12 31  0 34 30.0000000  0  9G19G02G12G23G06G07G17G05G09
 128347071.784 7  24423643.211   100010700.14044  24423649.7114         43.000  
        28.5004 
 112654352.773 8  21437412.477    87782625.41546  21437415.2734         48.600  
        40.5004 
 128499994.053 6  24452742.906   100129869.29244  24452749.6644         41.300  
        24.7004 
 127048696.813 7  24176533.328    98998851.71544  24176538.5234         43.200  
        25.8004 
 107755430.047 8  20505177.648    83965307.06047  20505185.9494         53.500  
        47.5004 
 129873050.138 6  24714004.258   101199751.61043  24714012.4534         39.400  
        22.3004 
 119724948.624 7  22782905.250    93292191.52745  22782911.8014         45.600  
        33.5004 
 117724671.490 7  22402256.148    91733538.48946  22402262.3794         46.700  
        36.6004 
 112476094.662 8  21403503.328    87643793.62147  21403510.7934         49.900  
        42.2004 
 15 12 31  0 35  0.0000000  0  9G19G02G12G23G06G07G17G05G09
 128456880.093 6  24444539.586   100096264.95844  24444545.5124         41.400  
        27.9004 
 112592930.592 8  21425724.500    87734763.95546  21425727.0704         49.600  
        41.6004 
 128554267.306 6  24463070.320   100172160.08043  24463077.0274         40.400  
        22.9004 
 127133791.274 7  24192726.984    99065158.98044  24192731.6524         43.000  
        24.7004 
 107762377.525 9  20506499.523    83970720.66047  20506508.3164         54.200  
        47.4004 
 129806088.193 6  24701261.484   101147573.63643  24701269.4414         40.400  
        21.3004 
 119826994.362 7  22802324.563    93371707.61545  22802330.3714         45.300  
        33.9004 
 117660610.426 7  22390065.539    91683620.78346  22390071.5434         47.800  
        36.6004 
 112520184.499 8  21411893.180    87678149.29947  21411900.7814         50.400  
        42.4004 
 15 12 31  0 35 30.0000000  0  9G19G02G12G23G06G07G17G05G09
 128566765.636 7  24465449.656   100181889.95344  24465455.7504         42.300  
        26.8004 
 112531644.227 8  21414061.906    87687008.32946  21414064.9264         48.000  
        41.7004 
 128608849.884 6  24473457.203   100214691.92443  24473463.8324         40.400  
        23.0004 
 127219144.031 7  24208969.391    99131667.50644  24208973.2664         43.400  
        25.5004 
 107769642.909 9  20507882.453    83976381.97347  20507890.6174         54.000  
        47.4004 
 129739216.293 6  24688536.523   101095465.87543  24688544.1094         41.100  
        22.6004 
 119929285.369 7  22821789.578    93451414.84045  22821796.2304         46.300  
        34.0004 
 117596790.619 7  22377921.430    91633891.06346  22377927.1134         45.400  
        36.5004 
 112564799.078 8  21420383.656    87712913.87547  21420390.9694         51.900  
        42.3004 
 15 12 31  0 36  0.0000000  0  9G19G02G12G23G06G07G17G05G09
 128676725.789 7  24486374.992   100267573.10044  24486380.1604         43.000  
        26.8004 
 112470495.175 8  21402425.250    87639359.70446  21402428.0084         50.100  
        40.9004 
 128663738.424 6  24483902.406   100257462.13744  24483908.3324         40.400  
        24.1004 
 127304752.572 7  24225260.000    99198375.33644  24225264.3484         43.600  
        25.4004 
 107777227.134 9  20509325.680    83982291.72447  20509333.4654         54.200  
        47.0004 
 129672437.342 6  24675828.125   101043430.50043  24675836.3324         41.300  
        22.5004 
 120031818.859 7  22841300.828    93531310.99345  22841307.9414         46.400  
        33.7004 
 117533212.463 7  22365822.773    91584349.65246  22365828.4494         47.400  
        36.3004 
 112609936.694 8  21428972.773    87748086.00447  21428980.4104         50.700  
        42.5004 
 15 12 31  0 36 30.0000000  0  9G19G02G12G23G06G07G17G05G09
 128786758.371 7  24507313.148   100353312.68044  24507319.1134         42.800  
        27.0004 
 112409485.223 8  21390815.602    87591819.46546  21390818.5084         49.800  
        41.6004 
 128718930.141 6  24494405.352   100300468.63643  24494411.2194         39.900  
        22.6004 
 127390614.738 7  24241598.930    99265280.81144  24241603.5044         43.500  
        26.5004 
 107785131.270 9  20510829.453    83988450.76147  20510837.9104         54.100  
        47.0004 
 129605754.326 6  24663139.820   100991469.87943  24663147.3794         41.700  
        22.3004 
 120134592.333 7  22860858.508    93611394.15345  22860864.6604         46.500  
        33.1004 
 117469876.161 7  22353770.094    91534996.71446  22353776.0634         47.300  
        36.9004 
 112655595.642 8  21437661.289    87783664.37047  21437668.4384         50.400  
        42.6004 
 15 12 31  0 37  0.0000000  0  9G19G02G12G23G06G07G17G05G09
 128896861.081 7  24528265.680   100439106.90344  24528271.0634         43.000  
        26.9004 
 112348615.860 8  21379232.703    87544388.77946  21379235.9144         49.300  
        41.1004 
 128774422.225 6  24504964.305   100343709.16343  24504970.9104         38.400  
        22.3004 
 127476728.486 6  24257985.492    99332382.30844  24257991.0634         40.900  
        25.8004 
 107793356.320 8  20512394.750    83994859.85847  20512403.0164         53.800  
        47.2004 
 129539169.928 6  24650468.672   100939586.06343  24650475.9654         40.400  
        22.5004 
 120237603.171 7  22880460.813    93691662.26645  22880467.3554         45.700  
        33.9004 
 117406781.895 7  22341763.703    91485832.36646  22341769.6564         46.900  
        36.9004 
 112701774.181 8  21446449.078    87819647.61447  21446456.2584         50.800  
        42.4004 
 15 12 31  0 37 30.0000000  0  9G19G02G12G23G06G07G17G05G09
 129007031.443 7  24549230.633   100524953.88644  24549235.4304         43.000  
        26.1004 
 112287888.879 8  21367676.500    87497069.04046  21367680.1454         49.600  
        41.6004 
 128830211.921 6  24515581.719   100387181.63343  24515587.4694         38.900  
        22.6004 
 127563091.352 6  24274419.813    99399677.91344  24274425.5664         41.800  
        26.0004 
 107801903.101 8  20514021.164    84001519.66247  20514029.2934         53.900  
        47.1004 
 129472687.098 6  24637817.125   100887781.40743  24637824.7234         40.500  
        23.0004 
 120340848.417 7  22900107.078    93772113.03345  22900114.3164         45.000  
        33.0004 
 117343929.207 7  22329803.000    91436856.26846  22329809.2544         47.200  
        36.9004 
 112748470.384 8  21455335.156    87856034.23247  21455342.7344         50.400  
        42.2004 
 15 12 31  0 38  0.0000000  0  9G19G02G12G23G06G07G17G05G09
 129117267.335 6  24570206.961   100610851.88344  24570212.4654         41.700  
        26.7004 
 112227305.837 8  21356148.109    87449861.45746  21356151.1454         48.200  
        41.8004 
 128886296.235 6  24526253.273   100430883.64243  24526259.9304         39.800  
        22.5004 
 127649700.799 7  24290902.281    99467165.66944  24290907.0864         42.600  
        26.4004 
 107810772.669 8  20515709.203    84008430.98247  20515717.4024         53.200  
        47.1004 
 129406308.712 6  24625185.805   100836058.14343  24625193.7814         40.100  
        22.9004 
 120444325.883 7  22919798.547    93852744.74045  22919805.8984         45.300  
        34.1004 
 117281318.254 7  22317889.094    91388068.53046  22317894.7384         45.600  
        37.5004 
 112795682.560 8  21464319.148    87892822.90147  21464327.2384         50.300  
        42.2004 
 15 12 31  0 38 30.0000000  0  9G19G02G12G23G06G07G17G05G09
 129227566.377 7  24591196.367   100696799.09644  24591202.0864         42.500  
        26.9004 
 112166868.144 8  21344647.273    87402767.13546  21344650.8674         49.700  
        41.8004 
 128942672.265 6  24536982.258   100474812.95843  24536988.1254         40.200  
        22.2004 
 127736554.544 6  24307429.672    99534843.77644  24307435.1094         41.700  
        24.7004 
 107819965.784 8  20517458.563    84015594.41547  20517466.8364         51.000  
        47.2004 
 129340037.468 6  24612574.492   100784418.30943  24612583.3364         41.600  
        22.6004 
 120548032.530 7  22939533.602    93933555.04445  22939540.3404         45.800  
        33.2004 
 117218948.812 7  22306020.008    91339468.97246  22306026.1414         46.700  
        37.4004 
 112843408.684 8  21473401.242    87930012.05147  21473408.6564         50.100  
        42.4004 
 15 12 31  0 39  0.0000000  0  9G19G02G12G23G06G07G17G05G09
 129337926.398 6  24612197.789   100782793.82044  24612202.9534         41.400  
        26.9004 
 112106577.682 8  21333174.602    87355787.54147  21333177.5204         50.300  
        42.2004 
 128999337.278 6  24547764.922   100518967.47843  24547771.2114         40.800  
        21.8004 
 127823650.467 7  24324003.266    99602710.58844  24324008.6724         42.100  
        25.3004 
 107829483.429 8  20519269.734    84023010.72547  20519277.8874         53.500  
        47.4004 
 129273876.223 6  24599984.789   100732864.20843  24599992.0164         41.100  
        23.4004 
 120651965.580 7  22959311.172    94014541.75845  22959318.6994         45.400  
        33.2004 
 117156821.267 7  22294197.234    91291057.91246  22294204.0124         46.300  
        36.1004 
 112891646.903 8  21482580.781    87967600.23646  21482587.8634         49.900  
        41.7004 
 15 12 31  0 39 30.0000000  0  9G19G02G12G23G06G07G17G05G09
 129448345.116 6  24633209.953   100868834.28144  24633215.1454         41.800  
        26.9004 
 112046435.932 8  21321730.109    87308923.81746  21321733.1374         50.500  
        41.7004 
 129056288.204 6  24558602.781   100563344.77143  24558609.2464         39.900  
        22.2004 
 127910985.924 6  24340622.375    99670764.09744  24340627.8284         41.300  
        25.8004 
 107839326.436 8  20521142.719    84030680.56147  20521151.4184         51.500  
        46.9004 
 129207827.838 7  24587416.922   100681398.00643  24587423.4304         42.600  
        22.6004 
 120756122.468 7  22979131.656    94095702.88645  22979138.5744         46.400  
        33.8004 
 117094935.479 7  22282420.930    91242835.22146  22282427.3364         46.100  
        37.1004 
 112940395.290 8  21491857.344    88005585.95946  21491864.5824         50.500  
        41.5004 
 15 12 31  0 40  0.0000000  0  9G19G02G12G23G06G07G17G05G09
 129558820.295 6  24654231.813   100954918.71744  24654237.9694         40.400  
        25.8004 
 111986444.847 8  21310314.102    87262177.50546  21310317.4454         50.200  
        41.7004 
 129113522.340 6  24569493.734   100607942.75443  24569500.7154         38.900  
        22.5004 
 127998558.650 6  24357288.078    99739002.46244  24357292.3754         41.600  
        24.7004 
 107849496.008 9  20523078.094    84038604.86747  20523086.0784         54.100  
        47.1004 
 129141895.251 7  24574869.398   100630022.05744  24574876.9184         42.300  
        25.0004 
 120860500.799 7  22998994.367    94177036.57445  22999001.1954         46.400  
        33.2004 
 117033291.504 7  22270690.461    91194800.97146  22270696.9844         46.800  
        37.4004 
 112989652.266 8  21501230.703    88043967.97347  21501238.1914         50.900  
        42.6004 
 15 12 31  0 40 30.0000000  0  9G19G02G12G23G06G07G17G05G09
 129669349.747 7  24675265.656   101041045.43544  24675271.5164         42.500  
        26.2004 
 111926605.928 8  21298926.734    87215549.76146  21298930.1804         50.700  
        41.9004 
 129171036.488 6  24580438.031   100652758.92243  24580445.2974         36.400  
        22.0004 
 128086366.719 6  24373996.414    99807424.20044  24374002.1954         41.100  
        25.8004 
 107859993.007 9  20525075.883    84046784.31347  20525083.9964         54.100  
        47.0004 
 129076081.416 7  24562345.898   100578738.59144  24562352.6414         43.300  
        24.0004 
 120965097.650 7  23018898.914    94258540.54145  23018905.1884         45.200  
        32.3004 
 116971889.315 8  22259006.484    91146955.11746  22259012.4614         48.300  
        37.9004 
 113039415.767 8  21510700.008    88082744.67846  21510707.5514         50.300  
        41.6004 
 15 12 31  0 41  0.0000000  0 10G19G02G13G12G23G06G07G17G05G09
 129779931.099 6  24696308.367   101127212.61244  24696314.7774         41.800  
        26.9004 
 111866920.758 8  21287569.313    87169041.81347  21287572.4184         50.500  
        42.0004 
 133166040.706 6  25340655.500   103765778.42843  25340663.1954         37.400  
        18.3004 
 129228828.017 5  24591435.227   100697791.18243  24591441.9924         35.500  
        20.9004 
 128174407.316 7  24390751.031    99876027.15144  24390756.5004         42.000  
        27.5004 
 107870818.202 8  20527135.484    84055219.49047  20527144.2424         52.900  
        46.9004 
 129010389.207 6  24549844.992   100527549.87643  24549852.2624         41.100  
        23.2004 
 121069910.330 7  23038844.172    94340212.67745  23038851.1524         45.400  
        33.0004 
 116910728.971 8  22247367.969    91099297.71946  22247374.3524         48.300  
        38.4004 
 113089683.819 8  21520266.172    88121914.53946  21520273.6804         50.400  
        41.7004 
 15 12 31  0 41 30.0000000  0 10G19G02G13G12G23G06G07G17G05G09
 129890562.392 6  24717360.734   101213418.67044  24717366.8914         40.700  
        25.3004 
 111807391.044 8  21276241.320    87122655.00746  21276244.5084         49.100  
        41.8004 
 133051928.393 6  25318940.922   103676859.83242  25318949.0984         37.400  
        16.9004 
 129286894.024 6  24602484.320   100743037.33443  24602491.9454         36.800  
        22.2004 
 128262678.368 7  24407548.180    99944809.65644  24407553.9104         42.300  
        25.0004 
 107881972.720 9  20529258.414    84063911.28947  20529266.5354         54.100  
        47.0004 
 128944821.687 6  24537367.734   100476458.33643  24537375.5784         41.700  
        23.2004 
 121174936.219 7  23058829.992    94422050.94545  23058836.3094         45.100  
        32.1004 
 116849810.672 7  22235775.430    91051828.92346  22235781.3204         46.000  
        37.9004 
 113140454.641 8  21529927.125    88161476.16846  21529935.2304         50.100  
        41.4004 
 15 12 31  0 42  0.0000000  0 10G19G02G13G12G23G06G07G17G05G09
 130001240.920 6  24738422.961   101299661.53544  24738428.1414         41.800  
        25.4004 
 111748018.453 8  21264942.836    87076390.63447  21264945.7384         49.200  
        42.4004 
 132937782.177 6  25297219.031   103587914.87942  25297227.3364         37.900  
        17.8004 
 129345231.170 6  24613586.094   100788494.79143  24613593.0554         38.400  
        22.5004 
 128351177.774 6  24424389.055   100013770.08844  24424394.4614         40.900  
        25.6004 
 107893457.282 9  20531443.680    84072860.25947  20531452.1524         54.700  
        47.2004 
 128879381.552 6  24524914.352   100425466.02744  24524921.8244         41.800  
        24.5004 
 121280172.567 7  23078855.594    94504053.21345  23078862.2384         45.500  
        32.6004 
 116789134.217 7  22224229.023    91004548.58546  22224235.3164         46.600  
        37.5004 
 113191726.179 8  21539684.148    88201427.96046  21539691.4844         50.000  
        41.1004 
 15 12 31  0 42 30.0000000  0 10G19G02G13G12G23G06G07G17G05G09
 130111964.507 6  24759492.969   101385939.52744  24759498.8754         40.100  
        25.3004 
 111688804.694 8  21253675.063    87030250.02747  21253677.9144         50.000  
        42.3004 
 132823604.673 6  25275492.375   103498945.41742  25275499.8594         37.400  
        16.3004 
 129403837.182 6  24624739.508   100834161.74943  24624745.4264         39.700  
        22.9004 
 128439902.347 6  24441273.289   100082906.00444  24441278.8594         41.800  
        25.2004 
 107905272.918 9  20533691.938    84082067.21647  20533700.3834         54.400  
        46.8004 
 128814071.699 6  24512486.773   100374575.21944  24512493.9964         41.700  
        24.1004 
 121385616.663 7  23098920.773    94586217.36945  23098927.9384         44.900  
        32.4004 
 116728699.545 7  22212729.031    90957456.63546  22212734.9264         47.700  
        37.3004 
 113243496.487 8  21549535.477    88241768.40646  21549543.0864         50.800  
        41.7004 
 15 12 31  0 43  0.0000000  0 10G19G02G13G12G23G06G07G17G05G09
 130222730.602 6  24780570.758   101472250.63044  24780577.2034         39.200  
        24.8004 
 111629751.508 8  21242437.664    86984234.53647  21242440.6054         48.700  
        42.3004 
 132709398.032 6  25253759.813   103409953.38242  25253766.6334         38.300  
        17.4004 
 129462708.598 6  24635942.477   100880035.51643  24635947.9184         40.900  
        22.8004 
 128528850.300 6  24458199.211   100152215.99044  24458204.0474         41.700  
        24.7004 
 107917420.365 8  20536003.695    84091532.72347  20536012.1604         53.100  
        47.0004 
 128748894.636 6  24500083.734   100323787.90043  24500090.9654         40.700  
        22.5004 
 121491265.755 7  23119025.375    94668541.27045  23119031.8524         44.500  
        31.6004 
 116668506.562 7  22201274.313    90910553.00246  22201280.4884         45.700  
        37.4004 
 113295763.457 8  21559482.039    88282495.87247  21559489.6564         50.700  
        42.4004 
 15 12 31  0 43 30.0000000  0 10G19G02G13G12G23G06G07G17G05G09
 130333537.155 6  24801656.617   101558593.24743  24801662.8754         39.400  
        23.3004 
 111570860.335 8  21231230.953    86938345.29547  21231233.8404         50.100  
        42.2004 
 132595164.614 6  25232021.313   103320940.33442  25232028.9454         38.300  
        17.4004 
 129521842.563 6  24647194.867   100926113.87243  24647201.4734         40.300  
        21.3004 
 128618019.303 6  24475167.609   100221698.19943  24475172.9964         40.700  
        23.2004 
 107929900.362 9  20538378.547    84101257.36347  20538387.1174         54.000  
        47.0004 
 128683853.545 6  24487706.688   100273106.55343  24487714.4344         40.400  
        22.8004 
 121597117.357 7  23139168.508    94751022.92945  23139175.7464         44.100  
        31.9004 
 116608555.021 7  22189865.984    90863837.52046  22189872.0004         47.300  
        37.1004 
 113348525.026 8  21569521.992    88323608.72046  21569529.0824         50.500  
        41.3004 
 15 12 31  0 44  0.0000000  0 10G19G02G13G12G23G06G07G17G05G09
 130444382.377 6  24822749.508   101644966.00744  24822756.1374         37.900  
        24.8004 
 111512132.836 8  21220055.375    86892583.58847  21220058.8874         50.300  
        42.4004 
 132480906.616 6  25210278.469   103231908.17742  25210287.7774         38.600  
        17.8004 
 129581236.214 6  24658496.516   100972394.60943  24658503.0744         39.900  
        20.9004 
 128707407.151 6  24492178.086   100291350.92244  24492183.1454         41.100  
        25.2004 
 107942713.786 8  20540817.047    84111241.81247  20540825.0944         53.700  
        47.0004 
 128618951.133 6  24475356.164   100222533.24643  24475363.2544         41.300  
        22.8004 
 121703168.487 7  23159349.281    94833660.08145  23159356.1024         42.900  
        31.2004 
 116548845.026 7  22178503.820    90817310.24446  22178509.6094         47.300  
        37.7004 
 113401779.119 8  21579655.438    88365105.36146  21579663.8094         49.900  
        41.6004 
 15 12 31  0 44 30.0000000  0 10G19G02G13G12G23G06G07G17G05G09
 130555263.585 6  24843849.961   101731366.79544  24843855.9304         40.800  
        24.9004 
 111453571.062 8  21208911.547    86846951.01647  21208915.2304         50.200  
        42.6004 
 132366626.102 6  25188531.945   103142858.40643  25188540.3954         38.600  
        18.6004 
 129640886.562 6  24669848.078   101018875.37143  24669854.1804         37.200  
        19.0004 
 128797010.860 6  24509228.625   100361171.85044  24509234.2274         41.500  
        25.6004 
 107955861.699 8  20543319.023    84121486.89947  20543327.6374         53.900  
        47.2004 
 128554190.427 6  24463032.125   100172070.33544  24463039.5084         40.900  
        24.9004 
 121809416.246 7  23179567.625    94916450.46145  23179574.7304         44.200  
        32.1004 
 116489376.425 8  22167186.945    90770971.08746  22167193.2664         48.400  
        37.7004 
 113455523.862 8  21589883.375    88406984.33346  21589891.0434         49.800  
        41.8004 
 15 12 31  0 45  0.0000000  0 10G19G02G13G12G23G06G07G17G05G09
 130666178.629 6  24864957.484   101817793.96244  24864962.5984         41.100  
        25.4004 
 111395176.844 8  21197799.617    86801449.01547  21197802.7034         49.100  
        42.6004 
 132252326.078 6  25166781.039   103053793.38943  25166790.0394         38.900  
        19.0004 
 129700790.606 6  24681247.586   101065553.79743  24681254.4614         37.300  
        18.6004 
 128886828.737 6  24526320.633   100431159.63543  24526326.1294         41.300  
        23.4004 
 107969345.237 8  20545884.570    84131993.51447  20545893.3674         53.500  
        46.8004 
 128489574.581 6  24450736.914   100121720.33043  24450744.2114         41.700  
        23.0004 
 121915858.377 7  23199823.078    94999392.27645  23199830.0824         44.100  
        32.4004 
 116430149.693 7  22155917.211    90724820.38446  22155922.7934         47.600  
        37.9004 
 113509757.447 8  21600203.906    88449244.21946  21600211.7974         50.500  
        41.8004 
 15 12 31  0 45 30.0000000  0 10G19G02G13G12G23G06G07G17G05G09
 130777125.081 7  24886069.320   101904245.60044  24886074.6524         42.200  
        24.4004 
 111336951.680 8  21186719.742    86756078.72547  21186723.0434         48.600  
        42.5004 
 132138008.434 6  25145027.844   102964714.57943  25145035.9614         39.400  
        18.6004 
 129760945.519 6  24692694.336   101112427.65843  24692701.6214         36.200  
        19.0004 
 128976858.445 6  24543453.430   100501312.55443  24543457.4774         41.600  
        22.5004 
 107983164.862 8  20548514.555    84142762.01147  20548522.8364         52.900  
        46.6004 
 128425105.887 7  24438469.523   100071485.00044  24438475.9384         43.200  
        24.7004 
 122022491.783 7  23220114.883    95082483.15045  23220122.1804         44.700  
        32.7004 
 116371164.314 7  22144692.125    90678857.75046  22144698.3284         46.200  
        38.0004 
 113564477.506 8  21610616.609    88491883.17246  21610624.1994         50.500  
        41.3004 
 15 12 31  0 46  0.0000000  0 10G19G02G13G12G23G06G07G17G05G09
 130888100.684 6  24907187.383   101990719.95243  24907193.3134         41.100  
        22.6004 
 111278897.227 8  21175672.414    86710841.46147  21175675.4654         48.700  
        42.4004 
 132023676.038 6  25123271.555   102875624.29643  25123279.3134         37.900  
        18.6004 
 129821348.170 6  24704189.359   101159494.59243  24704195.8364         38.400  
        21.8004 
 129067097.301 6  24560625.188   100571628.38644  24560630.1804         41.400  
        25.3004 
 107997321.451 8  20551208.508    84153793.08547  20551217.1994         53.200  
        46.7004 
 128360787.289 7  24426229.109   100021366.58843  24426236.6484         42.500  
        22.9004 
 122129313.997 7  23240442.438    95165721.13645  23240449.3444         43.900  
        31.9004 
 116312420.291 7  22133513.656    90633083.18146  22133519.8244         46.300  
        38.2004 
 113619682.045 8  21621121.586    88534899.65446  21621129.4144         50.300  
        41.4004 
 15 12 31  0 46 30.0000000  0 10G19G02G13G12G23G06G07G17G05G09
 130999103.216 6  24928309.563   102077215.26643  24928316.5744         40.700  
        21.7004 
 111221015.205 8  21164657.648    86665738.57147  21164661.0234         48.800  
        42.3004 
 131909330.823 6  25101510.922   102786524.00343  25101519.8674         38.100  
        18.3004 
 129881995.521 6  24715729.984   101206752.17943  24715737.3634         39.100  
        22.6004 
 129157542.966 6  24577836.266   100642105.41043  24577841.3404         40.400  
        22.8004 
 108011815.875 8  20553966.766    84165087.39847  20553975.4344         53.700  
        46.7004 
 128296622.124 7  24414019.031    99971367.73944  24414026.5394         42.600  
        24.2004 
 122236321.980 7  23260805.211    95249103.88445  23260812.5044         43.800  
        31.1004 
 116253917.622 7  22122381.266    90587496.68546  22122386.9384         46.300  
        37.8004 
 113675368.903 8  21631718.461    88578291.96946  21631726.0234         49.600  
        41.5004 
 15 12 31  0 47  0.0000000  0 10G19G02G13G12G23G06G07G17G05G09
 131110130.637 6  24949438.383   102163729.98844  24949444.6804         40.600  
        25.2004 
 111163307.538 8  21153676.625    86620771.53447  21153679.6684         48.800  
        42.0004 
 131794975.282 6  25079750.961   102697415.79443  25079759.5394         38.100  
        18.6004 
 129942884.566 6  24727316.766   101254198.10843  24727323.7234         39.700  
        22.6004 
 129248193.398 6  24595086.555   100712741.99743  24595091.2774         41.100  
        23.0004 
 108026649.027 8  20556789.531    84176645.66047  20556797.8284         52.700  
        46.8004 
 128232612.814 7  24401837.883    99921490.38343  24401845.7034         42.200  
        22.9004 
 122343513.066 7  23281203.898    95332629.31445  23281210.2194         45.000  
        31.6004 
 116195656.097 7  22111293.797    90542098.09146  22111300.3594         46.400  
        37.6004 
 113731536.013 8  21642406.820    88622058.50746  21642414.4964         49.100  
        41.7004 
 15 12 31  0 47 30.0000000  0 10G19G02G13G12G23G06G07G17G05G09
 131221180.205 6  24970570.555   102250261.96743  24970577.1294         40.500  
        22.6004 
 111105775.820 8  21142728.680    86575941.59947  21142731.7704         48.200  
        42.6004 
 131680612.143 6  25057986.945   102608301.81742  25057996.7114         37.800  
        16.3004 
 130004012.596 6  24738950.063   101301830.24343  24738955.5434         39.000  
        22.3004 
 129339046.125 6  24612375.734   100783536.17843  24612380.6994         40.900  
        22.6004 
 108041821.713 8  20559676.938    84188468.50347  20559685.3874         53.300  
        46.5004 
 128168762.113 7  24389687.484    99871736.56743  24389695.5704         42.000  
        22.3004 
 122450884.642 7  23301635.523    95416295.38545  23301642.2664         42.900  
        30.4004 
 116137635.735 7  22100253.094    90496887.42046  22100258.7194         46.000  
        37.3004 
 113788181.229 8  21653185.711    88666197.60246  21653193.6054         49.800  
        41.0004 
 15 12 31  0 48  0.0000000  0 10G19G02G13G12G23G06G07G17G05G09
 131332249.827 6  24991706.250   102336809.51944  24991712.2814         40.600  
        25.2004 
 111048421.817 8  21131814.375    86531250.15347  21131817.5044         49.100  
        42.5004 
 131566243.244 6  25036223.305   102519183.38243  25036232.6054         37.700  
        18.3004 
 130065376.210 6  24750626.570   101349645.96043  24750633.2504         39.600  
        21.8004 
 129430098.892 6  24629702.000   100854486.31243  24629707.0234         41.700  
        22.9004 
 108057334.672 9  20562628.820    84200556.49047  20562637.2194         54.100  
        47.0004 
 128105073.064 6  24377568.234    99822108.77744  24377575.5984         40.900  
        24.9004 
 122558433.879 7  23322101.773    95500099.88344  23322107.7704         43.400  
        28.7004 
 116079856.540 7  22089258.125    90451864.66246  22089263.7664         47.200  
        37.4004 
 113845302.387 8  21664055.352    88710707.54946  21664064.0744         49.100  
        41.5004 
 15 12 31  0 48 30.0000000  0 10G19G02G13G12G23G06G07G17G05G09
 131443337.529 6  25012845.273   102423371.18243  25012851.9494         39.300  
        23.9004 
 110991247.590 8  21120934.555    86486698.78647  21120937.5784         48.500  
        42.8004 
 131451871.370 6  25014459.508   102430062.72442  25014467.5744         36.900  
        17.8004 
 130126972.616 6  24762347.953   101397643.06643  24762353.8204         38.600  
        20.6004 
 129521349.335 6  24647066.367   100925590.42143  24647073.0704         39.100  
        21.3004 
 108073189.089 9  20565645.719    84212910.54247  20565654.3794         54.000  
        47.0004 
 128041548.846 6  24365479.570    99772609.40843  24365486.9184         40.800  
        22.8004 
 122666158.208 7  23342600.492    95584040.81844  23342607.9494         42.100  
        29.8004 
 116022318.260 7  22078308.523    90407029.62646  22078315.0744         46.200  
        38.0004 
 113902897.643 8  21675015.961    88755586.93746  21675023.7734         49.800  
        41.0004 
 15 12 31  0 49  0.0000000  0 11G19G30G02G13G12G23G06G07G17G05G09
 131554440.964 6  25033988.367   102509945.10543  25033994.9304         39.600  
        23.2004 
 131583568.010 6  25039523.602   102532715.17742  25039534.8984         36.500  
        16.9004 
 110934254.363 8  21110089.117    86442288.45847  21110092.0744         48.800  
        43.2004 
 131337498.505 6  24992694.703   102340941.29142  24992702.4654         36.700  
        16.9004 
 130188799.249 6  24774112.945   101445819.60843  24774118.5784         37.400  
        20.6004 
 129612794.918 6  24664468.086   100996846.61943  24664474.1454         39.600  
        22.5004 
 108089385.372 8  20568727.898    84225530.99747  20568736.3404         53.400  
        46.9004 
 127978191.730 6  24353423.203    99723240.23443  24353431.3244         40.500  
        22.9004 
 122774054.567 7  23363132.953    95668115.79845  23363139.4104         43.400  
        30.2004 
 115965020.570 7  22067405.641    90362382.06546  22067411.6884         46.500  
        38.6004 
 113960964.483 8  21686065.836    88800833.77746  21686073.6604         49.700  
        40.9004 
 15 12 31  0 49 30.0000000  0 11G19G30G02G13G12G23G06G07G17G05G09
 131665557.747 6  25055133.531   102596529.44643  25055139.3984         40.000  
        23.2004 
 131506364.014 5  25024833.094   102472556.37142  25024844.1134         35.100  
        17.4004 
 110877444.525 8  21099278.477    86398021.03347  21099281.8634         48.700  
        42.7004 
 131223127.278 6  24970930.594   102251821.11242  24970938.1914         37.000  
        17.4004 
 130250852.628 6  24785921.953   101494172.79843  24785927.1644         36.300  
        19.0004 
 129704433.918 6  24681906.883   101068253.52243  24681912.5704         39.900  
        22.8004 
 108105924.726 9  20571875.281    84238418.77347  20571883.4654         54.400  
        46.6004 
 127915005.039 6  24341399.781    99674003.90244  24341407.9574         41.600  
        25.0004 
 122882120.458 7  23383696.836    95752322.86445  23383704.2304         43.600  
        30.0004 
 115907964.053 7  22056548.297    90317922.43346  22056553.8524         46.600  
        38.7004 
 114019501.097 8  21697204.797    88846446.69246  21697212.6024         48.600  
        41.0004 
 15 12 31  0 50  0.0000000  0 11G19G30G02G13G12G23G06G07G17G05G09
 131776686.192 6  25076281.023   102683122.86743  25076286.7854         41.100  
        23.2004 
 131429076.663 6  25010125.109   102412332.67942  25010136.5594         37.200  
        17.8004 
 110820819.611 8  21088503.242    86353897.70247  21088506.4264         48.700  
        42.5004 
 131108760.076 5  24949167.094   102162703.98942  24949174.4694         35.900  
        17.8004 
 130313129.736 6  24797771.930   101542700.33343  24797779.1214         36.300  
        20.6004 
 129796263.590 6  24699380.813   101139808.99943  24699387.1954         39.200  
        22.2004 
 108122807.685 8  20575087.977    84251574.29247  20575096.2584         53.700  
        47.0004 
 127851991.703 6  24329408.586    99624902.64643  24329416.2074         41.700  
        23.9004 
 122990353.380 7  23404293.688    95836660.09545  23404299.9804         44.100  
        30.4004 
 115851148.302 7  22045736.313    90273650.41546  22045742.1094         46.600  
        38.8004 
 114078505.074 8  21708433.023    88892423.78246  21708440.9344         48.800  
        40.5004 
 15 12 31  0 50 30.0000000  0 11G19G30G02G13G12G23G06G07G17G05G09
 131887823.578 6  25097429.805   102769723.25943  25097436.2854         40.700  
        23.8004 
 131351708.832 6  24995402.328   102352046.28843  24995414.0354         38.700  
        19.0004 
 110764381.430 8  21077763.336    86309919.88147  21077766.6214         48.700  
        42.6004 
 130994398.758 5  24927404.555   102073591.49442  24927412.3874         35.800  
        17.4004 
 130375627.776 6  24809665.516   101591399.99343  24809671.9964         36.700  
        19.9004 
 129888281.782 6  24716891.781   101211511.40943  24716897.9534         39.700  
        22.9004 
 108140035.180 9  20578366.477    84264998.28747  20578374.6524         54.200  
        46.9004 
 127789154.431 6  24317450.703    99575938.57244  24317458.6294         40.800  
        26.0004 
 123098750.402 7  23424920.609    95921125.19245  23424928.3984         44.900  
        31.2004 
 115794573.185 7  22034970.359    90229565.89446  22034976.0084         46.500  
        38.1004 
 114137974.293 8  21719749.719    88938763.39846  21719757.4694         48.800  
        41.3004 
 15 12 31  0 51  0.0000000  0 11G19G30G02G13G12G23G06G07G17G05G09
 131998967.611 6  25118579.578   102856328.84243  25118586.6024         39.500  
        22.9004 
 131274262.994 6  24980665.141   102291699.13043  24980676.5354         38.300  
        19.9004 
 110708131.651 8  21067059.492    86266088.86147  21067062.5554         48.900  
        43.0004 
 130880045.850 6  24905643.758   101984485.49143  24905651.7734         36.700  
        18.3004 
 130438343.891 6  24821599.383   101640269.66243  24821607.0944         36.200  
        20.6004 
 129980485.547 6  24734438.219   101283358.43144  24734443.8054         40.200  
        24.2004 
 108157607.823 9  20581710.258    84278691.23247  20581719.0354         54.100  
        46.9004 
 127726495.912 6  24305527.102    99527113.79444  24305534.5744         41.300  
        25.9004 
 123207308.824 7  23445578.969    96005716.05645  23445586.8324         45.100  
        31.4004 
 115738238.545 7  22024250.109    90185668.76446  22024256.2854         46.100  
        38.6004 
 114197906.426 8  21731154.328    88985463.70946  21731162.4144         48.200  
        40.8004 
 15 12 31  0 51 30.0000000  0 11G19G30G02G13G12G23G06G07G17G05G09
 132110115.951 6  25139730.477   102942937.76443  25139737.8164         39.000  
        22.8004 
 131196741.759 6  24965912.742   102231293.22343  24965924.6484         38.700  
        19.9004 
 110652072.052 8  21056391.609    86222406.04747  21056394.8834         49.700  
        42.1004 
 130765704.127 6  24883884.914   101895388.22643  24883893.2704         37.500  
        18.3004 
 130501274.659 6  24833574.656   101689306.56743  24833582.9024         37.100  
        22.3004 
 130072873.198 6  24752018.633   101355348.69343  24752024.4774         39.800  
        22.3004 
 108175526.458 9  20585120.172    84292653.77547  20585128.4454         54.400  
        47.1004 
 127664019.035 6  24293638.516    99478430.55044  24293646.3674         41.300  
        26.0004 
 123316025.640 7  23466267.383    96090430.31045  23466274.3634         44.300  
        30.6004 
 115682144.262 7  22013575.984    90141958.92046  22013581.8094         47.000  
        38.9004 
 114258299.307 7  21742646.664    89032523.05646  21742654.7624         47.500  
        40.8004 
 15 12 31  0 52  0.0000000  0 11G19G30G02G13G12G23G06G07G17G05G09
 132221266.594 6  25160882.148   103029548.46143  25160889.0084         38.600  
        22.0004 
 131119147.921 6  24951146.805   102170830.75543  24951158.4574         37.700  
        20.6004 
 110596204.380 8  21045760.555    86178872.76747  21045763.7114         49.600  
        42.7004 
 130651375.865 6  24862129.758   101806301.43943  24862137.2154         38.100  
        19.0004 
 130564417.123 6  24845591.109   101738508.41143  24845597.6884         37.800  
        22.6004 
 130165442.327 6  24769633.969   101427480.40043  24769639.6914         39.500  
        20.6004 
 108193791.880 9  20588595.883    84306886.53747  20588604.6564         54.100  
        46.7004 
 127601726.649 6  24281784.180    99429891.06144  24281791.6764         41.100  
        24.2004 
 123424898.195 7  23486984.594    96175265.94745  23486992.5084         44.900  
        31.4004 
 115626290.337 7  22002947.063    90098436.37746  22002953.3914         47.400  
        38.8004 
 114319150.699 7  21754226.492    89079939.68446  21754234.0784         47.500  
        40.6004 
 15 12 31  0 52 30.0000000  0 11G19G30G02G13G12G23G06G07G17G05G09
 132332417.249 6  25182034.133   103116159.17043  25182040.2114         38.200  
        21.7004 
 131041484.147 6  24936367.609   102110313.74743  24936380.0944         37.900  
        21.1004 
 110540530.736 8  21035166.031    86135490.69047  21035168.7734         49.600  
        42.2004 
 130537063.430 6  24840376.242   101717226.97043  24840383.4454         38.100  
        19.0004 
 130627768.367 6  24857646.500   101787872.92643  24857652.6374         39.300  
        22.9004 
 130258190.643 6  24787283.125   101499751.75043  24787289.1954         39.400  
        22.5004 
 108212404.961 8  20592137.859    84321390.19647  20592146.5704         53.900  
        46.7004 
 127539621.848 6  24269965.250    99381497.75944  24269973.4694         40.400  
        24.9004 
 123533923.814 7  23507731.164    96260220.83845  23507738.8914         44.000  
        30.7004 
 115570676.670 7  21992364.508    90055101.04446  21992370.8984         47.000  
        38.4004 
 114380458.523 7  21765892.891    89127711.97046  21765901.0084         47.100  
        40.9004 
 15 12 31  0 53  0.0000000  0 11G19G30G02G13G12G23G06G07G17G05G09
 132443565.573 6  25203184.016   103202768.07943  25203190.6724         37.100  
        20.1004 
 130963753.281 6  24921575.289   102049744.41343  24921587.8484         38.900  
        21.8004 
 110485052.968 8  21024608.688    86092261.24147  21024611.8794         50.000  
        42.8004 
 130422769.155 6  24818625.797   101628166.66643  24818634.3754         37.700  
        19.3004 
 130691325.380 6  24869740.406   101837397.75643  24869748.3134         38.100  
        22.8004 
 130351115.796 6  24804966.336   101572160.87743  24804972.5164         38.900  
        22.6004 
 108231366.441 8  20595746.039    84336165.33647  20595754.7814         53.800  
        46.9004 
 127477707.272 6  24258183.547    99333252.70843  24258191.5474         41.300  
        22.0004 
 123643099.673 7  23528506.836    96345292.80844  23528514.9924         44.000  
        28.6004 
 115515303.030 7  21981827.180    90011952.74046  21981833.5314         46.600  
        38.4004 
 114442220.502 7  21777646.063    89175838.14346  21777653.6844         47.300  
        41.1004 
 15 12 31  0 53 30.0000000  0 11G19G30G02G13G12G23G06G07G17G05G09
 132554709.583 6  25224334.609   103289373.54643  25224341.2074         37.400  
        21.3004 
 130885957.887 6  24906772.023   101989124.76843  24906784.0984         38.900  
        21.3004 
 110429772.865 8  21014089.609    86049185.81747  21014093.2584         50.200  
        42.5004 
 130308495.545 6  24796880.414   101539122.46243  24796889.2154         37.900  
        19.0004 
 130755085.021 6  24881873.758   101887080.52743  24881881.1844         37.100  
        21.3004 
 130444215.598 6  24822683.766   101644706.11243  24822688.4964         40.500  
        21.5004 
 108250677.037 9  20599421.156    84351212.50147  20599429.3364         54.100  
        46.9004 
 127415985.445 6  24246438.875    99285157.84544  24246446.1454         41.000  
        24.7004 
 123752423.183 7  23549310.906    96430479.82344  23549318.3954         44.600  
        28.5004 
 115460169.225 7  21971335.234    89968991.31146  21971340.7814         46.300  
        37.9004 
 114504434.280 7  21789485.078    89224316.36446  21789492.7074         47.300  
        40.5004 
 15 12 31  0 54  0.0000000  0 11G19G30G02G13G12G23G06G07G17G05G09
 132665847.072 6  25245482.766   103375973.98243  25245490.3484         37.200  
        21.3004 
 130808100.751 6  24891955.461   101928457.00743  24891967.6804         39.000  
        22.0004 
 110374692.384 8  21003607.961    86006265.93947  21003611.2464         49.600  
        43.5004 
 130194244.914 6  24775138.727   101450096.15643  24775148.2344         37.900  
        20.1004 
 130819044.435 6  24894045.313   101936918.96943  24894051.4534         37.100  
        22.5004 
 130537487.882 6  24840431.813   101717385.74243  24840437.7034         40.200  
        23.2004 
 108270337.572 8  20603162.156    84366532.36547  20603170.9774         53.900  
        47.0004 
 127354459.721 6  24234730.258    99237215.73943  24234738.0434         41.100  
        23.9004 
 123861891.471 7  23570141.742    96515779.63644  23570149.7384         43.900  
        28.9004 
 115405275.316 7  21960889.773    89926216.82546  21960895.4844         47.200  
        38.7004 
 114567097.709 7  21801408.992    89273144.96046  21801417.1414         47.000  
        40.8004 
 15 12 31  0 54 30.0000000  0 11G19G30G02G13G12G23G06G07G17G05G09
 132776975.327 6  25266630.438   103462567.17043  25266637.3364         38.300  
        22.2004 
 130730184.366 6  24877128.266   101867743.01743  24877141.6334         37.700  
        20.9004 
 110319812.817 8  20993165.063    85963502.62547  20993168.3874         50.500  
        43.3004 
 130080019.417 6  24753403.125   101361089.41943  24753410.8364         38.700  
        21.3004 
 130883200.429 6  24906253.352   101986910.55443  24906261.1254         38.000  
        22.0004 
 130630929.914 6  24858213.656   101790197.63443  24858219.9614         39.900  
        21.5004 
 108290348.638 8  20606970.102    84382125.35747  20606978.6804         53.200  
        46.5004 
 127293132.815 6  24223061.102    99189428.59444  24223067.5044         41.300  
        24.4004 
 123971501.533 7  23591000.625    96601189.92844  23591007.5354         43.400  
        27.3004 
 115350620.806 7  21950489.391    89883628.88746  21950495.8364         46.400  
        38.9004 
 114630208.293 7  21813418.828    89322321.99346  21813426.7664         47.600  
        40.4004 
 15 12 31  0 55  0.0000000  0 11G19G30G02G13G12G23G06G07G17G05G09
 132888092.284 6  25287775.617   103549151.54243  25287783.2154         38.300  
        21.8004 
 130652211.548 6  24862291.102   101806985.05943  24862303.0904         38.400  
        20.4004 
 110265136.136 8  20982760.383    85920897.40447  20982763.9844         49.100  
        42.9004 
 129965821.375 6  24731671.977   101272104.03743  24731680.1174         38.600  
        21.3004 
 130947550.000 6  24918499.250   102037052.95143  24918505.5784         37.700  
        21.5004 
 130724539.257 6  24876026.297   101863139.89543  24876032.4774         38.500  
        20.9004 
 108310710.868 8  20610845.180    84397991.99247  20610853.7424         52.900  
        46.4004 
 127232007.242 7  24211428.789    99141798.31544  24211436.4884         42.500  
        25.8004 
 124081250.911 7  23611885.000    96686708.76844  23611892.5394         42.600  
        28.1004 
 115296206.000 7  21940134.359    89841227.72546  21940140.9344         46.500  
        39.2004 
 114693763.694 7  21825513.086    89371845.63646  21825520.9774         47.200  
        40.4004 
 15 12 31  0 55 30.0000000  0 11G19G30G02G13G12G23G06G07G17G05G09
 132999195.712 6  25308918.633   103635725.35243  25308925.5394         38.200  
        22.2004 
 130574185.209 6  24847443.031   101746185.36443  24847455.5164         39.700  
        21.5004 
 110210664.353 8  20972394.859    85878451.84347  20972397.9654         49.600  
        43.0004 
 129851653.554 6  24709946.391   101183142.21243  24709954.6414         38.000  
        21.1004 
 131012089.924 6  24930780.453   102087343.71543  24930786.9924         37.500  
        18.6004 
 130818314.014 6  24893872.195   101936211.03243  24893877.7974         38.800  
        21.7004 
 108331425.212 9  20614786.914    84414133.00647  20614795.7034         54.200  
        46.8004 
 127171086.057 7  24199836.344    99094327.32444  24199844.1844         43.200  
        27.0004 
 124191137.147 7  23632795.945    96772334.25444  23632802.6484         42.000  
        26.8004 
 115242030.806 7  21929824.992    89799013.28746  21929831.2974         46.400  
        38.8004 
 114757761.815 7  21837691.797    89421714.25346  21837699.2114         47.800  
        40.3004 
 15 12 31  0 56  0.0000000  0 11G19G30G02G13G12G23G06G07G17G05G09
 133110283.619 6  25330057.695   103722287.03843  25330065.4104         38.200  
        22.5004 
 130496107.858 6  24832585.563   101685345.85343  24832597.2034         40.700  
        22.3004 
 110156399.352 8  20962068.695    85836167.40147  20962071.3054         49.000  
        42.7004 
 129737518.226 6  24688227.391   101094205.71643  24688234.5234         37.400  
        20.4004 
 131076817.550 6  24943099.297   102137780.71443  24943104.4144         37.400  
        20.6004 
 130912251.845 6  24911747.227   102009409.27843  24911752.6684         39.900  
        20.9004 
 108352492.192 8  20618796.094    84430548.78747  20618804.6914         53.200  
        46.7004 
 127110371.872 7  24188281.891    99047017.60244  24188290.0394         42.700  
        26.7004 
 124301157.139 7  23653732.352    96858063.95944  23653739.1524         43.400  
        27.3004 
 115188094.683 7  21919561.727    89756985.12446  21919567.5984         47.200  
        38.1004 
 114822200.153 7  21849953.844    89471925.90546  21849961.5514         47.200  
        40.4004 
 15 12 31  0 56 30.0000000  0 11G19G30G02G13G12G23G06G07G17G05G09
 133221353.902 6  25351193.391   103808834.99044  25351201.1844         38.400  
        24.1004 
 130417982.465 6  24817718.922   101624468.91743  24817730.6804         40.200  
        22.9004 
 110102342.909 8  20951781.820    85794045.47047  20951785.0554         49.000  
        43.0004 
 129623418.011 6  24666514.547   101005296.55643  24666522.0314         37.900  
        20.1004 
 131141729.794 6  24955451.758   102188361.56643  24955457.7504         37.400  
        20.4004 
 131006350.481 6  24929653.461   102082732.78043  24929660.3984         40.200  
        20.6004 
 108373912.731 8  20622872.156    84447240.07647  20622880.2274         52.500  
        46.4004 
 127049867.912 7  24176768.227    98999871.71544  24176776.6804         42.300  
        25.3004 
 124411308.061 7  23674693.367    96943895.68344  23674700.9494         42.300  
        28.9004 
 115134397.448 7  21909343.414    89715143.10646  21909349.1564         46.500  
        38.3004 
 114887076.661 7  21862299.148    89522478.97846  21862307.0474         47.600  
        40.3004 
 15 12 31  0 57  0.0000000  0 11G19G30G02G13G12G23G06G07G17G05G09
 133332403.893 6  25372325.711   103895367.11543  25372334.2544         37.900  
        22.8004 
 130339811.858 6  24802843.539   101563556.70043  24802854.7854         40.000  
        22.0004 
 110048496.977 8  20941535.500    85752087.57047  20941538.4384         49.000  
        43.2004 
 129509355.124 6  24644809.242   100916416.48743  24644816.5864         39.000  
        20.6004 
 131206823.217 6  24967838.117   102239083.61043  24967845.1374         37.900  
        21.8004 
 131100607.399 6  24947590.719   102156179.67843  24947595.6914         40.400  
        20.6004 
 108395687.548 8  20627015.938    84464207.42947  20627024.4734         52.700  
        46.6004 
 126989576.906 7  24165295.984    98952891.72244  24165303.7154         42.700  
        24.7004 
 124521587.186 7  23695678.820    97029827.25844  23695686.9614         42.000  
        29.6004 
 115080938.948 7  21899170.688    89673487.11246  21899176.6334         46.700  
        39.2004 
 114952388.853 7  21874728.102    89573371.56246  21874736.1214         47.400  
        40.4004 
 15 12 31  0 57 30.0000000  0 11G19G30G02G13G12G23G06G07G17G05G09
 133443431.588 6  25393453.969   103981881.83543  25393462.2734         38.600  
        22.0004 
 130261598.642 6  24787959.445   101502611.29343  24787971.8054         38.300  
        21.8004 
 109994863.198 8  20931328.953    85710294.99547  20931332.4264         49.100  
        42.9004 
 129395331.967 6  24623111.469   100827567.34643  24623119.4414         39.400  
        19.6004 
 131272095.134 6  24980258.328   102289944.75943  24980266.0164         38.100  
        20.1004 
 131195020.246 6  24965557.313   102229748.04543  24965562.3054         40.200  
        21.8004 
 108417817.100 8  20631226.750    84481451.18847  20631235.8754         53.300  
        46.8004 
 126929501.257 6  24153863.086    98906079.57344  24153871.1374         40.400  
        25.6004 
 124631991.836 6  23716688.273    97115856.66745  23716696.3524         41.400  
        30.4004 
 115027719.348 7  21889043.102    89632017.29146  21889049.2464         46.600  
        38.6004 
 115018134.339 7  21887238.953    89624601.75346  21887247.0944         47.300  
        39.7004 
 15 12 31  0 58  0.0000000  0 11G19G30G02G13G12G23G06G07G17G05G09
 133554434.835 6  25414577.930   104068377.48043  25414585.3444         38.200  
        21.5004 
 130183345.657 6  24773068.883   101441634.90243  24773079.8054         38.900  
        20.4004 
 109941443.772 8  20921163.664    85668669.45247  20921166.7854         49.200  
        43.0004 
 129281350.915 6  24601420.484   100738751.04043  24601429.2734         37.700  
        19.9004 
 131337542.318 6  24992712.734   102340942.46243  24992719.7544         37.700  
        20.6004 
 131289587.268 6  24983553.867   102303436.58143  24983558.7504         39.800  
        21.7004 
 108440302.176 8  20635505.555    84498971.99347  20635514.1454         53.500  
        46.5004 
 126869644.070 6  24142472.875    98859437.65444  24142481.1334         41.100  
        26.2004 
 124742519.244 6  23737721.586    97201981.70844  23737728.9344         41.100  
        29.3004 
 114974738.194 7  21878961.055    89590733.28346  21878967.7034         46.700  
        39.2004 
 115084310.749 7  21899831.750    89676167.74446  21899839.6134         47.000  
        39.9004 
 15 12 31  0 58 30.0000000  0 11G19G30G02G13G12G23G06G07G17G05G09
 133665411.069 6  25435696.398   104154852.02643  25435704.0084         37.300  
        22.0004 
 130105055.735 6  24758170.891   101380629.74943  24758182.5664         39.000  
        21.7004 
 109888240.528 8  20911039.250    85627212.34947  20911042.8014         49.100  
        43.7004 
 129167414.700 6  24579739.797   100649969.70443  24579747.5664         37.500  
        20.1004 
 131403161.707 6  25005200.313   102392074.30843  25005207.5004         37.800  
        21.1004 
 131384305.956 6  25001576.430   102377243.26043  25001583.5084         38.800  
        21.5004 
 108463143.589 8  20639852.289    84516770.44947  20639860.7584         53.500  
        46.7004 
 126810008.046 6  24131124.984    98812968.06044  24131133.0474         41.400  
        26.2004 
 124853166.588 6  23758776.766    97288200.21444  23758784.9964         41.400  
        29.6004 
 114921995.303 7  21868924.828    89549634.91546  21868930.9264         46.800  
        39.3004 
 115150915.865 7  21912506.445    89728067.79246  21912514.7854         47.400  
        40.4004 
 15 12 31  0 59  0.0000000  0 11G19G30G02G13G12G23G06G07G17G05G09
 133776358.407 6  25456809.250   104241304.05743  25456816.7664         37.400  
        21.5004 
 130026731.788 6  24743266.367   101319598.07643  24743277.8204         40.800  
        22.0004 
 109835255.156 8  20900956.859    85585925.02447  20900959.9414         49.100  
        43.4004 
 129053525.504 6  24558066.398   100561224.96543  24558075.1454         37.700  
        19.6004 
 131468950.153 6  25017719.086   102443337.91443  25017726.1524         38.300  
        20.9004 
 131479173.916 6  25019630.094   102451166.30743  25019635.6134         38.800  
        20.4004 
 108486341.916 8  20644267.000    84534847.02947  20644275.4734         53.000  
        46.2004 
 126750596.150 6  24119818.734    98766673.08144  24119826.8014         41.500  
        26.8004 
 124963931.105 6  23779855.391    97374510.00544  23779863.2194         41.100  
        29.1004 
 114869490.891 7  21858933.617    89508722.38646  21858939.8054         47.300  
        39.0004 
 115217947.281 7  21925262.094    89780300.01446  21925269.9844         47.000  
        39.3004 
 15 12 31  0 59 30.0000000  0 11G19G30G02G13G12G23G06G07G17G05G09
 133887274.395 6  25477916.141   104327731.62043  25477924.2114         37.100  
        21.3004 
 129948376.342 6  24728356.164   101258541.88943  24728366.9804         40.400  
        23.2004 
 109782489.458 8  20890915.789    85544808.86547  20890919.1054         49.400  
        43.7004 
 128939685.460 6  24536403.859   100472518.56243  24536412.1524         39.200  
        20.4004 
 131534904.870 6  25030270.695   102494731.09343  25030276.5354         38.800  
        21.7004 
 131574189.195 6  25037710.773   102525204.13343  25037716.5124         38.200  
        20.9004 
 108509897.594 8  20648749.156    84553202.06547  20648757.9574         52.700  
        46.0004 
 126691410.837 6  24108556.195    98720554.68744  24108563.6764         41.100  
        24.6004 
 125074810.473 6  23800954.266    97460909.29144  23800962.9184         39.600  
        27.3004 
 114817224.311 7  21848987.219    89467995.17446  21848993.7584         47.200  
        39.4004 
 115285402.308 7  21938098.523    89832862.32546  21938106.5274         47.200  
        39.7004 
 15 12 31  1  0  0.0000000  0 11G19G30G02G13G12G23G06G07G17G05G09
 133998157.242 6  25499017.641   104414133.33843  25499025.3674         37.500  
        21.3004 
 129869992.395 6  24713439.898   101197463.55343  24713451.1644         38.600  
        21.7004 
 109729945.446 8  20880917.320    85503865.45447  20880920.6454         50.900  
        43.7004 
 128825897.282 6  24514751.102   100383852.57643  24514758.4924         39.200  
        19.6004 
 131601022.820 6  25042851.977   102546251.42643  25042859.0434         36.700  
        20.9004 
 131669349.180 6  25055818.695   102599354.75343  25055825.9844         38.800  
        20.9004 
 108533811.462 8  20653300.109    84571836.21147  20653308.6564         52.800  
        46.4004 
 126632455.142 7  24097338.070    98674615.16744  24097344.8874         42.500  
        26.2004 
 125185801.214 6  23822075.461    97547395.34344  23822083.7344         40.400  
        27.2004 
 114765195.592 8  21839086.852    89427453.31546  21839092.8284         48.500  
        39.2004 
 115353278.847 8  21951014.992    89885753.07146  21951023.1054         48.300  
        39.5004 
 15 12 31  1  0 30.0000000  0 11G19G30G02G13G12G23G06G07G17G05G09
 134109005.245 6  25520111.422   104500507.91443  25520119.2854         37.500  
        20.9004 
 129791582.632 6  24698518.023   101136365.13743  24698530.4654         38.100  
        22.0004 
 109677624.868 8  20870960.773    85463096.15247  20870964.1054         51.500  
        43.0004 
 128712163.268 6  24493107.781   100295228.75643  24493115.2974         39.300  
        21.7004 
 131667300.701 5  25055463.531   102597896.40843  25055471.0984         35.700  
        19.6004 
 131764651.474 6  25073953.406   102673616.28143  25073960.1644         37.100  
        19.3004 
 108558084.056 8  20657918.836    84590749.87747  20657927.5004         53.500  
        46.0004 
 126573731.806 7  24086163.297    98628856.73344  24086170.0354         42.600  
        28.1004 
 125296901.025 6  23843217.398    97633966.39744  23843225.7894         40.600  
        27.3004 
 114713404.618 8  21829231.289    89387096.70246  21829237.2854         48.700  
        39.7004 
 115421574.298 8  21964010.914    89938970.23546  21964019.2114         48.000  
        39.4004 
 15 12 31  1  1  0.0000000  0 11G19G30G02G13G12G23G06G07G17G05G09
 134219815.402 6  25541198.172   104586852.97743  25541206.4144         37.900  
        18.6004 
 129713150.366 6  24683593.977   101075249.21643  24683605.1094         38.000  
        22.0004 
 109625530.210 8  20861047.734    85422502.88347  20861050.8444         51.300  
        43.6004 
 128598486.196 6  24471476.125   100206649.35043  24471483.5744         39.900  
        20.6004 
 131733735.893 5  25068105.680   102649664.00243  25068113.8094         35.300  
        19.9004 
 131860094.418 6  25092116.133   102747987.34243  25092123.3484         38.700  
        19.3004 
 108582716.524 8  20662606.531    84609943.97247  20662615.0704         52.800  
        46.6004 
 126515244.309 6  24075033.398    98583282.10044  24075040.2734         41.400  
        26.5004 
 125408107.069 7  23864379.328    97720620.23744  23864387.2734         42.600  
        24.9004 
 114661851.387 8  21819420.898    89346925.34046  21819427.0124         48.800  
        39.0004 
 115490286.787 8  21977087.016    89992512.37546  21977094.8054         48.000  
        38.8004 
 15 12 31  1  1 30.0000000  0 11G19G30G02G13G12G23G06G07G17G05G09
 134330585.401 6  25562276.664   104673166.67242  25562285.5474         38.400  
        17.8004 
 129634697.847 6  24668664.336   101014117.52843  24668675.5354         39.200  
        23.0004 
 109573662.902 8  20851177.656    85382086.76847  20851180.8874         51.800  
        43.8004 
 128484868.072 6  24449855.484   100118115.87243  24449863.0314         40.300  
        22.0004 
 131800325.237 6  25080777.625   102701551.66343  25080786.3484         36.700  
        19.3004 
 131955675.079 6  25110305.336   102822465.77143  25110311.6724         39.200  
        19.9004 
 108607708.920 8  20667362.391    84629418.53247  20667371.1334         53.000  
        46.5004 
 126456994.349 6  24063947.477    98537892.54544  24063955.1764         40.500  
        26.5004 
 125519416.892 6  23885560.930    97807354.96944  23885568.7344         41.500  
        24.0004 
 114610535.235 8  21809655.688    89306938.71246  21809662.2704         49.300  
        39.6004 
 115559413.344 7  21990241.602    90046377.16046  21990249.5314         47.800  
        40.0004 
 15 12 31  1  2  0.0000000  0 11G19G30G02G13G12G23G06G07G17G05G09
 134441313.446 5  25583348.367   104759447.73242  25583356.7584         35.200  
        16.9004 
 129556227.950 6  24653731.156   100952972.31343  24653743.0634         38.100  
        22.5004 
 109522024.550 8  20841350.992    85341849.07047  20841354.4104         51.000  
        43.3004 
 128371311.343 6  24428245.555   100029630.24043  24428253.2504         39.900  
        21.5004 
 131867065.528 6  25093478.195   102753556.93643  25093485.7194         36.800  
        19.6004 
 132051391.522 6  25128518.648   102897050.02443  25128525.4304         37.100  
        19.3004 
 108633061.951 8  20672187.164    84649174.11047  20672195.3794         53.700  
        46.8004 
 126398985.092 6  24052909.258    98492690.54944  24052917.1954         41.100  
        25.6004 
 125630827.442 7  23906761.641    97894168.19644  23906769.8754         43.200  
        26.1004 
 114559456.120 8  21799935.555    89267136.79446  21799941.8954         48.400  
        39.3004 
 115628951.640 7  22003473.773    90100562.77246  22003482.2734         47.300  
        39.8004 
 15 12 31  1  2 30.0000000  0 11G19G30G02G13G12G23G06G07G17G05G09
 134551997.328 4  25604411.570                                          29.400  
                
 129477743.786 6  24638796.242   100891815.97043  24638807.3134         38.700  
        22.5004 
 109470617.731 8  20831568.820    85301791.78647  20831571.9964         51.200  
        43.7004 
 128257818.752 6  24406648.266    99941194.56843  24406656.6054         39.200  
        20.4004 
 131933953.579 6  25106207.031   102805677.38243  25106214.4734         36.900  
        22.3004 
 132147241.699 6  25146758.070   102971738.44743  25146764.6374         36.700  
        18.6004 
 108658776.542 8  20677080.148    84669211.41547  20677088.6294         53.600  
        46.3004 
 126341219.443 6  24041917.148    98447678.39444  24041924.4774         41.700  
        25.6004 
 125742335.988 7  23927981.609    97981057.79244  23927988.8094         43.400  
        24.7004 
 114508613.902 8  21790260.969    89227519.46346  21790267.1214         48.400  
        39.5004 
 115698899.567 8  22016784.797    90155067.56246  22016792.3834         48.100  
        39.2004 
 15 12 31  1  3  0.0000000  0 10G30G02G13G12G23G06G07G17G05G09
 129399248.092 6  24623858.758   100830650.67343  24623870.5434         37.300  
        22.2004 
 109419443.921 8  20821830.656    85261916.05447  20821833.9494         50.100  
        44.1004 
 128144392.620 6  24385063.750    99852810.71043  24385071.7704         38.500  
        21.8004 
 132000986.365 6  25118963.523   102857910.60643  25118970.1884         36.300  
        19.0004 
 132243223.065 6  25165023.328   103046529.09943  25165029.5234         37.400  
        19.6004 
 108684853.156 8  20682042.578    84689530.82347  20682051.0314         53.200  
        46.2004 
 126283700.145 6  24030971.297    98402858.18644  24030979.1724         41.900  
        26.0004 
 125853939.845 7  23949218.992    98068021.62444  23949226.6954         43.400  
        26.7004 
 114458008.652 7  21780631.469    89188086.77746  21780636.6454         47.500  
        39.4004 
 115769254.536 7  22030172.664    90209889.53246  22030180.9924         47.800  
        38.8004 
 15 12 31  1  3 30.0000000  0 10G30G02G13G12G23G06G07G17G05G09
 129320743.710 6  24608920.102   100769478.56643  24608932.0864         37.600  
        22.3004 
 109368505.457 8  20812137.328    85222223.71347  20812140.9264         49.700  
        43.8004 
 128031035.369 6  24363492.672    99764480.53643  24363500.0984         39.100  
        21.7004 
 132068161.265 5  25131744.594   102910254.56643  25131753.1054         34.100  
        19.0004 
 132339333.606 6  25183312.320   103121420.43843  25183317.6024         38.300  
        20.9004 
 108711292.440 8  20687073.719    84710132.82847  20687082.6214         53.400  
        46.4004 
 126226430.062 7  24020073.773    98358232.18044  24020081.2704         43.700  
        27.3004 
 125965636.335 7  23970474.750    98155057.65144  23970482.1054         44.100  
        25.5004 
 114407640.213 7  21771046.578    89148838.61546  21771052.2854         47.500  
        40.2004 
 115840014.110 7  22043637.789    90265026.77146  22043646.2544         46.300  
        39.1004 
 15 12 31  1  4  0.0000000  0 10G30G02G13G12G23G06G07G17G05G09
 129242233.308 6  24593980.055   100708301.73743  24593991.1454         39.200  
        22.3004 
 109317803.838 8  20802489.258    85182715.92547  20802492.5084         51.200  
        43.4004 
 127917749.197 6  24341935.023    99676205.72843  24341942.2304         39.400  
        22.9004 
 132135474.886 6  25144554.859   102962706.64843  25144561.5904         36.500  
        19.0004 
 132435571.104 6  25201626.070   103196410.63743  25201631.7544         37.500  
        20.6004 
 108738094.720 8  20692174.141    84731017.68147  20692183.1914         53.200  
        47.0004 
 126169411.775 7  24009223.375    98313802.34244  24009230.6254         44.600  
        27.2004 
 126077422.535 7  23991746.961    98242163.62344  23991754.4304         43.700  
        25.7004 
 114357507.763 8  21761506.461    89109774.34146  21761512.4844         48.200  
        39.6004 
 115911175.692 7  22057180.016    90320477.26646  22057188.4844         46.700  
        39.2004 
 15 12 31  1  4 30.0000000  0 10G30G02G13G12G23G06G07G17G05G09
 129163719.732 6  24579040.039   100647122.37044  24579051.3954         40.600  
        25.3004 
 109267340.884 8  20792886.578    85143394.11847  20792889.6644         50.400  
        43.8004 
 127804536.689 6  24320391.000    99587988.33743  24320398.4964         38.800  
        22.0004 
 132202924.014 6  25157390.578   103015264.26643  25157398.2114         37.400  
        18.6004 
 132531932.973 6  25219963.508   103271497.76343  25219968.9344         38.700  
        19.3004 
 108765260.589 8  20697343.688    84752185.85647  20697352.2734         53.600  
        46.3004 
 126112647.668 7  23998421.641    98269570.58244  23998428.7854         44.100  
        27.3004 
 126189295.823 7  24013035.398    98329337.41444  24013044.0274         42.000  
        26.0004 
 114307611.342 8  21752011.508    89070893.99246  21752017.6724         48.800  
        39.3004 
 115982736.814 7  22070797.258    90376239.08346  22070805.7154         46.300  
        38.8004 
 15 12 31  1  5  0.0000000  0 10G30G02G13G12G23G06G07G17G05G09
 129085205.869 6  24564098.633   100585942.79343  24564109.6374         39.200  
        22.9004 
 109217118.765 8  20783329.594    85104259.96847  20783333.0234         51.300  
        43.8004 
 127691400.239 6  24298862.898    99499830.19143  24298869.2034         39.900  
        21.7004 
 132270505.693 6  25170251.578   103067925.25943  25170259.6174         37.200  
        19.3004 
 132628417.172 6  25238322.805   103346680.19143  25238330.1374         36.700  
        21.5004 
 108792790.675 8  20702582.594    84773637.83047  20702591.1484         53.200  
        46.3004 
 126056140.812 7  23987668.742    98225539.21844  23987675.2664         43.900  
        27.0004 
 126301253.490 6  24034340.516    98416576.90943  24034349.5744         40.100  
        23.9004 
 114257950.578 8  21742561.219    89032197.24946  21742567.3134         48.600  
        39.5004 
 116054695.018 7  22084491.023    90432310.32646  22084498.8834         46.800  
        38.7004 
 15 12 31  1  5 30.0000000  0 10G30G02G13G12G23G06G07G17G05G09
 129006694.652 6  24549158.414   100524765.25443  24549169.8164         38.300  
        20.9004 
 109167139.516 8  20773818.859    85065315.06247  20773822.1054         51.300  
        43.8004 
 127578342.139 6  24277347.953    99411733.06343  24277354.6884         40.500  
        21.5004 
 132338216.891 6  25183136.789   103120687.13742  25183143.3094         37.300  
        17.4004 
 132725021.789 6  25256707.047   103421956.46343  25256713.8754         37.700  
        19.6004 
 108820685.520 8  20707890.500    84795374.03647  20707899.3674         53.400  
        46.3004 
 125999893.883 7  23976964.938    98181710.43644  23976972.3634         42.200  
        27.6004 
 126413292.456 6  24055661.219    98503879.77844  24055670.1024         40.600  
        26.0004 
 114208525.522 7  21733156.008    88993684.19146  21733162.0434         47.600  
        39.9004 
 116127047.887 7  22098259.117    90488689.10346  22098267.3984         46.100  
        38.6004 
 15 12 31  1  6  0.0000000  0 10G30G02G13G12G23G06G07G17G05G09
 128928188.691 6  24534219.758   100463591.81843  24534230.7664         39.000  
        21.7004 
 109117404.414 8  20764354.625    85026560.41347  20764357.7154         49.700  
        43.9004 
 127465364.967 6  24255849.148    99323699.03343  24255856.4774         40.500  
        22.8004 
 132406054.226 5  25196044.703   103173547.27943  25196052.1214         35.300  
        19.0004 
 132821743.944 6  25275112.664   103497324.34242  25275118.5314         38.400  
        16.9004 
 108848945.480 8  20713268.281    84817394.74047  20713277.3914         52.600  
        46.1004 
 125943909.450 7  23966312.016    98138086.20944  23966319.1724         42.100  
        27.1004 
 126525410.305 6  24076995.945    98591244.10744  24077005.9104         40.000  
        26.4004 
 114159335.886 7  21723795.859    88955354.58346  21723802.0704         47.600  
        40.2004 
 116199792.703 7  22112102.000    90545373.29346  22112110.3554         46.600  
        39.1004 
 15 12 31  1  6 30.0000000  0 10G30G02G13G12G23G06G07G17G05G09
 128849691.183 6  24519281.727   100402424.96343  24519293.5744         39.300  
        22.6004 
 109067915.933 8  20754937.414    84987997.92747  20754940.4804         49.600  
        43.9004 
 127352471.003 6  24234365.258    99235729.84343  24234373.0864         40.600  
        22.6004 
 132474015.078 5  25208978.039   103226503.70542  25208985.5314         35.200  
        17.8004 
 132918581.837 6  25293540.148   103572782.43542  25293545.5394         38.100  
        16.9004 
 108877571.405 8  20718715.938    84839700.62847  20718724.7814         51.400  
        46.4004 
 125888190.507 6  23955708.430    98094668.83944  23955715.9024         41.800  
        25.2004 
 126637604.058 6  24098346.008    98678667.59844  24098356.0434         40.500  
        27.9004 
 114110381.447 7  21714480.188    88917208.23946  21714486.3634         47.600  
        39.6004 
 116272927.296 7  22126019.070    90602361.21046  22126027.4654         46.000  
        38.6004 
 15 12 31  1  7  0.0000000  0 10G30G02G13G12G23G06G07G17G05G09
 128771205.373 6  24504346.891   100341267.18944  24504357.3914         38.700  
        24.4004 
 109018676.475 8  20745567.531    84949629.49947  20745570.7424         49.300  
        43.7004 
 127239663.041 6  24212898.555    99147827.67243  24212906.0084         39.600  
        22.0004 
 132542096.569 5  25221933.391   103279554.14543  25221940.9614         35.400  
        18.3004 
 133015533.643 6  25311989.789   103648329.31843  25311995.5664         39.700  
        18.6004 
 108906564.033 8  20724232.930    84862292.25147  20724241.6414         50.500  
        46.0004 
 125832739.682 6  23945156.789    98051460.38144  23945164.1414         41.600  
        27.8004 
 126749871.112 6  24119710.109    98766148.20344  24119719.7114         40.500  
        28.2004 
 114061661.994 7  21705208.930    88879245.00246  21705215.1294         47.500  
        39.5004 
 116346449.423 7  22140010.508    90659651.11846  22140018.3014         46.900  
        38.6004 
 15 12 31  1  7 30.0000000  0 10G30G02G13G12G23G06G07G17G05G09
 128692733.445 6  24489413.563   100280120.25944  24489425.0904         40.900  
        24.7004 
 108969687.068 8  20736245.039    84911455.90247  20736248.2814         50.600  
        43.8004 
 127126943.063 6  24191449.180    99059994.03943  24191455.6764         40.500  
        22.2004 
 132610295.215 6  25234911.242   103332695.93142  25234919.7704         36.200  
        17.8004 
 133112596.489 6  25330459.219   103723962.68743  25330466.3364         36.200  
        18.3004 
 108935923.269 8  20729819.781    84885169.54447  20729828.7934         50.700  
        45.8004 
 125777559.419 6  23934656.508    98008462.74644  23934663.6524         40.700  
        26.0004 
 126862208.720 6  24141087.500    98853683.80144  24141096.8164         41.300  
        26.5004 
 114013177.124 8  21695982.633    88841464.55646  21695988.8054         49.000  
        39.6004 
 116420355.967 7  22154073.734    90717240.55846  22154082.2074         46.000  
        38.1004 
 15 12 31  1  8  0.0000000  0 10G30G02G13G12G23G06G07G17G05G09
 128614278.614 6  24474484.258   100218986.60644  24474495.9614         41.000  
        24.8004 
 108920949.946 8  20726970.656    84873478.89247  20726973.8134         51.500  
        44.0004 
 127014313.795 6  24170015.922    98972231.09443  24170022.6454         41.300  
        22.9004 
 132678608.156 5  25247910.984   103385926.71842  25247918.8554         35.000  
        17.4004 
 133209768.615 6  25348951.414   103799681.18543  25348957.5274         38.100  
        19.0004 
 108965649.871 8  20735476.516    84908333.09947  20735485.1604         50.300  
        46.3004 
 125722652.941 6  23924207.406    97965678.48544  23924215.9224         41.600  
        27.3004 
 126974614.887 7  24162478.203    98941272.82044  24162487.7934         43.500  
        27.3004 
 113964926.784 8  21686800.711    88803866.86846  21686806.7934         48.300  
        40.5004 
 116494644.709 7  22168210.758    90775127.84246  22168218.9924         46.400  
        38.4004 
 15 12 31  1  8 30.0000000  0  9G30G02G13G23G06G07G17G05G09
 128535844.103 6  24459558.438   100157868.85443  24459570.2704         40.700  
        22.5004 
 108872467.508 8  20717744.391    84835700.34847  20717747.9614         50.800  
        43.9004 
 126901777.851 6  24148601.500    98884540.88943  24148608.0164         41.200  
        22.9004 
 133307047.876 6  25367462.266   103875483.19343  25367469.7624         38.900  
        19.3004 
 108995744.698 8  20741203.398    84931783.58047  20741212.1174         51.500  
        46.1004 
 125668022.808 7  23913812.219    97923109.51544  23913819.4344         42.800  
        27.9004 
 127087085.951 7  24183881.656    99028912.40944  24183889.6414         43.600  
        26.2004 
 113916911.170 8  21677663.586    88766452.07646  21677670.0164         49.100  
        39.7004 
 116569313.404 7  22182420.117    90833311.18946  22182428.0124         47.000  
        39.2004 
 15 12 31  1  9  0.0000000  0  8G30G02G13G06G07G17G05G09
 128457433.105 6  24444636.695   100096769.34443  24444647.6914         40.800  
        21.5004 
 108824241.901 8  20708567.672    84798121.93647  20708571.1134         52.300  
        44.2004 
 126789337.875 7  24127204.648    98796925.43643  24127212.3204         42.500  
        22.9004 
 109026208.454 8  20747000.383    84955521.53447  20747009.4184         51.100  
        46.1004 
 125613672.045 7  23903469.555    97880758.23844  23903477.5084         43.800  
        28.1004 
 127199619.816 7  24205295.461    99116600.94043  24205303.9534         42.500  
        22.3004 
 113869129.936 8  21668571.203    88729219.92146  21668577.5204         49.500  
        39.7004 
 116644359.800 7  22196700.648    90891788.85046  22196709.2814         47.000  
        38.2004 
 15 12 31  1  9 30.0000000  0  8G30G02G13G06G07G17G05G09
 128379047.854 6  24429720.648   100035689.99143  24429732.3404         40.400  
        22.2004 
 108776274.613 8  20699439.688    84760744.80847  20699443.3134         51.800  
        43.9004 
 126676995.634 7  24105826.367    98709386.15643  24105833.4614         42.000  
        22.5004 
 109057040.993 8  20752867.555    84979546.85747  20752876.4384         51.800  
        46.0004 
 125559602.493 7  23893180.453    97838626.08544  23893188.2894         43.700  
        27.1004 
 127312212.954 7  24226722.023    99204335.68143  24226728.8914         42.600  
        22.0004 
 113821582.543 8  21659523.398    88692169.98646  21659529.6604         49.800  
        40.3004 
 116719780.810 7  22211052.781    90950558.42346  22211060.9494         47.200  
        37.8004 
 15 12 31  1 10  0.0000000  0  8G30G02G13G06G07G17G05G09
 128300691.099 6  24414810.148    99974632.81643  24414820.8244         39.200  
        21.8004 
 108728567.127 8  20690361.578    84723570.11447  20690364.7704         52.300  
        44.5004 
 126564753.404 6  24084467.023    98621924.76043  24084474.6764         41.800  
        21.5004 
 109088242.558 8  20758805.336    85003859.72947  20758813.8874         51.500  
        45.7004 
 125505817.144 7  23882945.680    97796715.37444  23882953.2704         43.900  
        29.1004 
 127424862.900 6  24248158.383    99292114.70343  24248165.5314         41.800  
        20.4004 
 113774268.247 8  21650519.891    88655301.68846  21650526.0864         50.400  
        40.0004 
 116795573.626 7  22225475.773    91009617.72046  22225483.8914         46.800  
        37.8004 
 15 12 31  1 10 30.0000000  0  8G30G02G13G06G07G17G05G09
 128222365.790 6  24399905.555    99913600.20643  24399916.3634         39.800  
        23.0004 
 108681121.592 8  20681333.070    84686599.55247  20681336.1454         52.700  
        44.6004 
 126452613.777 6  24063128.461    98534543.33743  24063135.1684         41.800  
        22.2004 
 109119813.741 8  20764813.055    85028460.61247  20764821.8244         52.800  
        45.9004 
 125452318.623 7  23872765.484    97755028.18744  23872772.7304         44.800  
        29.4004 
 127537566.977 6  24269605.555    99379935.85643  24269613.9804         39.700  
        22.3004 
 113727187.292 8  21641560.297    88618615.20246  21641566.3914         49.900  
        40.5004 
 116871735.861 7  22239969.164    91068964.88946  22239977.2504         45.800  
        37.9004 
 15 12 31  1 11  0.0000000  0  8G30G02G13G06G07G17G05G09
 128144074.861 6  24385007.453    99852594.37044  24385018.9694         40.800  
        25.1004 
 108633939.767 8  20672354.570    84649834.46647  20672358.1844         52.100  
        44.1004 
 126340578.908 7  24041808.727    98447243.53944  24041815.9304         43.100  
        25.2004 
 109151754.835 8  20770891.430    85053349.73147  20770899.9884         52.900  
        45.6004 
 125399109.333 7  23862639.758    97713566.39844  23862647.4614         45.000  
        28.5004 
 127650322.778 6  24291061.664    99467797.27243  24291071.2234         38.700  
        22.5004 
 113680339.172 8  21632645.875    88582110.14146  21632651.6804         50.000  
        40.1004 
 116948264.834 7  22254531.844    91128597.79746  22254540.4494         47.100  
        38.7004 
 15 12 31  1 11 30.0000000  0  8G30G02G13G06G07G17G05G09
 128065821.659 6  24370116.039    99791617.96444  24370127.3874         39.900  
        24.7004 
 108587024.154 8  20663426.727    84613276.82847  20663429.9384         52.900  
        44.4004 
 126228651.827 7  24020509.297    98360027.73344  24020516.7734         43.300  
        24.8004 
 109184066.762 8  20777040.250    85078527.82947  20777049.1884         52.400  
        46.0004 
 125346192.431 7  23852570.789    97672332.41644  23852578.1094         44.800  
        28.3004 
 127763127.336 6  24312528.398    99555696.64443  24312538.2544         38.600  
        22.2004 
 113633723.803 8  21623775.063    88545786.45146  21623781.0864         50.300  
        40.8004 
 117025158.453 7  22269164.227    91188514.86246  22269172.9414         47.500  
        38.8004 
 15 12 31  1 12  0.0000000  0  8G30G02G13G06G07G17G05G09
 127987608.903 6  24355232.977    99730673.06244  24355244.7234         40.200  
        25.4004 
 108540376.900 8  20654549.688    84576928.30147  20654552.9344         51.900  
        45.2004 
 126116834.907 7  23999231.023    98272897.72244  23999238.6174         43.000  
        24.3004 
 109216749.783 8  20783259.406    85103995.08747  20783268.2774         50.700  
        45.6004 
 125293570.236 7  23842556.734    97631328.08244  23842564.3444         43.900  
        27.7004 
 127875977.773 6  24334003.258    99643631.76544  24334013.1374         39.800  
        25.5004 
 113587340.936 8  21614948.578    88509643.92646  21614955.0554         50.400  
        40.6004 
 117102414.053 7  22283865.680    91248713.98546  22283874.1844         47.300  
        38.2004 
 15 12 31  1 12 30.0000000  0  8G30G02G13G06G07G17G05G09
 127909439.504 6  24340358.125    99669761.94644  24340369.0004         40.800  
        26.1004 
 108493999.230 8  20645724.695    84540789.83247  20645727.5904         52.300  
        44.3004 
 126005130.485 7  23977973.984    98185855.37243  23977981.6414         43.100  
        22.9004 
 109249804.229 8  20789549.570    85129751.75947  20789558.5004         51.500  
        45.8004 
 125241245.374 7  23832599.078    97590555.44444  23832607.3984         45.000  
        28.3004 
 127988871.548 6  24355485.891    99731600.68644  24355495.9454         41.700  
        26.0004 
 113541190.329 8  21606166.242    88473682.39546  21606172.7424         49.800  
        40.7004 
 117180028.995 7  22298635.125    91309193.10846  22298643.9104         47.100  
        37.3004 
 15 12 31  1 13  0.0000000  0  8G30G02G13G06G07G17G05G09
 127831316.543 6  24325490.680    99608887.01844  24325502.8204         39.800  
        25.8004 
 108447893.583 8  20636950.945    84504863.32047  20636954.6214         51.600  
        45.0004 
 125893540.797 7  23956739.555    98098902.39843  23956746.8754         43.500  
        23.0004 
 109283230.664 8  20795910.477    85155798.29847  20795919.2114         50.700  
        45.6004 
 125189220.663 7  23822698.672    97550016.68444  23822706.8484         43.100  
        27.3004 
 128101806.242 7  24376977.539    99819601.52744  24376987.0704         42.700  
        28.2004 
 113495271.844 8  21597428.813    88437901.74246  21597434.7814         50.000  
        40.6004 
 117258000.864 7  22313472.555    91369950.36646  22313481.3134         46.900  
        37.5004 
 15 12 31  1 13 30.0000000  0  8G30G02G13G06G07G17G05G09
 127753242.776 6  24310634.203    99548050.41143  24310644.4264         39.900  
        23.3004 
 108402061.663 8  20628229.836    84469150.10447  20628232.5664         52.100  
        44.9004 
 125782068.374 7  23935527.109    98012040.79544  23935534.6294         44.100  
        24.6004 
 109317029.312 8  20802342.117    85182134.86747  20802350.9264         50.500  
        45.8004 
 125137498.533 7  23812857.047    97509713.71544  23812864.9654         44.000  
        27.5004 
 128214778.682 7  24398475.234    99907631.79244  24398485.0944         42.300  
        28.3004 
 113449585.204 8  21588734.563    88402301.73846  21588741.2974         50.200  
        41.1004 
 117336326.906 7  22328377.859    91430983.59046  22328386.3054         47.000  
        37.3004 
 15 12 31  1 14  0.0000000  0  8G30G02G13G06G07G17G05G09
 127675221.250 6  24295787.391    99487254.51244  24295797.6884         39.900  
        24.0004 
 108356505.590 8  20619560.734    84433651.84547  20619564.2584         52.200  
        44.9004 
 125670715.641 7  23914337.367    97925272.44444  23914344.5234         43.600  
        24.5004 
 109351200.688 8  20808844.602    85208761.87347  20808853.7934         51.400  
        45.9004 
 125086081.759 7  23803072.602    97469648.65444  23803079.6764         44.600  
        26.7004 
 128327786.368 7  24419980.000    99995689.53144  24419989.6684         42.200  
        26.0004 
 113404130.154 8  21580085.031    88366882.20146  21580091.5824         50.900  
        40.8004 
 117415004.714 7  22343349.570    91492290.91946  22343358.4964         47.500  
        37.5004 
 15 12 31  1 14 30.0000000  0  8G30G02G13G06G07G17G05G09
 127597254.873 6  24280949.945    99426501.58643  24280961.0664         40.000  
        22.8004 
 108311227.264 8  20610944.406    84398370.01047  20610947.6684         52.500  
        45.0004 
 125559485.263 7  23893170.859    97838599.44244  23893177.9304         42.400  
        25.3004 
 109385745.021 8  20815418.266    85235679.50547  20815426.9064         52.300  
        45.5004 
 125034972.746 7  23793347.070    97429823.39844  23793355.1174         43.200  
        27.0004 
 128440826.462 6  24441491.125   100083772.52044  24441500.7624         41.100  
        25.2004 
 113358906.354 8  21571479.148    88331642.85946  21571485.7194         49.600  
        41.3004 
 117494031.617 7  22358387.852    91553870.27646  22358396.6134         47.400  
        37.0004 
 15 12 31  1 15  0.0000000  0  8G30G02G13G06G07G17G05G09
 127519346.695 6  24266124.563    99365793.98843  24266135.4304         39.900  
        22.9004 
 108266228.732 8  20602381.688    84363306.20147  20602384.7304         52.300  
        44.6004 
 125448379.437 7  23872028.406    97752023.48244  23872035.0554         42.700  
        24.1004 
 109420662.816 8  20822063.258    85262888.13847  20822072.2814         52.400  
        45.8004 
 124984174.258 7  23783680.172    97390240.17244  23783688.4884         44.000  
        27.2004 
 128553896.888 6  24463007.977   100171879.17843  24463017.3914         39.700  
        22.8004 
 113313913.510 8  21562917.102    88296583.46946  21562923.4964         50.000  
        40.6004 
 117573405.205 7  22373492.234    91615719.76346  22373501.5164         47.100  
        37.0004 
 15 12 31  1 15 30.0000000  0  8G30G02G13G06G07G17G05G09
 127441499.707 6  24251310.906    99305134.07644  24251321.2074         40.200  
        24.8004 
 108221512.089 8  20593872.398    84328462.03247  20593875.7934         52.300  
        44.9004 
 125337400.612 7  23850909.563    97665546.47843  23850916.4144         42.200  
        22.8004 
 109455954.478 8  20828779.086    85290388.10247  20828787.8484         51.800  
        45.7004 
 124933688.855 7  23774073.836    97350900.87244  23774081.5514         44.600  
        27.9004 
 128666994.441 6  24484529.617   100260006.94243  24484539.3404         39.600  
        23.4004 
 113269151.451 8  21554399.438    88261703.94746  21554405.8014         50.000  
        41.3004 
 117653122.856 7  22388662.453    91677837.35246  22388670.9454         47.700  
        37.5004 
 15 12 31  1 16  0.0000000  0  9G30G02G13G29G06G07G17G05G09
 127363716.904 6  24236509.070    99244524.17844  24236520.5084         41.400  
        26.2004 
 108177079.259 8  20585417.172    84293839.02747  20585420.2544         52.400  
        45.1004 
 125226551.257 7  23829815.578    97579170.32343  23829821.6804         42.600  
        23.9004 
 131530055.387 5  25029336.945   102490984.49642  25029345.4184         35.000  
        16.9004 
 109491620.298 8  20835565.961    85318179.60747  20835574.8324         52.500  
        45.6004 
 124883519.220 7  23764526.422    97311807.61144  23764534.4804         43.000  
        27.4004 
 128780116.581 6  24506056.352   100348153.87043  24506066.5824         38.100  
        22.6004 
 113224620.081 8  21545925.469    88227004.17346  21545931.9614         50.600  
        41.3004 
 117733182.023 7  22403897.094    91740221.05946  22403906.1454         47.400  
        37.4004 
 15 12 31  1 16 30.0000000  0  9G30G02G13G29G06G07G17G05G09
 127286001.218 6  24221719.883    99183966.57444  24221731.2814         41.100  
        26.1004 
 108132932.164 8  20577016.133    84259438.67247  20577019.4964         51.700  
        45.3004 
 125115833.920 7  23808746.703    97492897.03944  23808753.0864         42.700  
        25.6004 
 131434501.127 6  25011155.445   102416526.65143  25011161.7814         38.100  
        18.6004 
 109527660.625 8  20842424.133    85346262.94947  20842432.9884         53.200  
        45.3004 
 124833667.794 7  23755039.984    97272962.30244  23755048.2974         43.200  
        27.7004 
 128893260.564 6  24527586.914   100436317.78143  24527596.9494         38.300  
        21.1004 
 113180319.023 8  21537495.219    88192483.86546  21537501.4924         50.200  
        41.3004 
 117813580.156 7  22419196.680    91802868.87946  22419204.9024         47.600  
        37.1004 
 15 12 31  1 17  0.0000000  0  9G30G02G13G29G06G07G17G05G09
 127208355.584 6  24206944.945    99123463.52244  24206956.0594         41.700  
        26.9004 
 108089072.735 8  20568670.320    84225262.47047  20568673.5514         52.300  
        45.1004 
 125005251.024 6  23787703.453    97406728.51844  23787710.2074         41.500  
        24.1004 
 131339186.862 6  24993016.328   102342255.75843  24993024.4574         36.800  
        19.0004 
 109564075.685 8  20849353.758    85374638.27247  20849362.5984         53.000  
        45.7004 
 124784137.046 7  23745614.531    97234366.90444  23745622.5434         43.900  
        28.7004 
 129006423.652 6  24549121.813   100524496.62143  24549131.5824         39.000  
        22.0004 
 113136247.740 8  21529108.375    88158142.60346  21529115.1804         49.600  
        41.4004 
 117894314.537 7  22434559.680    91865778.71146  22434568.4774         47.100  
        37.0004 
 15 12 31  1 17 30.0000000  0  9G30G02G13G29G06G07G17G05G09
 127130782.998 6  24192183.188    99063017.43944  24192194.4694         40.800  
        26.4004 
 108045503.089 8  20560379.250    84191312.06247  20560382.5164         52.900  
        44.9004 
 124894804.876 6  23766686.789    97320666.55044  23766692.9614         41.800  
        25.3004 
 131244116.041 6  24974925.672   102268174.52943  24974933.8134         37.300  
        19.0004 
 109600865.859 8  20856354.578    85403305.90147  20856363.8204         52.600  
        45.5004 
 124734929.651 7  23736250.766    97196023.46544  23736258.5664         43.900  
        28.4004 
 129119603.212 6  24570658.594   100612688.29643  24570667.9494         40.400  
        20.4004 
 113092405.979 8  21520766.008    88123980.19146  21520772.3244         50.100  
        41.4004 
 117975382.682 7  22449986.453    91928948.63246  22449995.1484         47.200  
        36.2004 
 15 12 31  1 18  0.0000000  0  9G30G02G13G29G06G07G17G05G09
 127053286.426 6  24177435.813    99002630.56944  24177447.1414         41.400  
        26.9004 
 108002224.979 8  20552143.359    84157588.84747  20552146.8014         52.900  
        45.0004 
 124784497.848 7  23745695.750    97234712.97944  23745702.2544         42.000  
        25.7004 
 131149290.793 6  24956880.883   102194284.76843  24956888.4064         36.400  
        19.3004 
 109638031.396 8  20863427.086    85432266.01447  20863435.9574         52.800  
        45.6004 
 124686047.960 7  23726948.422    97157933.81144  23726956.4384         42.900  
        27.0004 
 129232796.435 6  24592198.898   100700890.66143  24592207.8794         40.700  
        20.4004 
 113048793.668 8  21512466.859    88089996.57346  21512472.8834         50.800  
        40.9004 
 118056781.960 7  22465476.063    91992376.56646  22465485.1484         46.600  
        37.1004 
 15 12 31  1 18 30.0000000  0  9G30G02G13G29G06G07G17G05G09
 126975868.856 6  24162703.453    98942305.25244  24162714.9614         40.500  
        24.8004 
 107959240.235 8  20543964.133    84124094.20847  20543967.2584         52.500  
        44.9004 
 124674332.149 7  23724731.945    97148869.52844  23724738.1024         42.300  
        24.6004 
 131054713.687 6  24938882.805   102120588.27143  24938891.0704         38.200  
        22.2004 
 109675572.567 8  20870571.000    85461518.82647  20870580.3984         52.500  
        45.4004 
 124637494.750 7  23717708.945    97120100.11544  23717717.4964         43.700  
        29.3004 
 129346001.117 6  24613741.234   100789101.92643  24613750.2624         40.900  
        19.6004 
 113005410.232 8  21504211.328    88056191.30446  21504217.1334         51.400  
        41.2004 
 118138509.781 7  22481028.969    92056060.50446  22481037.7624         46.400  
        37.0004 
 15 12 31  1 19  0.0000000  0  9G30G02G13G29G06G07G17G05G09
 126898533.365 6  24147987.430    98882043.90844  24147998.4064         41.600  
        24.3004 
 107916551.306 8  20535840.336    84090830.09047  20535844.0314         52.600  
        45.0004 
 124564310.452 6  23703795.258    97063138.27544  23703802.3444         41.800  
        27.1004 
 130960387.286 6  24920934.180   102047087.14843  24920941.0904         36.300  
        20.1004 
 109713489.757 8  20877786.180    85491064.64847  20877795.3914         51.500  
        45.9004 
 124589272.349 7  23708533.398    97082524.17344  23708541.3954         42.700  
        28.6004 
 129459214.069 6  24635284.516   100877319.60843  24635293.7234         41.400  
        20.4004 
 112962255.859 8  21495999.234    88022564.52346  21496005.5474         51.000  
        40.8004 
 118220563.611 7  22496643.148    92119998.47646  22496651.6764         46.600  
        36.3004 
 15 12 31  1 19 30.0000000  0  9G30G02G13G29G06G07G17G05G09
 126821282.775 6  24133287.047    98821848.68344  24133297.3444         41.900  
        24.4004 
 107874159.813 8  20527773.844    84057797.74147  20527777.1294         52.800  
        45.1004 
 124454435.183 6  23682886.328    96977521.17644  23682894.1294         41.300  
        24.2004 
 130866314.321 6  24903032.406   101973783.54643  24903040.4304         36.400  
        19.9004 
 109751782.989 8  20885073.227    85520903.48347  20885082.5314         51.900  
        45.0004 
 124541383.178 7  23699420.234    97045207.88444  23699427.2154         43.900  
        29.1004 
 129572432.740 6  24656830.391   100965541.69943  24656839.2274         41.100  
        22.8004 
 112919330.105 8  21487830.633    87989115.88346  21487836.8794         51.000  
        41.0004 
 118302940.689 7  22512319.148    92184188.34946  22512327.7974         47.500  
        36.3004 
 15 12 31  1 20  0.0000000  0  9G30G02G13G29G06G07G17G05G09
 126744120.204 6  24118603.563    98761722.05744  24118615.3054         40.600  
        26.2004 
 107832067.675 8  20519763.836    84024998.66347  20519767.1094         53.100  
        45.4004 
 124344708.762 7  23662007.141    96892020.05244  23662013.6054         42.100  
        25.8004 
 130772497.860 5  24885178.828   101900679.87043  24885187.3714         35.400  
        18.3004 
 109790452.738 8  20892432.109    85551035.70547  20892441.3204         51.900  
        45.3004 
 124493829.992 7  23690371.078    97008153.40844  23690378.9224         43.200  
        28.6004 
 129685654.264 6  24678375.930   101053765.99743  24678385.6764         40.000  
        22.6004 
 112876632.631 8  21479705.539    87955845.12346  21479711.9224         50.000  
        41.1004 
 118385638.637 7  22528055.797    92248628.24245  22528065.0354         47.500  
        35.9004 
 15 12 31  1 20 30.0000000  0  9G30G02G13G29G06G07G17G05G09
 126667048.509 6  24103937.711    98701666.22744  24103947.9184         40.800  
        25.5004 
 107790277.029 8  20511811.117    83992434.51347  20511814.8794         52.900  
        45.3004 
 124235133.606 6  23641155.406    96806636.77244  23641162.6024         41.700  
        25.3004 
 130678940.191 5  24867375.273   101827777.66442  24867382.5234         35.900  
        17.4004 
 109829499.038 8  20899862.227    85581461.34547  20899871.3674         51.900  
        45.5004 
 124446615.079 7  23681385.813    96971362.55244  23681394.3094         42.400  
        27.9004 
 129798876.207 6  24699921.359   101141990.53443  24699931.4494         39.700  
        22.0004 
 112834162.995 8  21471623.813    87922751.88846  21471630.1414         50.900  
        40.7004 
 118468654.671 7  22543853.516    92313315.99846  22543862.2814         47.100  
        36.2004 
 15 12 31  1 21  0.0000000  0  9G30G02G13G29G06G07G17G05G09
 126590070.902 6  24089288.539    98641683.71844  24089299.4184         40.200  
        24.7004 
 107748789.819 8  20503916.531    83960106.81247  20503919.6644         53.000  
        45.4004 
 124125712.153 7  23620333.164    96721373.31544  23620340.3134         43.300  
        26.4004 
 130585644.116 5  24849621.570   101755079.41843  24849629.5744         35.300  
        19.9004 
 109868922.362 8  20907364.586    85612180.77147  20907373.5704         51.600  
        45.3004 
 124399740.921 7  23672467.031    96934837.20344  23672474.6254         43.800  
        28.8004 
 129912096.164 6  24721466.750   101230213.49743  24721476.4064         37.900  
        20.9004 
 112791921.007 8  21463585.195    87889836.04746  21463591.6414         50.100  
        41.3004 
 118551986.344 7  22559710.664    92378249.71445  22559719.4734         46.100  
        35.2004 
 15 12 31  1 21 30.0000000  0  9G30G02G13G29G06G07G17G05G09
 126513190.291 6  24074658.523    98581776.81644  24074669.9734         40.800  
        25.8004 
 107707608.028 8  20496080.234    83928017.10047  20496083.4414         51.100  
        45.4004 
 124016446.599 7  23599540.453    96636231.34144  23599547.3094         43.900  
        25.3004 
 130492612.223 5  24831918.164   101682587.02643  24831927.2274         35.800  
        21.5004 
 109908722.814 8  20914938.336    85643194.05947  20914947.2734         52.600  
        45.3004 
 124353209.939 7  23663612.461    96898579.24144  23663620.0354         45.200  
        28.5004 
 130025311.261 6  24743010.906   101318432.65743  24743021.0234         36.600  
        19.3004 
 112749906.535 8  21455590.570    87857097.49646  21455596.9224         48.300  
        41.1004 
 118635631.051 7  22575627.633    92443427.36045  22575636.6684         46.000  
        35.6004 
 15 12 31  1 22  0.0000000  0  9G30G02G13G29G06G07G17G05G09
 126436409.727 6  24060047.688    98521947.84244  24060058.7774         39.400  
        27.8004 
 107666733.589 8  20488301.578    83896166.87947  20488305.1054         50.600  
        45.4004 
 123907339.597 7  23578778.813    96551212.89644  23578785.0514         43.800  
        26.8004 
 130399846.899 5  24814266.320   101610302.38943  24814274.2894         34.900  
        19.6004 
 109948900.671 8  20922583.758    85674501.43447  20922593.4694         52.300  
        45.0004 
 124307024.687 7  23654823.578    96862590.73044  23654831.4144         42.700  
        28.1004 
 130138518.944 6  24764553.172   101406645.95543  24764564.3404         36.600  
        20.4004 
 112708119.270 8  21447638.477    87824535.98446  21447644.6644         48.600  
        41.1004 
 118719586.217 7  22591604.289    92508846.91846  22591613.5204         46.800  
        36.1004 
 15 12 31  1 22 30.0000000  0  9G30G02G13G29G06G07G17G05G09
 126359732.258 6  24045456.414    98462199.20344  24045467.4924         40.800  
        26.8004 
 107626168.765 8  20480582.445    83864557.92547  20480585.7074         53.200  
        45.9004 
 123798393.592 7  23558046.477    96466319.93944  23558054.0664         43.900  
        26.6004 
 130307350.780 6  24796665.211   101538227.47643  24796671.6374         37.000  
        19.6004 
 109989456.135 8  20930301.266    85706103.04247  20930310.3714         52.600  
        45.2004 
 124261187.441 6  23646100.805    96826873.37244  23646108.0084         41.900  
        28.4004 
 130251716.256 6  24786095.023   101494851.19243  24786105.2304         36.000  
        21.5004 
 112666558.813 8  21439730.016    87792151.19447  21439736.4574         50.300  
        42.0004 
 118803849.230 7  22607639.234    92574506.35645  22607647.6644         46.400  
        35.0004 
 15 12 31  1 23  0.0000000  0  9G30G02G13G29G06G07G17G05G09
 126283160.928 6  24030885.586    98402533.27044  24030896.7974         41.500  
        26.5004 
 107585915.234 8  20472922.359    83833191.53747  20472925.6764         50.100  
        45.9004 
 123689610.858 7  23537345.875    96381554.22944  23537353.1334         44.800  
        27.7004 
 130215126.501 6  24779116.141   101466364.36443  24779121.9734         37.100  
        19.3004 
 110030389.440 8  20938090.773    85737999.07147  20938099.7344         51.900  
        45.0004 
 124215701.164 7  23637444.547    96791429.49244  23637452.8094         42.700  
        27.9004 
 130364901.153 6  24807634.125   101583046.72043  24807644.3674         36.400  
        22.5004 
 112625225.113 8  21431864.484    87759943.11646  21431870.8914         48.500  
        41.9004 
 118888417.576 7  22623732.039    92640403.72345  22623740.2344         46.500  
        35.4004 
 15 12 31  1 23 30.0000000  0  9G30G02G13G29G06G07G17G05G09
 126206698.452 7  24016336.273    98342952.13244  24016345.4884         42.000  
        25.7004 
 107545974.798 8  20465322.047    83802069.12147  20465325.5474         50.800  
        45.9004 
 123580993.621 7  23516676.461    96296917.43144  23516682.9454         44.900  
        26.2004 
 130123176.856 6  24761618.383   101394715.28043  24761625.0354         37.600  
        21.3004 
 110071700.428 8  20945952.117    85770189.40247  20945961.1604         52.600  
        45.4004 
 124170567.725 7  23628855.992    96756260.57344  23628864.5634         42.200  
        28.3004 
 130478070.344 6  24829169.344   101671230.02243  24829179.8954         36.400  
        22.2004 
 112584117.621 8  21424041.867    87727911.28446  21424048.1334         48.500  
        41.6004 
 118973288.266 7  22639882.609    92706536.68645  22639890.4574         47.000  
        35.2004 
 15 12 31  1 24  0.0000000  0  9G30G02G13G29G06G07G17G05G09
 126130348.055 6  24001806.203    98283458.35944  24001816.8284         40.300  
        26.3004 
 107506349.605 8  20457781.258    83771192.33947  20457784.8834         52.300  
        45.7004 
 123472544.365 7  23496039.398    96212411.57444  23496045.6564         43.900  
        26.3004 
 130031504.858 6  24744172.977   101323282.54343  24744180.7344         37.900  
        21.3004 
 110113389.461 8  20953884.891    85802674.30847  20953894.4344         52.500  
        45.0004 
 124125789.572 7  23620335.648    96721368.50444  23620343.0354         42.500  
        29.2004 
 130591221.602 6  24850702.258   101759399.28843  24850711.8914         38.100  
        22.9004 
 112543236.035 8  21416262.297    87696055.48446  21416268.3014         50.700  
        41.4004 
 119058458.974 7  22656089.719    92772903.43445  22656098.2704         46.700  
        35.4004 
 15 12 31  1 24 30.0000000  0  9G30G02G13G29G06G07G17G05G09
 126054112.786 6  23987299.438    98224054.26044  23987309.1954         41.100  
        26.7004 
 107467041.735 8  20450301.313    83740562.83447  20450305.1484         52.500  
        45.8004 
 123364265.494 7  23475433.789    96128038.46444  23475441.2504         43.900  
        27.4004 
 129940112.731 6  24726782.070   101252067.90643  24726789.3954         37.200  
        19.6004 
 110155456.776 8  20961890.422    85835453.98947  20961899.7074         52.000  
        45.1004 
 124081369.189 7  23611883.016    96686755.21044  23611889.9414         44.100  
        28.3004 
 130704352.170 6  24872230.227   101847552.42643  24872240.9884         38.400  
        22.5004 
 112502580.157 8  21408525.703    87664375.55447  21408532.2464         50.700  
        42.2004 
 119143927.099 7  22672353.414    92839501.93945  22672362.5044         45.600  
        35.1004 
 15 12 31  1 25  0.0000000  0  9G30G02G13G29G06G07G17G05G09
 125977995.626 6  23972814.727    98164742.22144  23972825.5204         40.500  
        26.9004 
 107428052.943 8  20442882.047    83710181.95747  20442885.5204         50.100  
        45.9004 
 123256159.595 7  23454862.609    96043800.15044  23454869.3674         44.300  
        27.8004 
 129849002.841 6  24709444.695   101181073.10543  24709452.0824         38.000  
        22.0004 
 110197902.430 8  20969967.367    85868528.47547  20969976.8364         52.300  
        45.6004 
 124037309.053 7  23603498.336    96652422.62245  23603505.7424         44.500  
        30.1004 
 130817459.695 6  24893753.609   101935687.59443  24893765.4384         37.600  
        22.5004 
 112462149.843 8  21400832.109    87632871.40546  21400838.6564         48.100  
        41.8004 
 119229690.021 7  22688673.969    92906330.14645  22688682.8324         45.400  
        35.5004 
 15 12 31  1 25 30.0000000  0  9G30G02G13G29G06G07G17G05G09
 125901999.666 6  23958352.656    98105524.64044  23958364.1024         40.900  
        26.3004 
 107389385.518 8  20435524.133    83680051.49247  20435527.5124         50.000  
        45.6004 
 123148228.973 7  23434323.844    95959698.39444  23434330.9964         44.900  
        28.3004 
 129758178.250 6  24692160.625   101110300.66543  24692168.5234         39.000  
        20.6004 
 110240726.612 8  20978116.672    85901897.91347  20978125.8164         52.400  
        45.3004 
 123993611.594 7  23595183.859    96618372.66345  23595190.9494         46.100  
        30.0004 
 130930541.311 6  24915273.383   102023802.50243  24915284.3204         37.200  
        21.5004 
 112421944.592 8  21393181.055    87601542.62146  21393187.7624         48.100  
        41.5004 
 119315745.189 7  22705049.234    92973386.07545  22705058.4024         44.900  
        35.2004 
 15 12 31  1 26  0.0000000  0  9G30G02G13G29G06G07G17G05G09
 125826127.908 6  23943915.008    98046403.81944  23943926.7304         40.800  
        25.7004 
 107351040.962 8  20428227.555    83650172.60847  20428230.7074         52.400  
        45.8004 
 123040475.926 7  23413819.594    95875735.00644  23413826.4344         44.200  
        27.4004 
 129667417.91816  24674931.141                                          37.300  
                
 110283929.430 8  20986338.047    85935562.40547  20986347.0434         52.100  
        44.9004 
 123950278.697 7  23586936.859    96584606.78445  23586944.5234         43.600  
        30.2004 
 131043594.510 6  24936786.906   102111895.26043  24936798.8364         36.800  
        21.1004 
 112381964.048 8  21385573.500    87570388.94246  21385579.9964         50.500  
        41.6004 
 119402089.959 7  22721480.938    93040667.68345  22721489.3834         44.500  
        35.4004 
 15 12 31  1 26 30.0000000  0  9G30G02G13G29G06G07G17G05G09
 125750383.627 7  23929501.508    97987382.33344  23929513.2504         42.800  
        27.7004 
 107313021.841 8  20420992.445    83620547.31247  20420995.9734         50.300  
        46.0004 
 122932903.077 7  23393348.648    95791912.05544  23393355.9064         43.700  
        28.2004 
 129577394.794 6  24657758.234   100969430.44843  24657766.4774         37.600  
        21.1004 
 110327511.221 8  20994631.492    85969522.19347  20994640.6484         51.700  
        45.0004 
 123907313.204 7  23578760.961    96551127.19145  23578768.7704         45.000  
        30.2004 
 131156616.944 6  24958295.344   102199964.00843  24958307.2504         36.900  
        19.9004 
 112342208.311 8  21378007.719    87539410.43047  21378014.4024         48.400  
        42.1004 
 119488721.988 7  22737966.289    93108173.11445  22737975.1024         44.100  
        35.0004 
 15 12 31  1 27  0.0000000  0  9G30G02G13G29G06G07G17G05G09
 125674769.400 7  23915112.477    97928462.20844  23915123.4654         42.000  
        26.8004 
 107275329.931 8  20413819.992    83591176.98047  20413823.3444         50.800  
        46.2004 
 122825512.613 7  23372912.781    95708231.19644  23372919.7274         44.100  
        28.6004 
 129487441.288 6  24640641.164   100899336.78143  24640648.8594         36.800  
        20.9004 
 110371471.662 8  21002996.844    86003777.03047  21003006.0004         52.100  
        44.7004 
 123864717.247 7  23570654.883    96517935.53044  23570663.0044         44.500  
        29.3004 
 131269605.697 5  24979797.453   102288006.46943  24979808.1094         35.100  
        19.6004 
 112302676.932 8  21370485.648    87508606.75046  21370491.9654         48.300  
        41.6004 
 119575638.269 7  22754505.922    93175900.05245  22754514.5474         44.300  
        34.2004 
 15 12 31  1 27 30.0000000  0  9G30G02G13G29G06G07G17G05G09
 125599288.368 7  23900748.789    97869645.82144  23900760.1054         42.800  
        28.5004 
 107237966.515 8  20406709.914    83562062.61447  20406713.7664         53.000  
        46.3004 
 122718306.937 7  23352512.359    95624694.32044  23352519.3984         43.700  
        27.5004 
 129397783.283 6  24623579.289   100829473.45343  24623588.1294         37.100  
        21.3004 
 110415810.858 8  21011434.281    86038327.01347  21011443.9144         51.500  
        45.1004 
 123822493.259 7  23562620.031    96485033.73444  23562628.0784         44.100  
        29.0004 
 131382558.429 6  25001291.695   102376020.92543  25001302.9614         36.200  
        20.1004 
 112263369.244 8  21363005.945    87477977.36846  21363011.7814         50.800  
        41.6004 
 119662836.251 7  22771099.445    93243846.48245  22771107.5204         44.200  
        34.1004 
 15 12 31  1 28  0.0000000  0  8G30G02G13G29G06G07G05G09
 125523944.130 7  23886412.141    97810936.06044  23886422.8794         43.100  
        27.5004 
 107200934.714 8  20399663.320    83533206.65347  20399666.7234         53.000  
        46.1004 
 122611288.740 7  23332147.258    95541303.53744  23332154.4884         42.600  
        26.9004 
 129308424.221 6  24606575.977   100759842.97543  24606583.4614         38.400  
        22.0004 
 110460529.598 8  21019944.180    86073172.73747  21019953.1884         51.800  
        44.5004 
 123780644.071 7  23554656.539    96452423.97444  23554664.7854         44.500  
        29.4004 
 112224285.645 8  21355568.531    87447522.60447  21355574.4614         50.800  
        42.0004 
 119750313.957 7  22787745.484    93312010.87945  22787754.0704         43.600  
        34.9004 
 15 12 31  1 28 30.0000000  0  8G30G02G13G29G06G07G05G09
 125448739.017 7  23872099.844    97752334.67844  23872110.9494         42.700  
        27.2004 
 107164235.091 8  20392679.734    83504609.52647  20392682.7384         52.700  
        46.1004 
 122504459.909 7  23311818.211    95458060.27944  23311825.8054         43.600  
        28.3004 
 129219365.583 6  24589628.117   100690446.57043  24589635.6334         38.100  
        21.1004 
 110505627.119 8  21028525.758    86108313.62247  21028534.9654         51.500  
        45.3004 
 123739170.904 7  23546764.336    96420107.23644  23546772.8054         43.600  
        29.8004 
 112185425.506 8  21348173.203    87417241.96947  21348179.7704         51.600  
        42.1004 
 119838068.102 7  22804444.461    93380390.68645  22804453.4924         44.400  
        34.1004 
 15 12 31  1 29  0.0000000  0  8G30G02G13G29G06G07G05G09
 125373676.459 7  23857816.242    97693844.39044  23857827.6684         42.200  
        26.7004 
 107127870.791 8  20385759.453    83476273.68647  20385763.2504         53.200  
        46.1004 
 122397823.075 7  23291526.141    95374966.64544  23291533.3014         44.300  
        28.5004 
 129130610.384 6  24572738.805   100621286.66043  24572746.5084         38.400  
        22.5004 
 110551103.890 8  21037179.828    86143750.02247  21037188.6524         52.100  
        44.2004 
 123698076.702 7  23538944.414    96388085.80244  23538952.3954         42.500  
        29.9004 
 112146788.544 8  21340820.961    87387135.24647  21340827.4224         49.800  
        42.2004 
 119926096.385 7  22821195.797    93448984.11145  22821205.1604         44.200  
        34.7004 
 15 12 31  1 29 30.0000000  0  8G30G02G13G29G06G07G05G09
 125298759.400 7  23843560.023    97635467.47444  23843569.9494         42.600  
        27.1004 
 107091843.601 8  20378903.805    83448200.52947  20378907.3204         52.800  
        46.3004 
 122291380.635 7  23271271.492    95292024.46544  23271278.3714         44.100  
        28.5004 
 129042161.110 6  24555908.711   100552365.15343  24555915.1174         38.700  
        22.3004 
 110596959.882 8  21045905.688    86179481.92547  21045915.6484         51.000  
        44.3004 
 123657363.627 7  23531197.141    96356361.33445  23531205.5164         43.900  
        30.0004 
 112108374.361 8  21333511.172    87357202.11846  21333517.4774         51.500  
        41.9004 
 120014396.271 7  22837998.633    93517789.17245  22838007.5594         44.500  
        34.2004 
 15 12 31  1 30  0.0000000  0  8G30G02G13G29G06G07G05G09
 125223990.465 7  23829332.352    97577205.96944  23829342.6334         42.800  
        29.6004 
 107056154.578 8  20372112.453    83420390.87447  20372115.9574         52.400  
        46.3004 
 122185134.452 7  23251053.523    95209235.19844  23251059.9454         44.100  
        28.6004 
 128954020.635 6  24539134.633   100483684.24843  24539142.1094         36.700  
        21.3004 
 110643194.661 8  21054704.227    86215508.97847  21054713.6134         52.200  
        44.7004 
 123617033.579 7  23523522.242    96324935.32245  23523530.9384         44.600  
        31.2004 
 112070182.505 8  21326243.055    87327442.22846  21326249.4884         50.800  
        41.8004 
 120102964.644 7  22854852.461    93586803.44145  22854861.4654         45.900  
        34.7004 
 15 12 31  1 30 30.0000000  0  8G30G02G13G29G06G07G05G09
 125149373.141 7  23815132.844    97519062.60644  23815144.0234         42.200  
        28.6004 
 107020806.424 8  20365386.109    83392846.83147  20365389.4964         51.300  
        46.6004 
 122079087.378 7  23230873.219    95126601.10444  23230880.2074         44.500  
        29.1004 
 128866190.844 6  24522422.383   100415245.41443  24522429.0354         39.000  
        21.1004 
 110689808.708 8  21063574.891    86251831.56647  21063583.6954         50.700  
        44.6004 
 123577089.277 7  23515921.805    96293809.92444  23515929.2234         44.900  
        29.9004 
 112032213.158 8  21319017.922    87297855.72447  21319024.2664         50.000  
        42.1004 
 120191799.318 7  22871757.422    93656025.23145  22871766.5904         45.200  
        33.6004 
 15 12 31  1 31  0.0000000  0  8G30G02G13G29G06G07G05G09
 125074910.416 7  23800963.938    97461039.68444  23800974.1954         42.600  
        28.6004 
 106985801.062 8  20358724.820    83365569.90047  20358728.2074         50.800  
        46.4004 
 121973241.707 7  23210731.477    95044123.94744  23210738.3364         44.500  
        29.0004 
 128778675.078 6  24505767.523   100347051.30843  24505774.8444         38.300  
        20.1004 
 110736801.941 8  21072517.281    86288449.63647  21072526.4384         51.600  
        44.8004 
 123537532.770 7  23508393.375    96262986.69144  23508401.4064         44.400  
        29.7004 
 111994465.609 8  21311835.008    87268442.05546  21311841.8284         49.000  
        41.8004 
 120280897.772 7  22888712.781    93725452.55945  22888721.3054         44.500  
        34.0004 
 15 12 31  1 31 30.0000000  0  8G30G02G13G29G06G07G05G09
 125000605.019 6  23786822.945    97403139.34544  23786833.6484         41.300  
        28.0004 
 106951139.973 8  20352128.922    83338561.23447  20352132.3444         50.400  
        47.3004 
 121867599.433 7  23190628.398    94961805.24644  23190635.0204         43.800  
        28.2004 
 128691475.820 6  24489174.594   100279103.84343  24489181.5394         38.400  
        22.2004 
 110784174.102 8  21081532.063    86325362.95747  21081541.0554         51.900  
        45.0004 
 123498365.837 7  23500940.555    96232467.02144  23500948.3954         44.900  
        29.9004 
 111956939.820 8  21304693.844    87239201.19047  21304700.5594         49.800  
        42.3004 
 120370257.047 7  22905716.719    93795083.11345  22905726.4264         43.900  
        34.3004 
 15 12 31  1 32  0.0000000  0  8G30G02G13G29G06G07G05G09
 124926460.363 7  23772713.422    97345364.25644  23772724.0784         42.400  
        28.2004 
 106916825.673 8  20345598.961    83311822.78947  20345602.7814         50.300  
        46.3004 
 121762163.525 7  23170564.250    94879647.36844  23170571.7194         44.300  
        29.2004 
 128604595.321 6  24472641.984   100211404.71643  24472648.4924         40.100  
        22.0004 
 110831925.504 8  21090618.500    86362571.80147  21090628.0164         51.300  
        44.3004 
 123459591.537 7  23493562.633    96202253.30545  23493569.9804         44.400  
        30.4004 
 111919635.322 8  21297595.328    87210132.74947  21297601.8834         50.700  
        42.1004 
 120459874.933 7  22922770.711    93864915.19245  22922780.0984         43.300  
        34.8004 
 15 12 31  1 32 30.0000000  0  9G20G30G02G13G29G06G07G05G09
 131530060.039 5  25029340.438   102490994.00342  25029347.6374         35.000  
        16.3004 
 124852479.214 6  23758635.766    97287716.57644  23758647.2344         41.400  
        28.9004 
 106882859.198 8  20339135.586    83285355.37247  20339138.9734         50.500  
        46.5004 
 121656935.933 7  23150540.039    94797651.81744  23150547.0234         44.600  
        29.4004 
 128518036.113 6  24456169.648   100143955.93243  24456177.5394         39.300  
        21.8004 
 110880055.800 8  21099777.617    86400075.87147  21099787.0944         51.500  
        44.4004 
 123421211.153 7  23486258.563    96172346.53245  23486266.5434         43.400  
        30.2004 
 111882551.719 8  21290538.594    87181236.43447  21290544.7774         50.000  
        42.0004 
 120549748.571 7  22939873.570    93934946.55945  22939882.5554         43.500  
        34.4004 
 15 12 31  1 33  0.0000000  0  9G20G30G02G13G29G06G07G05G09
 131449368.287 5  25013982.367   102428117.37742  25013992.5664         32.400  
        14.8004 
 124778664.610 6  23744589.703    97230198.67044  23744600.7974         41.800  
        29.1004 
 106849242.973 8  20332738.477    83259160.88447  20332741.7894         50.600  
        46.8004 
 121551918.868 7  23130556.391    94715820.31444  23130563.3094         44.900  
        29.7004 
 128431801.158 6  24439760.344   100076759.85343  24439767.7384         40.600  
        23.2004 
 110928565.005 8  21109008.531    86437875.20547  21109018.1334         51.100  
        45.0004 
 123383227.392 7  23479030.680    96142748.83444  23479037.7584         43.200  
        29.9004 
 111845689.015 8  21283523.625    87152512.25847  21283530.0044         49.800  
        42.3004 
 120639875.410 7  22957023.727    94005175.20545  22957032.7344         43.300  
        33.5004 
 15 12 31  1 33 30.0000000  0  9G20G30G02G13G29G06G07G05G09
 131368724.650 5  24998639.664   102365278.12342  24998646.8164         35.200  
        15.6004 
 124705019.617 7  23730575.086    97172812.91544  23730586.6054         42.000  
        28.5004 
 106815978.884 8  20326408.586    83233240.78847  20326412.2704         51.600  
        46.7004 
 121447114.690 7  23110612.391    94634154.71044  23110620.3204         45.000  
        29.6004 
 128345892.739 6  24423412.789   100009818.21543  24423419.5234         40.100  
        22.3004 
 110977453.030 8  21118311.570    86475969.72247  21118321.2504         51.300  
        44.2004 
 123345642.492 7  23471877.945    96113461.91844  23471885.5704         44.300  
        29.3004 
 111809046.613 8  21276551.023    87123959.74747  21276557.6414         50.800  
        42.0004 
 120730252.898 7  22974222.313    94075599.15445  22974231.0314         43.300  
        33.3004 
 15 12 31  1 34  0.0000000  0  9G20G30G02G13G29G06G07G05G09
 131288129.145 5  24983303.047   102302476.38142  24983309.5394         35.000  
        16.3004 
 124631547.495 7  23716593.953    97115561.86245  23716605.4494         42.300  
        30.2004 
 106783069.202 8  20320146.344    83207596.84247  20320149.4104         52.000  
        46.8004 
 121342526.168 7  23090710.211    94552657.14745  23090717.3404         45.600  
        30.3004 
 128260313.475 6  24407127.531    99943133.03044  24407135.1174         40.800  
        24.1004 
 111026720.025 8  21127687.227    86514359.52547  21127696.4574         51.000  
        44.0004 
 123308458.316 7  23464802.273    96084487.29744  23464810.0084         43.700  
        29.6004 
 111772624.171 8  21269619.898    87095578.62947  21269626.3754         49.600  
        42.1004 
 120820878.586 7  22991468.016    94146216.53645  22991476.4804         43.200  
        33.4004 
 15 12 31  1 34 30.0000000  0  9G20G30G02G13G29G06G07G05G09
 131207581.721 5  24967975.984   102239712.13742  24967981.7504         35.700  
        16.3004 
 124558251.016 7  23702646.688    97058447.65944  23702657.3324         43.700  
        28.7004 
 106750515.256 8  20313951.305    83182230.10047  20313954.8594         50.800  
        46.9004 
 121238155.291 7  23070848.719    94471329.16244  23070856.3364         46.300  
        29.4004 
 128175065.880 6  24390904.258    99876706.31543  24390912.4024         40.000  
        22.5004 
 111076365.612 8  21137134.320    86553044.35647  21137143.6454         51.200  
        44.4004 
 123271677.069 7  23457803.656    96055826.60545  23457810.0514         45.500  
        30.0004 
 111736421.735 8  21262730.523    87067368.93147  21262737.1174         48.700  
        42.2004 
 120911749.687 7  23008759.648    94217025.13345  23008769.0824         43.400  
        33.9004 
 15 12 31  1 35  0.0000000  0  9G20G30G02G13G29G06G07G05G09
 131127082.763 5  24952656.008   102176985.66542  24952663.7974         35.800  
        17.4004 
 124485133.525 7  23688732.258    97001472.93144  23688743.3094         43.600  
        28.1004 
 106718319.451 8  20307824.594    83157142.43047  20307828.0904         52.300  
        47.0004 
 121134004.695 7  23051030.234    94390172.83945  23051037.2234         46.900  
        30.4004 
 128090152.281 6  24374746.234    99810539.85243  24374753.7814         39.500  
        22.5004 
 111126390.060 8  21146653.570    86592024.38747  21146663.0164         51.000  
        43.7004 
 123235300.868 7  23450881.375    96027481.58244  23450888.1094         44.600  
        29.0004 
 111700439.045 8  21255883.578    87039330.47346  21255889.5704         49.500  
        41.4004 
 121002863.917 7  23026098.367    94288023.17345  23026107.1094         43.000  
        32.8004 
 15 12 31  1 35 30.0000000  0  9G20G30G02G13G29G06G07G05G09
 131046632.142 6  24937347.883   102114296.80442  24937354.9884         37.500  
        17.8004 
 124412197.844 7  23674852.695    96944639.86944  23674863.9264         42.600  
        28.6004 
 106686483.496 8  20301766.805    83132335.16347  20301769.9844         52.100  
        47.0004 
 121030076.130 7  23031252.664    94309189.53445  23031260.9734         46.300  
        30.2004 
 128005575.778 6  24358651.602    99744636.07243  24358659.5554         39.400  
        21.8004 
 111176792.932 8  21156244.938    86631299.31347  21156254.5204         51.100  
        44.0004 
 123199331.894 7  23444036.211    95999453.85744  23444044.1294         43.400  
        28.7004 
 111664675.438 8  21249077.969    87011462.72546  21249084.2584         48.700  
        41.7004 
 121094218.490 7  23043482.789    94359208.50445  23043490.8014         43.000  
        32.8004 
 15 12 31  1 36  0.0000000  0  9G20G30G02G13G29G06G07G05G09
 130966229.828 6  24922047.852   102051645.59042  24922055.0164         38.100  
        17.8004 
 124339447.152 7  23661009.195    96887950.97344  23661019.6054         43.500  
        27.0004 
 106655009.493 8  20295777.477    83107809.93847  20295780.8984         51.000  
        47.1004 
 120926372.517 7  23011519.203    94228381.51745  23011525.8164         47.000  
        30.2004 
 127921338.260 6  24342621.695    99678996.42243  24342629.4224         39.500  
        21.7004 
 111227574.347 8  21165908.344    86670869.19847  21165917.6804         51.400  
        43.8004 
 123163772.293 7  23437269.414    95971745.10744  23437276.4264         43.400  
        29.6004 
 111629130.885 8  21242313.820    86983765.66847  21242319.7584         48.700  
        42.3004 
 121185810.975 7  23060912.461    94430579.21345  23060921.2074         43.300  
        32.6004 
 15 12 31  1 36 30.0000000  0  9G20G30G02G13G29G06G07G05G09
 130885875.541 6  24906757.211   101989031.79842  24906764.6604         38.000  
        17.8004 
 124266884.239 7  23647200.805    96831408.40144  23647211.7504         42.700  
        28.4004 
 106623898.949 8  20289857.164    83083567.93147  20289860.7274         50.900  
        46.9004 
 120822895.927 7  22991827.758    94147750.38644  22991835.0744         46.300  
        29.8004 
 127837442.698 6  24326657.000    99613623.23643  24326664.7504         38.600  
        22.6004 
 111278733.899 8  21175643.961    86710733.73947  21175653.0824         51.000  
        43.5004 
 123128623.783 7  23430580.805    95944356.70244  23430588.4614         43.200  
        29.3004 
 111593804.998 8  21235591.516    86956238.99847  21235597.8834         48.800  
        42.0004 
 121277638.535 7  23078386.344    94502133.12345  23078395.1604         42.400  
        32.3004 
 15 12 31  1 37  0.0000000  0  9G20G30G02G13G29G06G07G05G09
 130805569.300 6  24891476.398   101926455.44343  24891483.1174         37.300  
        19.0004 
 124194512.197 7  23633429.078    96775014.57444  23633439.9844         43.200  
        27.4004 
 106593153.929 8  20284006.781    83059610.75547  20284010.3204         51.800  
        47.2004 
 120719648.448 7  22972181.055    94067297.80245  22972187.6214         46.800  
        31.2004 
 127753891.456 6  24310757.492    99548518.33543  24310765.0314         38.800  
        22.8004 
 111330271.433 8  21185451.227    86750892.81747  21185460.4884         50.000  
        44.3004 
 123093888.772 7  23423970.328    95917290.52544  23423978.4414         43.300  
        29.8004 
 111558697.529 8  21228911.070    86928882.53147  21228917.4924         48.900  
        42.4004 
 121369698.705 7  23095905.289    94573868.27045  23095914.2544         43.400  
        32.3004 
 15 12 31  1 37 30.0000000  0  9G20G30G02G13G29G06G07G05G09
 130725311.949 6  24876202.578   101863917.17142  24876210.2274         37.100  
        17.8004 
 124122334.252 7  23619693.813    96718772.01544  23619705.3404         42.600  
        28.8004 
 106562776.268 8  20278225.773    83035939.82947  20278229.7074         50.900  
        47.3004 
 120616632.714 7  22952577.406    93987025.78045  22952584.4534         46.600  
        30.3004 
 127670687.059 6  24294925.133    99483683.75143  24294932.5164         40.500  
        21.8004 
 111382187.029 8  21195330.320    86791346.47447  21195339.6954         51.200  
        43.3004 
 123059569.116 7  23417440.422    95890547.98644  23417447.3094         43.000  
        29.9004 
 111523808.133 8  21222271.750    86901695.98947  21222278.3634         49.000  
        42.2004 
 121461989.118 7  23113467.477    94645782.83845  23113476.3634         43.400  
        31.9004 
 15 12 31  1 38  0.0000000  0  9G20G30G02G13G29G06G07G05G09
 130645103.097 5  24860939.711   101801416.66342  24860947.1604         35.400  
        16.9004 
 124050353.469 7  23605997.211    96662683.07744  23606007.4734         44.500  
        28.7004 
 106532768.029 8  20272515.898    83012556.76047  20272519.4734         51.100  
        47.3004 
 120513850.783 7  22933019.188    93906935.96745  22933025.8954         47.200  
        31.4004 
 127587832.046 6  24279158.195    99419121.37543  24279165.2814         41.400  
        23.4004 
 111434480.518 8  21205281.359    86832094.60647  21205290.5864         50.700  
        44.1004 
 123025667.068 7  23410988.102    95864130.87644  23410996.1804         42.700  
        28.5004 
 111489136.798 8  21215673.859    86874679.36847  21215680.3204         48.900  
        42.0004 
 121554507.247 7  23131072.633    94717874.84445  23131082.0394         42.800  
        32.2004 
 15 12 31  1 38 30.0000000  0  9G20G30G02G13G29G06G07G05G09
 130564942.320 6  24845686.039   101738953.55042  24845692.4414         38.400  
        17.4004 
 123978572.478 7  23592337.492    96606749.83945  23592348.4534         43.800  
        30.0004 
 106503130.638 8  20266875.945    82989462.67847  20266879.4104         51.100  
        47.5004 
 120411305.153 7  22913505.266    93827030.25845  22913512.2584         47.200  
        31.4004 
 127505329.090 6  24263457.758    99354833.34243  24263465.6094         40.300  
        22.9004 
 111487151.344 8  21215304.500    86873136.75947  21215313.9224         50.400  
        44.1004 
 122992184.144 7  23404617.125    95838040.31645  23404624.6254         43.200  
        30.4004 
 111454682.585 8  21209117.664    86847831.92147  21209123.6294         49.700  
        42.2004 
 121647250.142 7  23148721.313    94790141.99345  23148730.2424         42.600  
        32.1004 
 15 12 31  1 39  0.0000000  0  9G20G30G02G13G29G06G07G05G09
 130484830.249 6  24830441.625   101676528.49042  24830447.3054         38.200  
        16.9004 
 123906994.683 7  23578716.438    96550974.94944  23578726.9844         43.600  
        28.2004 
 106473866.471 8  20261307.328    82966659.42147  20261310.9534         50.800  
        47.6004 
 120308997.926 7  22894036.688    93747310.32845  22894043.7034         46.800  
        31.0004 
 127423180.417 6  24247825.789    99290821.38943  24247833.6524         40.400  
        22.5004 
 111540199.671 8  21225398.977    86914473.06747  21225408.6454         49.300  
        43.3004 
 122959122.680 7  23398325.570    95812278.15545  23398333.3364         43.400  
        30.7004 
 111420445.685 8  21202602.391    86821153.81847  21202608.8444         49.000  
        42.2004 
 121740215.626 7  23166411.766    94862582.61645  23166421.0274         42.700  
        31.5004 
 15 12 31  1 39 30.0000000  0  9G20G30G02G13G29G06G07G05G09
 130404766.989 6  24815205.820   101614141.48842  24815212.5434         37.400  
        17.4004 
 123835623.265 7  23565134.547    96495360.84244  23565145.3594         42.900  
        28.0004 
 106444977.456 8  20255809.781    82944148.49047  20255813.7074         51.900  
        47.6004 
 120206931.495 7  22874613.773    93667778.02645  22874621.2114         47.300  
        31.4004 
 127341388.723 6  24232261.273    99227087.58443  24232268.9104         41.800  
        22.9004 
 111593625.434 8  21235565.578    86956103.47447  21235575.2584         49.200  
        43.2004 
 122926484.706 7  23392114.727    95786845.96645  23392122.7664         44.300  
        30.5004 
 111386426.117 8  21196129.211    86794645.05347  21196135.2384         49.000  
        42.4004 
 121833401.288 7  23184144.500    94935194.79845  23184153.4844         43.200  
        32.3004 
 15 12 31  1 40  0.0000000  0  9G20G30G02G13G29G06G07G05G09
 130324752.230 6  24799979.578   101551792.20243  24799985.7034         38.100  
        18.3004 
 123764460.685 7  23551593.445    96439909.49544  23551604.0354         44.100  
        27.9004 
 106416464.738 8  20250383.859    82921930.77047  20250387.3484         53.000  
        47.6004 
 120105108.037 7  22855237.797    93588435.06045  22855244.3014         47.300  
        31.5004 
 127259956.058 6  24216765.734    99163633.57443  24216773.0944         41.400  
        23.9004 
 111647427.868 8  21245804.305    86998027.39747  21245813.2304         48.900  
        43.4004 
 122894272.037 7  23385984.508    95761745.20345  23385992.9384         43.600  
        30.0004 
 111352623.122 8  21189696.305    86768305.05247  21189702.3634         48.900  
        42.2004 
 121926804.053 7  23201918.477    95007976.12745  23201927.3324         42.700  
        31.3004 
 15 12 31  1 40 30.0000000  0  9G20G30G02G13G29G06G07G05G09
 130244785.972 6  24784761.883   101489480.74342  24784768.8674         39.200  
        16.9004 
 123693510.247 7  23538091.086    96384623.44844  23538102.6884         43.600  
        28.9004 
 106388330.364 8  20245030.227    82900007.86847  20245033.7664         53.000  
        47.8004 
 120003529.857 7  22835907.422    93509283.21845  22835915.1334         46.700  
        31.2004 
 127178885.420 6  24201337.188    99100461.64344  24201345.9734         41.400  
        26.1004 
 111701606.947 8  21256114.203    87040244.81147  21256123.6764         49.000  
        43.5004 
 122862486.675 7  23379935.922    95736977.39945  23379944.7194         43.900  
        31.1004 
 111319036.414 8  21183304.734    86742133.58247  21183311.5204         49.400  
        42.2004 
 122020421.604 7  23219733.727    95080924.86845  23219742.2304         42.500  
        31.1004 
 15 12 31  1 41  0.0000000  0  9G20G30G02G13G29G06G07G05G09
 130164868.381 6  24769555.500   101427207.31542  24769561.4384         39.400  
        17.4004 
 123622774.936 7  23524631.102    96329505.04444  23524642.1254         44.300  
        29.6004 
 106360576.672 8  20239748.695    82878381.60047  20239752.3914         51.900  
        47.6004 
 119902199.240 7  22816624.859    93430324.26445  22816632.7704         46.700  
        31.1004 
 127098179.270 6  24185980.133    99037573.73744  24185987.7114         41.100  
        24.3004 
 111756162.511 8  21266495.922    87082755.58847  21266505.2544         49.600  
        43.2004 
 122831130.722 7  23373969.695    95712544.18444  23373977.2344         43.600  
        29.8004 
 111285665.773 8  21176954.648    86716130.47747  21176961.1564         50.100  
        42.3004 
 122114251.455 7  23237588.445    95154039.02145  23237597.7384         42.200  
        32.2004 
 15 12 31  1 41 30.0000000  0  9G20G30G02G13G29G06G07G05G09
 130084999.634 6  24754356.547   101364971.80642  24754362.2774         38.300  
        16.9004 
 123552257.691 7  23511212.500    96274556.53344  23511223.3364         44.700  
        29.6004 
 106333205.143 8  20234540.305    82857053.13147  20234543.5434         51.200  
        47.6004 
 119801118.271 7  22797390.641    93351559.87045  22797397.3754         46.800  
        31.8004 
 127017839.770 6  24170691.453    98974971.55144  24170699.5124         41.500  
        24.4004 
 111811094.150 8  21276948.750    87125559.41747  21276958.5944         48.700  
        43.0004 
 122800205.684 7  23368084.875    95688446.79345  23368092.0784         43.900  
        31.3004 
 111252510.833 8  21170645.469    86690295.44747  21170651.5434         49.700  
        42.1004 
 122208290.935 7  23255483.070    95227316.50345  23255493.1414         42.600  
        30.9004 
 15 12 31  1 42  0.0000000  0  9G20G30G02G13G29G06G07G05G09
 130005179.916 6  24739167.289   101302774.61142  24739173.7114         37.400  
        17.4004 
 123481961.586 7  23497835.109    96219780.35544  23497845.8324         43.800  
        28.8004 
 106306217.561 8  20229404.453    82836023.84347  20229408.2234         52.200  
        47.6004 
 119700289.403 7  22778203.203    93272991.90145  22778210.5864         47.300  
        32.3004 
 126937869.232 6  24155474.313    98912656.84143  24155481.7584         41.300  
        23.2004 
 111866401.660 8  21287473.734    87168656.12447  21287483.1054         49.100  
        43.3004 
 122769713.682 7  23362282.172    95664686.80045  23362289.7344         43.700  
        30.7004 
 111219571.584 8  21164377.563    86664628.48447  21164383.8444         50.300  
        42.5004 
 122302537.585 7  23273418.242    95300755.41445  23273427.4144         43.100  
        30.9004 
 15 12 31  1 42 30.0000000  0  9G20G30G02G13G29G06G07G05G09
 129925409.081 6  24723986.203   101240615.49342  24723994.6524         37.300  
        17.4004 
 123411889.846 7  23484501.195    96165179.00144  23484512.0084         44.600  
        28.9004 
 106279616.162 8  20224342.742    82815295.47547  20224346.2304         53.300  
        47.8004 
 119599715.123 7  22759064.781    93194622.32145  22759071.5744         47.500  
        33.3004 
 126858270.142 6  24140326.094    98850631.59344  24140334.6414         41.300  
        24.7004 
 111922084.966 8  21298069.852    87212045.65847  21298079.4574         48.300  
        43.3004 
 122739656.786 7  23356562.266    95641265.86345  23356570.5784         43.800  
        30.9004 
 111186847.858 8  21158150.484    86639129.46447  21158156.5204         49.200  
        42.7004 
 122396989.146 7  23291391.789    95374354.00545  23291400.8984         43.700  
        31.7004 
 15 12 31  1 43  0.0000000  0  9G20G30G02G13G29G06G07G05G09
 129845686.966 6  24708816.453   101178494.42442  24708823.8794         37.400  
        17.4004 
 123342045.223 7  23471210.383    96110754.61345  23471220.8484         45.500  
        30.0004 
 106253402.245 8  20219354.156    82794869.03647  20219357.8094         53.100  
        47.6004 
 119499397.267 7  22739974.719    93116452.55145  22739981.7034         47.300  
        32.5004 
 126779045.471 7  24125250.758    98788898.09244  24125258.7664         42.200  
        25.8004 
 111978143.481 8  21308737.484    87255727.56247  21308747.2034         49.300  
        42.7004 
 122710036.562 7  23350926.203    95618185.21245  23350933.8874         45.000  
        31.0004 
 111154338.769 8  21151963.977    86613797.68747  21151970.5824         48.800  
        42.5004 
 122491642.741 7  23309404.031    95448110.02145  23309413.2854         43.200  
        30.5004 
 15 12 31  1 43 30.0000000  0  9G20G30G02G13G29G06G07G05G09
 129766013.661 6  24693655.875   101116411.33843  24693663.6844         39.400  
        19.3004 
 123272430.932 7  23457962.875    96056509.71345  23457974.0784         45.100  
        31.4004 
 106227577.970 8  20214440.188    82774746.22447  20214443.7304         51.900  
        47.8004 
 119399338.218 7  22720934.367    93038484.44145  22720940.9264         47.200  
        31.6004 
 126700197.195 6  24110246.195    98727457.87844  24110254.2814         41.100  
        25.6004 
 112034577.116 8  21319476.500    87299701.77347  21319485.9454         50.200  
        42.6004 
 122680855.011 7  23345372.695    95595446.39745  23345380.7074         43.400  
        30.2004 
 111122044.796 8  21145818.938    86588633.54147  21145825.1054         48.800  
        42.6004 
 122586496.145 7  23327454.195    95522021.76445  23327462.9144         43.800  
        30.9004 
 15 12 31  1 44  0.0000000  0  9G20G30G02G13G29G06G07G05G09
 129686389.280 6  24678503.086   101054366.30243  24678510.7814         39.700  
        19.3004 
 123203049.787 7  23444760.164    96002446.49045  23444771.3554         44.900  
        30.2004 
 106202144.973 8  20209600.305    82754928.30147  20209603.7664         52.900  
        47.7004 
 119299540.108 7  22701942.578    92960719.68045  22701950.4414         47.100  
        31.9004 
 126621727.630 6  24095314.648    98666312.77844  24095322.2344         41.900  
        25.8004 
 112091385.355 8  21330286.484    87343967.88247  21330296.3594         49.000  
        43.1004 
 122652114.149 7  23339903.430    95573050.99445  23339910.9614         45.100  
        30.9004 
 111089965.217 8  21139714.141    86563636.45047  21139720.6414         48.900  
        43.0004 
 122681546.639 7  23345541.859    95596087.05645  23345550.3914         43.700  
        30.2004 
 15 12 31  1 44 30.0000000  0  9G20G30G02G13G29G06G07G05G09
 129606813.730 6  24663360.289   100992359.35243  24663367.2344         39.400  
        18.3004 
 123133904.816 7  23431602.047    95948567.30145  23431612.9534         43.900  
        30.3004 
 106177104.845 8  20204835.320    82735416.50947  20204838.5824         51.600  
        47.8004 
 119200005.309 7  22683002.023    92883160.09545  22683009.7424         47.800  
        33.7004 
 126543639.646 6  24080454.930    98605465.03544  24080463.1294         41.800  
        25.6004 
 112148567.866 8  21341168.063    87388525.62847  21341177.8204         49.300  
        42.5004 
 122623815.243 7  23334518.453    95550999.94545  23334525.8954         43.700  
        31.2004 
 111058099.551 8  21133650.625    86538806.03647  21133656.6454         49.200  
        42.8004 
 122776791.692 7  23363666.492    95670303.97245  23363675.4384         43.700  
        31.5004 
 15 12 31  1 45  0.0000000  0  9G20G30G02G13G29G06G07G05G09
 129527287.198 6  24648227.492   100930390.58143  24648233.9414         39.900  
        19.6004 
 123064998.945 7  23418489.805    95894874.43945  23418501.1994         43.800  
        30.5004 
 106152459.566 8  20200145.195    82716212.39548  20200149.0394         52.400  
        48.3004 
 119100735.893 7  22664111.875    92805807.30845  22664119.4024         47.600  
        32.3004 
 126465935.353 6  24065668.000    98544916.26044  24065675.5664         41.400  
        26.4004 
 112206124.235 8  21352120.945    87433374.70547  21352130.6844         48.700  
        42.3004 
 122595960.151 7  23329217.836    95529294.73645  23329225.6334         44.100  
        30.8004 
 111026447.662 8  21127627.453    86514142.20947  21127633.7274         49.200  
        42.7004 
 122872228.782 7  23381827.148    95744670.52044  23381835.9964         43.400  
        29.8004 
 15 12 31  1 45 30.0000000  0  9G20G30G02G13G29G06G07G05G09
 129447809.966 6  24633102.867   100868460.24643  24633109.5984         39.100  
        19.3004 
 122996335.464 7  23405423.906    95841370.46545  23405434.6564         44.700  
        31.2004 
 106128211.274 8  20195531.164    82697317.62347  20195534.5164         53.700  
        47.9004 
 119001734.258 7  22645272.617    92728663.17945  22645280.1524         47.800  
        33.5004 
 126388617.239 7  24050954.484    98484668.38243  24050961.9184         42.400  
        23.8004 
 112264054.369 8  21363144.891    87478515.01947  21363154.0904         48.900  
        43.0004 
 122568551.211 7  23324001.711    95507937.17845  23324009.0824         43.600  
        30.2004 
 110995009.550 8  21121645.070    86489644.94747  21121651.2464         50.500  
        42.8004 
 122967855.714 7  23400024.570    95819184.99045  23400033.4264         44.200  
        30.2004 
 15 12 31  1 46  0.0000000  0  9G20G30G02G13G29G06G07G05G09
 129368381.810 6  24617988.164   100806568.17443  24617994.9924         38.700  
        19.6004 
 122927917.224 7  23392403.406    95788057.58645  23392415.0594         44.200  
        30.5004 
 106104361.423 8  20190992.766    82678733.32347  20190996.3834         52.900  
        47.9004 
 118903002.615 7  22626483.836    92651729.43545  22626491.5784         47.100  
        32.6004 
 126311687.389 6  24036316.359    98424723.07144  24036323.4144         41.500  
        26.5004 
 112322357.794 8  21374239.766    87523946.20847  21374249.1134         48.700  
        43.3004 
 122541590.067 7  23318871.422    95486928.54345  23318878.8244         44.100  
        30.9004 
 110963784.938 8  21115703.211    86465314.07047  21115709.4224         49.100  
        43.0004 
 123063669.837 7  23418257.320    95893845.35044  23418266.4614         43.400  
        29.9004 
 15 12 31  1 46 30.0000000  0  9G20G30G02G13G29G06G07G05G09
 129289002.651 6  24602882.469   100744714.28443  24602890.8834         38.100  
        19.0004 
 122859747.152 7  23379432.000    95734938.09545  23379442.0594         45.200  
        31.4004 
 106080911.697 8  20186530.141    82660460.80547  20186533.6414         53.100  
        47.8004 
 118804543.070 7  22607748.266    92575007.73545  22607755.5824         47.300  
        33.2004 
 126235148.520 6  24021751.094    98365082.40444  24021758.5394         41.900  
        26.0004 
 112381034.019 8  21385404.977    87569667.89247  21385414.5004         49.300  
        42.7004 
 122515078.003 7  23313827.414    95466269.86645  23313833.7154         44.500  
        31.4004 
 110932773.438 8  21109801.805    86441149.24947  21109808.4964         48.800  
        42.9004 
 123159668.545 7  23436525.289    95968649.53645  23436533.9694         43.000  
        30.2004 
 15 12 31  1 47  0.0000000  0  9G20G30G02G13G29G06G07G05G09
 129209672.633 6  24587787.406   100682898.66843  24587795.5044         37.500  
        19.3004 
 122791828.094 7  23366507.305    95682014.19345  23366517.7154         44.100  
        30.7004 
 106057863.714 8  20182144.281    82642501.33247  20182147.7234         52.200  
        47.8004 
 118706357.886 7  22589063.992    92498499.81245  22589071.3914         47.100  
        32.1004 
 126159002.717 6  24007260.813    98305748.03744  24007268.1644         41.300  
        24.7004 
 112440082.527 8  21396641.805    87615679.66847  21396651.9344         49.500  
        42.6004 
 122489016.843 7  23308867.180    95445962.54145  23308874.8954         43.800  
        31.3004 
 110901974.472 8  21103940.852    86417150.03647  21103947.1484         49.400  
        42.7004 
 123255849.317 7  23454827.703    96043595.59244  23454836.9694         42.400  
        29.6004 
 15 12 31  1 47 30.0000000  0  9G20G30G02G13G29G06G07G05G09
 129130391.852 6  24572699.938   100621121.46843  24572708.2384         37.900  
        20.1004 
 122724163.129 7  23353630.953    95629288.32545  23353641.6764         43.000  
        31.2004 
 106035219.467 8  20177835.180    82624856.45648  20177839.2584         53.300  
        48.0004 
 118608448.807 7  22570432.516    92422207.03645  22570439.4804         46.000  
        33.0004 
 126083252.309 7  23992845.461    98246721.77744  23992853.4734         42.200  
        24.7004 
 112499502.981 8  21407949.078    87661981.26647  21407958.9844         48.900  
        42.5004 
 122463408.352 7  23303993.328    95426007.93445  23304001.4614         44.100  
        30.0004 
 110871387.924 8  21098120.602    86393316.33947  21098127.1764         50.700  
        42.8004 
 123352209.700 7  23473164.664    96118681.58744  23473173.5704         42.000  
        29.5004 
 15 12 31  1 48  0.0000000  0  9G20G30G02G13G29G06G07G05G09
 129051160.462 6  24557623.219   100559382.73343  24557630.4654         38.900  
        18.6004 
 122656755.499 7  23340803.688    95576762.97945  23340815.0984         44.100  
        30.2004 
 106012980.748 9  20173603.430    82607527.58348  20173607.4614         54.300  
        48.0004 
 118510818.580 7  22551853.914    92346131.55545  22551861.4964         45.800  
        33.4004 
 126007899.869 7  23978507.523    98188005.60844  23978514.3984         43.700  
        26.9004 
 112559295.252 8  21419327.148    87708572.58547  21419337.3984         49.700  
        42.5004 
 122438254.575 7  23299206.703    95406407.64145  23299215.2664         44.500  
        31.0004 
 110841013.959 8  21092340.539    86369648.30747  21092347.3914         50.600  
        42.9004 
 123448747.530 7  23491534.742    96193905.87244  23491544.1024         42.000  
        29.4004 
 15 12 31  1 48 30.0000000  0  9G20G30G02G13G29G06G07G05G09
 128971978.420 6  24542556.086   100497682.44543  24542562.7234         37.800  
        18.6004 
 122589607.830 7  23328026.039    95524440.22945  23328037.0044         43.100  
        31.2004 
 105991149.087 8  20169449.320    82590515.88748  20169453.0744         53.500  
        48.2004 
 118413468.915 7  22533329.109    92270274.70145  22533336.6724         46.600  
        33.4004 
 125932947.800 7  23964243.398    98129601.44344  23964250.5124         42.300  
        26.2004 
 112619458.533 8  21430776.109    87755453.02647  21430785.8524         50.000  
        42.4004 
 122413556.656 7  23294507.203    95387162.56245  23294514.5634         46.000  
        30.7004 
 110810851.963 8  21086600.781    86346145.45347  21086607.2034         51.000  
        43.0004 
 123545459.962 7  23509939.008    96269266.19745  23509947.7464         43.200  
        30.7004 
 15 12 31  1 49  0.0000000  0  9G20G30G02G13G29G06G07G05G09
 128892845.654 6  24527497.469   100436020.56943  24527503.5984         38.000  
        20.1004 
 122522723.249 7  23315298.117    95472322.45245  23315308.6804         42.800  
        31.7004 
 105969726.528 8  20165372.344    82573822.97548  20165375.7934         53.700  
        48.1004 
 118316402.534 7  22514857.883    92194638.57445  22514865.2034         45.500  
        33.1004 
 125858398.182 7  23950057.906    98071510.84844  23950064.6954         43.300  
        27.4004 
 112679992.580 8  21442295.297    87802622.35547  21442304.8484         49.500  
        42.1004 
 122389316.685 7  23289894.172    95368274.32245  23289901.8444         46.500  
        30.0004 
 110780901.695 8  21080901.492    86322807.57947  21080908.1994         51.300  
        43.0004 
 123642344.703 7  23528376.070    96344760.82545  23528384.6024         43.200  
        30.1004 
 15 12 31  1 49 30.0000000  0  9G20G30G02G13G29G06G07G05G09
 128813762.355 6  24512448.914   100374397.27243  24512454.5554         37.400  
        19.0004 
 122456104.746 7  23302620.656    95420412.04545  23302631.9804         43.300  
        30.8004 
 105948714.520 8  20161374.063    82557449.97647  20161377.8014         53.300  
        47.9004 
 118219621.228 7  22496441.469    92119224.58845  22496448.2304         45.600  
        33.8004 
 125784253.671 7  23935948.516    98013735.92944  23935955.7034         43.100  
        28.0004 
 112740896.925 8  21453885.078    87850080.24647  21453894.6644         49.300  
        42.1004 
 122365536.099 7  23285369.383    95349744.04745  23285376.7304         45.900  
        30.4004 
 110751162.954 8  21075242.781    86299634.53047  21075249.1054         51.000  
        43.3004 
 123739399.418 6  23546844.094    96420387.87744  23546853.2544         41.500  
        29.6004 
 15 12 31  1 50  0.0000000  0  9G20G30G02G13G29G06G07G05G09
 128734728.590 6  24497408.500   100312812.52343  24497415.3404         36.600  
        18.3004 
 122389755.194 7  23289993.938    95368711.19745  23290005.1804         42.800  
        30.7004 
 105928114.708 8  20157453.977    82541398.16848  20157457.1804         52.600  
        48.0004 
 118123127.130 7  22478078.883    92044034.39945  22478085.6844         45.900  
        33.3004 
 125710516.141 7  23921917.664    97956278.12144  23921924.2194         43.700  
        27.8004 
 112802170.959 8  21465545.563    87897826.20347  21465554.5554         50.000  
        42.1004 
 122342216.348 7  23280931.758    95331572.85945  23280938.8874         44.100  
        30.8004 
 110721635.345 8  21069623.930    86276626.00547  21069629.9574         51.300  
        42.9004 
 123836621.458 7  23565344.961    96496145.28844  23565354.6484         42.500  
        29.9004 
 15 12 31  1 50 30.0000000  0  9G20G30G02G13G29G06G07G05G09
 128655744.111 6  24482377.898   100251266.22043  24482384.7934         36.400  
        19.0004 
 122323677.415 7  23277420.922    95317222.11844  23277431.0394         44.600  
        29.8004 
 105907928.604 8  20153612.859    82525668.71948  20153615.9144         53.400  
        48.3004 
 118026922.472 7  22459772.172    91969069.73645  22459778.6844         46.000  
        33.2004 
 125637188.115 7  23907962.188    97899139.43244  23907970.8634         43.000  
        27.8004 
 112863814.130 8  21477275.563    87945859.79847  21477285.4104         49.700  
        42.5004 
 122319358.897 7  23276582.133    95313761.91545  23276588.9924         46.400  
        30.4004 
 110692318.631 8  21064045.117    86253781.80747  21064051.6094         51.300  
        43.2004 
 123934008.323 7  23583877.758    96572031.14644  23583886.4344         42.500  
        29.3004 
 15 12 31  1 51  0.0000000  0  9G20G30G02G13G29G06G07G05G09
 128576809.202 6  24467357.055   100189758.51343  24467364.3014         37.500  
        18.6004 
 122257874.539 7  23264898.352    95265947.26445  23264909.3524         43.200  
        30.7004 
 105888158.471 8  20149850.531    82510263.41048  20149853.8594         51.000  
        48.1004 
 117931009.296 7  22441520.508    91894332.21345  22441527.2774         46.100  
        33.8004 
 125564272.106 6  23894086.711    97842321.79744  23894094.3444         41.800  
        26.7004 
 112925826.116 8  21489076.273    87994180.77747  21489086.0044         49.200  
        42.2004 
 122296965.697 7  23272320.641    95296312.73745  23272327.2814         43.400  
        30.2004 
 110663212.866 8  21058506.211    86231101.99947  21058513.0634         50.100  
        43.2004 
 124031557.737 6  23602440.469    96648043.67644  23602449.4884         41.400  
        29.8004 
 15 12 31  1 51 30.0000000  0  9G20G30G02G13G29G06G07G05G09
 128497923.931 6  24452345.969   100128289.50443  24452353.6054         36.900  
        19.3004 
 122192349.531 7  23252429.641    95214888.91945  23252439.8324         44.600  
        31.1004 
 105868806.087 8  20146167.961    82495183.61748  20146171.2384         53.600  
        48.0004 
 117835389.898 7  22423324.438    91819823.60545  22423331.7304         46.800  
        34.6004 
 125491770.115 7  23880290.250    97785826.72544  23880298.1484         42.800  
        26.8004 
 112988206.402 8  21500946.711    88042788.74646  21500956.4264         48.100  
        41.4004 
 122275038.445 7  23268148.234    95279226.63045  23268155.0234         46.800  
        31.0004 
 110634317.808 8  21053007.383    86208586.38047  21053013.9024         50.500  
        43.6004 
 124129267.320 6  23621033.797    96724180.99944  23621043.0984         41.700  
        29.6004 
 15 12 31  1 52  0.0000000  0  9G20G30G02G13G29G06G07G05G09
 128419088.032 6  24437343.781   100066858.89443  24437351.0704         39.000  
        18.3004 
 122127105.248 7  23240013.680    95164049.32245  23240023.8674         45.400  
        30.9004 
 105849872.133 8  20142565.125    82480429.86148  20142568.5204         53.900  
        48.2004 
 117740066.219 8  22405185.102    91745545.42245  22405192.1454         48.000  
        34.4004 
 125419684.261 7  23866572.938    97729655.95544  23866580.6174         43.100  
        27.4004 
 113050954.407 8  21512887.055    88091683.25747  21512896.8484         49.100  
        42.1004 
 122253578.613 7  23264064.055    95262504.76045  23264072.0164         47.100  
        31.4004 
 110605633.126 8  21047549.219    86186234.68947  21047555.4414         51.600  
        43.6004 
 124227134.569 6  23639656.992    96800441.15344  23639666.4304         41.000  
        28.4004 
 15 12 31  1 52 30.0000000  0  9G20G30G02G13G29G06G07G05G09
 128340301.913 6  24422351.695   100005467.09843  24422358.0554         38.100  
        19.3004 
 122062144.481 7  23227653.313    95113430.66345  23227663.1804         44.900  
        31.1004 
 105831358.945 8  20139042.281    82466003.97148  20139045.3204         51.800  
        48.1004 
 117645040.444 8  22387101.563    91671499.35945  22387109.3134         48.300  
        34.6004 
 125348016.674 7  23852934.414    97673811.10544  23852942.2154         42.700  
        26.8004 
 113114069.484 7  21524897.469    88140863.79146  21524907.4024         47.900  
        41.7004 
 122232587.448 7  23260069.844    95246148.08245  23260077.2704         44.100  
        31.2004 
 110577158.209 8  21042130.953    86164046.45147  21042137.1914         49.900  
        43.7004 
 124325156.882 6  23658310.266    96876822.15744  23658319.5664         41.600  
        28.6004 
 15 12 31  1 53  0.0000000  0  9G20G30G02G13G29G06G07G05G09
 128261565.485 6  24407368.648    99944114.02343  24407375.2934         38.300  
        19.3004 
 121997470.413 7  23215344.281    95063035.36345  23215354.8674         45.100  
        31.4004 
 105813268.084 8  20135599.555    82451907.17148  20135603.2304         53.400  
        48.4004 
 117550314.844 7  22369076.375    91597687.20845  22369083.7304         47.600  
        34.7004 
 125276770.050 7  23839377.539    97618294.28944  23839384.9614         44.500  
        27.1004 
 113177551.250 8  21536977.852    88190330.05646  21536987.6054         48.700  
        41.5004 
 122212066.404 7  23256164.141    95230157.73245  23256172.4884         46.000  
        32.0004 
 110548893.097 8  21036751.570    86142021.69947  21036758.5314         50.900  
        43.7004 
 124423332.111 7  23676992.555    96953322.31244  23677001.3244         42.200  
        28.3004 
 15 12 31  1 53 30.0000000  0  9G20G30G02G13G29G06G07G05G09
 128182878.718 6  24392394.750    99882799.65843  24392401.3594         38.300  
        19.6004 
 121933085.721 7  23203092.898    95012865.56345  23203103.4494         43.900  
        30.8004 
 105795601.260 8  20132237.703    82438140.79348  20132241.0124         51.600  
        48.2004 
 117455891.228 7  22351107.961    91524110.36845  22351115.6844         46.800  
        35.0004 
 125205946.478 7  23825900.133    97563107.09544  23825907.9414         43.800  
        27.6004 
 113241399.008 8  21549127.883    88240081.52246  21549137.1804         48.100  
        41.5004 
 122192017.321 7  23252349.375    95214535.14545  23252357.1454         44.200  
        31.7004 
 110520837.320 8  21031413.070    86120160.06147  21031419.3284         50.200  
        43.9004 
 124521657.729 7  23695703.289    97029939.64744  23695712.5514         42.600  
        27.6004 
 15 12 31  1 54  0.0000000  0  9G20G30G02G13G29G06G07G05G09
 128104241.867 6  24377430.758    99821524.17043  24377438.0004         37.100  
        19.6004 
 121868993.449 7  23190896.508    94962923.61845  23190907.2504         43.900  
        32.1004 
 105778360.116 8  20128956.844    82424706.10848  20128960.5124         53.700  
        48.2004 
 117361771.804 7  22333197.625    91450770.55245  22333204.9614         46.800  
        33.9004 
 125135548.106 7  23812503.875    97508251.24944  23812511.5124         43.600  
        28.5004 
 113305612.265 8  21561347.359    88290117.79046  21561356.7734         48.500  
        41.7004 
 122172441.376 7  23248623.930    95199281.23645  23248631.4804         45.800  
        32.3004 
 110492991.074 8  21026113.789    86098461.69947  21026120.1914         50.000  
        43.6004 
 124620131.323 7  23714441.727    97106672.27344  23714451.1134         42.600  
        29.1004 
 15 12 31  1 54 30.0000000  0  9G20G30G02G13G29G06G07G05G09
 128025654.898 6  24362475.664    99760287.57943  24362483.7814         37.300  
        20.1004 
 121805196.380 7  23178755.953    94913211.68345  23178766.4494         44.100  
        31.7004 
 105761545.808 9  20125757.227    82411604.03148  20125761.0084         54.300  
        48.4004 
 117267958.664 7  22315346.102    91377669.39845  22315353.1954         46.900  
        34.8004 
 125065577.147 7  23799188.867    97453728.43344  23799196.2344         43.400  
        27.8004 
 113370190.332 8  21573636.125    88340438.32746  21573645.8014         48.300  
        41.4004 
 122153339.846 7  23244988.938    95184397.02045  23244996.5084         46.100  
        31.1004 
 110465353.719 8  21020854.438    86076926.10447  21020860.7584         50.700  
        43.3004 
 124718750.502 7  23733208.727    97183518.34644  23733218.2584         42.600  
        28.1004 
 15 12 31  1 55  0.0000000  0  9G20G30G02G13G29G06G07G05G09
 127947117.912 6  24347531.047    99699089.89643  24347538.1524         37.900  
        20.4004 
 121741697.646 7  23166672.305    94863732.21345  23166683.3324         43.200  
        32.3004 
 105745160.746 9  20122639.336    82398836.43148  20122643.0704         54.300  
        48.4004 
 117174453.872 7  22297552.531    91304808.51845  22297559.4064         46.300  
        34.6004 
 124996035.974 7  23785955.180    97399540.53744  23785962.7734         42.700  
        27.0004 
 113435132.786 8  21585994.266    88391042.80346  21586004.0864         49.300  
        41.3004 
 122134714.511 7  23241445.016    95169883.83845  23241451.7934         45.400  
        31.4004 
 110437925.384 8  21015635.039    86055553.40447  21015641.8014         50.500  
        44.1004 
 124817513.017 6  23752002.938    97260476.10344  23752011.8754         41.200  
        27.7004 
 15 12 31  1 55 30.0000000  0  9G20G30G02G13G29G06G07G05G09
 127868630.824 6  24332596.445    99637931.12443  24332602.9964         38.900  
        20.4004 
 121678499.840 7  23154645.922    94814487.23645  23154657.0904         43.400  
        32.3004 
 105729205.822 9  20119603.039    82386403.99748  20119606.3014         54.600  
        48.5004 
 117081259.398 7  22279818.172    91232189.44245  22279825.3914         46.200  
        35.1004 
 124926926.456 7  23772803.969    97345688.96444  23772811.3874         42.600  
        27.3004 
 113500438.756 7  21598421.188    88441930.53146  21598431.1994         47.500  
        41.9004 
 122116566.679 7  23237990.820    95155742.73045  23237998.5704         46.500  
        31.8004 
 110410705.707 8  21010455.461    86034343.27347  21010462.1094         50.000  
        44.1004 
 124916416.257 7  23770823.242    97337543.52844  23770831.5634         42.100  
        27.5004 
 15 12 31  1 56  0.0000000  0  9G20G30G02G13G29G06G07G05G09
 127790194.124 6  24317669.750    99576811.61443  24317676.3714         38.100  
        19.6004 
 121615606.195 7  23142678.453    94765479.24145  23142688.2384         43.000  
        31.6004 
 105713683.232 8  20116649.266    82374308.44648  20116652.9304         53.000  
        48.2004 
 116988377.617 7  22262143.492    91159814.04145  22262150.7814         47.200  
        34.8004 
 124858250.878 6  23759735.672    97292175.55044  23759742.9924         41.300  
        28.1004 
 113566107.972 8  21610917.922    88493101.32246  21610927.6644         49.400  
        41.8004 
 122098897.806 7  23234629.000    95141974.84545  23234636.0554         46.500  
        31.6004 
 110383694.587 8  21005315.563    86013295.66947  21005322.1564         49.900  
        43.1004 
 125015458.155 7  23789670.844    97414718.99344  23789679.5274         42.400  
        27.9004 
 15 12 31  1 56 30.0000000  0  9G20G30G02G13G29G06G07G05G09
 127711807.393 6  24302752.953    99515731.05743  24302759.9224         37.600  
        19.9004 
 121553019.399 7  23130768.695    94716710.33045  23130778.5904         44.100  
        31.2004 
 105698594.160 8  20113777.953    82362550.71648  20113781.4224         53.300  
        48.3004 
 116895810.278 7  22244528.133    91087683.65545  22244535.5904         46.100  
        35.5004 
 124790010.958 6  23746750.102    97239001.58744  23746757.8794         41.000  
        28.8004 
 113632139.560 7  21623483.375    88544554.46046  21623493.0904         47.600  
        41.1004 
 122081709.084 7  23231357.992    95128581.10545  23231365.2074         46.400  
        32.8004 
 110356891.552 8  21000214.891    85992410.19947  21000221.6134         49.900  
        43.5004 
 125114636.218 7  23808543.625    97492000.57144  23808552.7734         42.300  
        27.5004 
 15 12 31  1 57  0.0000000  0  9G20G30G02G13G29G06G07G05G09
 127633470.661 6  24287845.484    99454689.44543  24287852.8984         38.900  
        19.9004 
 121490742.101 7  23118917.602    94668182.58445  23118927.6994         43.800  
        32.1004 
 105683939.882 8  20110989.305    82351131.77048  20110992.8714         53.000  
        48.4004 
 116803559.273 7  22226973.422    91015799.77445  22226981.0554         46.800  
        35.4004 
 124722209.328 6  23733847.602    97186169.19644  23733855.6054         40.500  
        27.1004 
 113698532.631 7  21636117.414    88596289.28146  21636127.5274         47.400  
        40.9004 
 122065001.862 7  23228178.656    95115562.55545  23228186.1214         46.700  
        32.1004 
 110330296.244 8  20995154.000    85971686.60547  20995160.4344         49.500  
        43.8004 
 125213947.781 7  23827441.508    97569386.17344  23827451.3404         42.100  
        27.2004 
 15 12 31  1 57 30.0000000  0  9G20G30G02G13G29G06G07G05G09
 127555184.185 6  24272948.313    99393687.00043  24272955.9184         39.400  
        19.3004 
 121428777.290 7  23107125.391    94619898.32245  23107136.3364         43.700  
        30.7004 
 105669722.213 9  20108283.742    82340053.04548  20108287.0234         54.100  
        48.5004 
 116711626.854 8  22209479.430    90944164.13345  22209486.8984         48.100  
        35.4004 
 124654848.385 6  23721028.695    97133680.16244  23721037.4494         41.200  
        28.2004 
 113765286.708 7  21648820.758    88648305.41246  21648830.3524         47.800  
        40.4004 
 122048777.476 7  23225091.281    95102920.22545  23225099.2154         45.000  
        32.1004 
 110303908.371 8  20990132.641    85951124.64647  20990139.3204         50.800  
        44.1004 
 125313390.685 6  23846365.578    97646874.09944  23846374.6374         41.400  
        27.0004 
 15 12 31  1 58  0.0000000  0  9G20G30G02G13G29G06G07G05G09
 127476947.773 6  24258060.578    99332723.62443  24258067.4454         39.800  
        20.1004 
 121367128.040 7  23095394.422    94571859.96145  23095404.5234         44.200  
        30.9004 
 105655943.005 8  20105661.695    82329315.98348  20105665.4264         53.300  
        48.5004 
 116620014.958 8  22192046.250    90872778.27545  22192054.1374         48.700  
        35.6004 
 124587929.935 7  23708295.555    97081535.94344  23708302.6454         42.100  
        28.6004 
 113832401.239 7  21661592.070    88700602.41546  21661601.8244         47.800  
        40.5004 
 122033037.188 7  23222095.609    95090655.13645  23222103.3244         44.300  
        32.1004 
 110277727.924 8  20985150.703    85930724.31747  20985156.9694         51.200  
        43.8004 
 125412962.703 7  23865313.133    97724462.67544  23865322.0314         42.100  
        26.9004 
 15 12 31  1 58 30.0000000  0  9G20G30G02G13G29G06G07G05G09
 127398761.713 6  24243181.703    99271799.42643  24243188.6484         39.000  
        20.1004 
 121305796.868 7  23083723.523    94524069.44245  23083733.8524         45.400  
        32.3004 
 105642603.343 9  20103123.414    82318921.42548  20103126.6414         54.700  
        48.8004 
 116528725.633 8  22174674.656    90801643.75846  22174681.3874         48.100  
        36.3004 
 124521455.962 7  23695646.547    97029738.04244  23695652.9144         43.600  
        28.3004 
 113899875.252 8  21674431.961    88753179.52846  21674441.3284         48.700  
        40.6004 
 122017782.314 7  23219193.023    95078768.25345  23219200.2464         47.400  
        32.3004 
 110251754.822 8  20980208.055    85910485.54747  20980214.4844         51.400  
        44.0004 
 125512661.271 6  23884285.273    97802149.84944  23884294.7774         41.400  
        27.2004 
 15 12 31  1 59  0.0000000  0  9G20G30G02G13G29G06G07G05G09
 127320626.163 6  24228314.039    99210914.63543  24228320.2544         39.800  
        20.1004 
 121244786.797 7  23072113.344    94476529.15345  23072124.0554         45.700  
        31.9004 
 105629704.918 9  20100668.906    82308870.68748  20100672.7154         54.500  
        48.7004 
 116437760.854 8  22157364.516    90730762.13646  22157371.8874         48.500  
        36.0004 
 124455428.396 7  23683081.594    96978288.00544  23683088.8324         43.200  
        29.0004 
 113967708.203 8  21687340.406    88806036.32646  21687350.3524         48.600  
        40.6004 
 122003013.964 7  23216382.320    95067260.49145  23216389.8134         46.400  
        32.3004 
 110225988.713 8  20975304.883    85890408.08447  20975311.5434         51.100  
        43.7004 
 125612484.151 7  23903280.469    97879933.85244  23903290.1054         42.000  
        28.6004 
 15 12 31  1 59 30.0000000  0  9G20G30G02G13G29G06G07G05G09
 127242541.264 6  24213453.523    99150069.29543  24213461.7384         38.900  
        21.1004 
 121184100.857 7  23060565.445    94429241.44245  23060576.2114         45.400  
        32.4004 
 105617249.450 9  20098298.813    82299165.10948  20098302.2774         54.600  
        48.9004 
 116347122.784 8  22140116.719    90660135.10445  22140123.5704         49.000  
        35.8004 
 124389849.240 7  23670601.266    96927187.40444  23670609.6484         42.600  
        28.4004 
 114035899.550 8  21700317.016    88859172.41146  21700326.7664         49.000  
        40.5004 
 121988733.722 7  23213665.008    95056133.05345  23213672.2624         47.600  
        32.8004 
 110200429.618 8  20970441.266    85870491.92647  20970447.7274         51.900  
        43.8004 
 125712429.207 6  23922299.539    97957813.08944  23922308.9344         40.900  
        26.4004 
 15 12 31  2  0  0.0000000  0 10G20G30G02G13G29G15G06G07G05G09
 127164506.649 6  24198604.563    99089263.14743  24198612.1914         39.700  
        19.9004 
 121123741.527 7  23049079.828    94382208.25645  23049089.8874         45.400  
        33.0004 
 105605237.937 9  20096012.773    82289805.47448  20096016.9344         54.200  
        48.8004 
 116256813.259 8  22122931.008    90589764.07646  22122938.5234         49.100  
        36.7004 
 124324721.275 6  23658207.500    96876438.37144  23658215.5514         41.800  
        28.8004 
 132152370.692 5  25147760.008   102975916.25343  25147770.7154         35.400  
        18.3004 
 114104448.181 7  21713361.125    88912586.87946  21713371.0044         47.900  
        40.4004 
 121974942.497 7  23211040.461    95045386.66945  23211047.4064         44.100  
        32.4004 
 110175076.790 8  20965616.820    85850736.48247  20965623.0514         51.700  
        44.3004 
 125812493.802 6  23941341.531    98035785.45444  23941350.7424         41.800  
        25.9004 
 15 12 31  2  0 30.0000000  0 10G20G30G02G13G29G15G06G07G05G09
 127086522.805 6  24183765.609    99028496.55143  24183772.6254         40.300  
        21.8004 
 121063712.157 7  23037656.359    94335432.19345  23037666.1254         45.500  
        32.6004 
 105593672.557 8  20093812.070    82280793.47448  20093815.8444         53.000  
        48.8004 
 116166834.479 8  22105808.766    90519650.77346  22105815.9734         49.200  
        36.2004 
 124260046.104 6  23645900.563    96826042.15044  23645908.6484         41.400  
        28.7004 
 132042589.639 5  25126870.672   102890372.59943  25126880.0784         35.700  
        19.3004 
 114173353.896 8  21726473.266    88966279.60746  21726483.2464         49.300  
        40.4004 
 121961641.820 7  23208509.664    95035022.53745  23208516.8554         44.300  
        32.5004 
 110149930.751 8  20960831.711    85831142.17647  20960837.4774         51.300  
        43.8004 
 125912676.022 6  23960405.445    98113849.48544  23960414.7384         41.400  
        27.0004 
 15 12 31  2  1  0.0000000  0 10G20G30G02G13G29G15G06G07G05G09
 127008589.526 6  24168935.211    98967769.38943  24168941.5594         39.600  
        20.9004 
 121004015.200 7  23026295.422    94288915.18245  23026306.5394         45.500  
        32.8004 
 105582554.591 9  20091696.305    82272130.12248  20091699.8554         54.500  
        48.5004 
 116077188.128 8  22088749.695    90449796.51245  22088756.5704         48.600  
        35.8004 
 124195826.017 6  23633680.039    96776000.54944  23633687.7234         41.000  
        28.3004 
 131932903.009 6  25105998.336   102804902.45343  25106007.5824         39.400  
        19.6004 
 114242615.662 8  21739653.492    89020249.78446  21739663.0664         48.600  
        40.5004 
 121948832.790 7  23206072.281    95025041.52545  23206078.6914         46.900  
        31.9004 
 110124990.943 8  20956085.656    85811708.57047  20956092.1414         51.200  
        44.3004 
 126012973.392 6  23979491.844    98192003.24144  23979500.7854         40.400  
        26.5004 
 15 12 31  2  1 30.0000000  0 10G20G30G02G13G29G15G06G07G05G09
 126930706.927 6  24154115.234    98907081.68343  24154121.7464         38.700  
        21.8004 
 120944653.388 7  23014999.523    94242659.33945  23015011.0434         45.100  
        32.9004 
 105571885.051 8  20089666.250    82263816.19448  20089669.3054         52.000  
        48.5004 
 115987876.128 8  22071753.977    90380202.77946  22071761.2384         49.300  
        36.3004 
 124132062.765 6  23621546.258    96726314.90544  23621553.7584         41.700  
        29.4004 
 131823312.537 6  25085143.750   102719507.22443  25085153.8714         38.600  
        21.1004 
 114312232.559 8  21752901.117    89074496.65546  21752911.2774         49.100  
        40.2004 
 121936516.317 7  23203727.984    95015444.31945  23203735.9064         44.300  
        32.3004 
 110100257.084 8  20951379.367    85792435.45047  20951385.6954         51.000  
        43.8004 
 126113383.473 6  23998599.180    98270244.80844  23998607.8914         41.600  
        25.0004 
 15 12 31  2  2  0.0000000  0 10G20G30G02G13G29G15G06G07G05G09
 126852875.240 6  24139303.125    98846433.66943  24139310.3054         39.200  
        22.0004 
 120885629.491 7  23003767.859    94196666.80145  23003778.1564         44.900  
        32.5004 
 105561665.475 8  20087721.367    82255852.87848  20087724.9694         53.900  
        48.3004 
 115898900.482 8  22054822.070    90310871.14846  22054830.0554         48.100  
        36.7004 
 124068758.227 6  23609500.148    96676986.73344  23609507.5744         41.700  
        29.0004 
 131713820.095 6  25064307.422   102634188.35943  25064318.5824         39.000  
        19.9004 
 114382203.872 8  21766216.078    89129019.72846  21766225.3914         48.800  
        40.5004 
 121924693.706 7  23201478.258    95006231.95745  23201485.5634         44.800  
        32.3004 
 110075728.985 8  20946711.531    85773322.65247  20946717.7504         51.400  
        43.7004 
 126213904.023 7  24017728.188    98348572.47944  24017736.5664         42.300  
        26.9004 
 15 12 31  2  2 30.0000000  0 10G20G30G02G13G29G15G06G07G05G09
 126775094.326 6  24124500.797    98785825.19043  24124509.2544         38.100  
        20.9004 
 120826946.208 7  22992600.898    94150939.67045  22992611.0434         44.600  
        32.5004 
 105551897.285 9  20085862.617    82248241.30148  20085865.8444         54.500  
        48.5004 
 115810262.790 8  22037955.164    90241802.86046  22037962.0864         48.100  
        36.8004 
 124005914.313 7  23597540.586    96628017.46044  23597548.7894         42.000  
        28.5004 
 131604427.133 6  25043491.219   102548946.99843  25043501.4534         39.300  
        20.9004 
 114452528.725 8  21779598.305    89183818.27346  21779609.1334         48.800  
        40.0004 
 121913365.991 7  23199322.797    94997405.22445  23199330.2034         47.300  
        32.6004 
 110051406.502 8  20942083.156    85754370.07647  20942089.6024         51.700  
        44.1004 
 126314532.622 7  24036877.125    98426984.33144  24036886.2034         42.600  
        27.4004 
 15 12 31  2  3  0.0000000  0 10G20G30G02G13G29G15G06G07G05G09
 126697364.233 6  24109710.172    98725256.30243  24109717.6604         39.500  
        21.3004 
 120768606.470 7  22981499.117    94105480.25745  22981509.3874         44.400  
        32.6004 
 105542582.033 8  20084090.039    82240982.66748  20084093.4614         51.400  
        48.8004 
 115721965.415 8  22021152.727    90172999.74746  22021159.7814         48.400  
        37.0004 
 123943532.998 6  23585670.344    96579408.65844  23585677.0044         41.600  
        28.5004 
 131495135.689 6  25022692.797   102463784.73043  25022704.2664         38.300  
        20.1004 
 114523206.449 8  21793048.156    89238891.77646  21793057.9654         48.700  
        40.1004 
 121902534.300 7  23197261.695    94988965.01945  23197269.3524         45.000  
        32.3004 
 110027289.374 8  20937493.867    85735577.52647  20937499.8674         51.900  
        43.6004 
 126415267.130 7  24056046.672    98505478.69544  24056055.8714         42.300  
        27.0004 
 15 12 31  2  3 30.0000000  0 10G20G30G02G13G29G15G06G07G05G09
 126619685.119 6  24094928.727    98664727.13043  24094935.3794         40.900  
        21.7004 
 120710612.967 7  22970463.430    94060290.62645  22970474.2384         44.700  
        33.7004 
 105533721.076 9  20082403.672    82234078.02748  20082407.7194         54.200  
        48.8004 
 115634010.180 8  22004415.227    90104463.25346  22004422.2624         48.300  
        37.1004 
 123881616.568 7  23573888.281    96531162.11644  23573895.8134         43.400  
        29.7004 
 131385947.466 6  25001915.656   102378702.95243  25001925.4774         37.900  
        19.6004 
 114594236.182 8  21806564.422    89294239.57546  21806574.4924         48.900  
        39.7004 
 121892199.876 7  23195295.516    94980912.31145  23195302.0164         46.600  
        32.5004 
 110003377.490 8  20932943.563    85716944.89747  20932949.9534         51.700  
        43.8004 
 126516105.355 7  24075234.867    98584053.86944  24075244.7344         42.400  
        26.4004 
 15 12 31  2  4  0.0000000  0 10G20G30G02G13G29G15G06G07G05G09
 126542057.004 6  24080156.031    98604237.70643  24080163.4654         40.600  
        21.7004 
 120652968.357 7  22959493.609    94015372.85445  22959504.0124         45.300  
        33.1004 
 105525315.825 8  20080804.203    82227528.47448  20080808.3284         51.500  
        49.0004 
 115546398.972 8  21987743.484    90036194.82046  21987750.5864         48.000  
        37.0004 
 123820166.869 7  23562194.641    96483279.23444  23562202.2344         43.200  
        29.6004 
 131276864.415 6  24981158.484   102293703.06843  24981167.8874         39.800  
        21.1004 
 114665617.042 8  21820148.148    89349860.96546  21820158.3094         49.900  
        40.2004 
 121882363.260 7  23193423.469    94973247.49445  23193430.3204         43.900  
        32.7004 
 109979670.547 8  20928432.336    85698471.97747  20928438.6414         51.800  
        43.9004 
 126617044.883 7  24094442.992    98662708.03444  24094452.2584         42.500  
        26.2004 
 15 12 31  2  4 30.0000000  0 10G20G30G02G13G29G15G06G07G05G09
 126464480.080 6  24065394.000    98543788.17943  24065400.7894         40.400  
        21.7004 
 120595675.421 7  22948590.789    93970729.08845  22948601.2544         43.800  
        33.4004 
 105517367.599 8  20079292.109    82221335.05848  20079295.8834         51.700  
        49.0004 
 115459133.598 7  21971137.156    89968195.85246  21971144.2304         47.600  
        37.6004 
 123759185.652 7  23550589.828    96435761.42945  23550598.0594         43.600  
        30.4004 
 131167888.309 6  24960421.922   102208786.44543  24960430.3094         41.100  
        20.9004 
 114737348.151 8  21833798.148    89405755.29746  21833808.5594         49.500  
        39.7004 
 121873025.646 7  23191645.711    94965971.52145  23191652.8714         45.000  
        32.7004 
 109956168.487 8  20923959.734    85680158.69347  20923965.9574         51.200  
        44.1004 
 126718083.512 7  24113669.836    98741439.41244  24113678.7504         42.600  
        26.0004 
 15 12 31  2  5  0.0000000  0 10G20G30G02G13G29G15G06G07G05G09
 126386954.426 6  24050641.703    98483378.58343  24050648.5124         40.600  
        20.4004 
 120538736.900 7  22937755.984    93926361.48845  22937766.2344         44.200  
        33.4004 
 105509877.823 8  20077866.414    82215498.87348  20077870.3364         53.700  
        48.7004 
 115372216.059 8  21954597.523    89900467.92946  21954604.4184         48.600  
        37.2004 
 123698675.002 7  23539075.742    96388610.29944  23539082.4774         42.600  
        28.8004 
 131059020.765 6  24939703.891   102123954.43543  24939712.9964         39.000  
        21.1004 
 114809428.734 8  21847514.313    89461921.92646  21847524.1484         48.600  
        39.5004 
 121864188.439 7  23189964.344    94959085.46645  23189972.0124         44.500  
        33.6004 
 109932871.253 8  20919526.500    85662005.01447  20919532.7344         50.900  
        44.4004 
 126819218.981 6  24132915.711    98820246.26144  24132923.6054         41.800  
        26.8004 
 15 12 31  2  5 30.0000000  0 10G20G30G02G13G29G15G06G07G05G09
 126309479.925 6  24035898.172    98423008.84843  24035905.0164         40.600  
        21.3004 
 120482155.646 7  22926989.234    93882272.25945  22926999.0554         44.500  
        33.1004 
 105502847.820 8  20076529.016    82210020.96048  20076531.9494         53.300  
        48.5004 
 115285648.069 8  21938123.938    89833012.39246  21938131.1884         48.700  
        37.5004 
 123638636.697 7  23527650.555    96341827.23344  23527658.1564         43.500  
        29.4004 
 130950263.788 5  24919007.078   102039208.62743  24919017.2344         34.600  
        19.0004 
 114881858.061 8  21861297.594    89518360.32746  21861307.4844         49.100  
        39.4004 
 121855852.574 7  23188377.898    94952590.07645  23188384.4344         44.300  
        32.8004 
 109909778.538 8  20915132.117    85644010.69847  20915138.1724         51.000  
        43.8004 
 126920449.251 7  24152179.859    98899126.99244  24152188.0474         42.300  
        26.8004 
 15 12 31  2  6  0.0000000  0 10G20G30G02G13G29G15G06G07G05G09
 126232056.853 6  24021164.813    98362679.17643  24021172.2034         39.700  
        21.5004 
 120425934.222 7  22916289.844    93838463.41545  22916300.5554         44.100  
        33.5004 
 105496278.948 8  20075278.906    82204902.37848  20075282.0354         52.600  
        48.5004 
 115199431.730 8  21921717.500    89765830.85846  21921724.4804         49.500  
        37.1004 
 123579072.393 7  23516315.641    96295413.49444  23516323.1604         43.800  
        29.7004 
 130841618.770 6  24898334.109   101954550.13143  24898342.7624         37.500  
        20.4004 
 114954635.033 8  21875146.383    89575069.58946  21875156.4774         48.100  
        39.4004 
 121848018.618 7  23186887.406    94946485.78545  23186894.5044         44.100  
        32.8004 
 109886890.056 8  20910776.281    85626175.53247  20910782.9534         50.800  
        43.7004 
 127021771.825 6  24171460.219    98978079.64344  24171469.3244         40.900  
        26.4004 
 15 12 31  2  6 30.0000000  0 10G20G30G02G13G29G15G06G07G05G09
 126154685.573 6  24006441.758    98302389.86643  24006448.9574         39.700  
        22.5004 
 120370075.579 7  22905660.234    93794937.23845  22905670.6524         44.500  
        33.2004 
 105490172.930 8  20074116.781    82200144.45648  20074120.4884         51.500  
        48.6004 
 115113568.741 8  21905379.102    89698924.65846  21905385.8754         48.100  
        37.9004 
 123519984.412 7  23505071.516    96249370.92344  23505078.7774         42.000  
        28.3004 
 130733088.123 6  24877681.258   101869980.74944  24877691.0124         40.000  
        24.7004 
 115027759.142 8  21889061.938    89632049.36146  21889071.2234         48.900  
        39.4004 
 121840687.845 7  23185492.117    94940773.56145  23185498.9654         44.000  
        33.6004 
 109864205.992 8  20906459.813    85608499.65647  20906466.3054         50.900  
        44.0004 
 127123184.950 6  24190757.836    99057102.84444  24190766.8674         39.600  
        24.8004 
 15 12 31  2  7  0.0000000  0 10G20G30G02G13G29G15G06G07G05G09
 126077365.602 6  23991728.102    98242140.53543  23991735.5904         40.200  
        21.8004 
 120314581.960 7  22895100.656    93751695.48245  22895111.3834         44.300  
        33.8004 
 105484530.145 8  20073043.242    82195747.48648  20073046.9964         51.500  
        48.8004 
 115028060.688 8  21889106.336    89632295.03346  21889113.8554         48.800  
        38.0004 
 123461374.235 7  23493918.688    96203700.65544  23493925.4534         42.500  
        29.3004 
 130624673.142 6  24857051.242   101785501.48643  24857060.1214         40.400  
        22.5004 
 115101228.891 8  21903042.406    89689298.46846  21903052.8404         48.400  
        39.2004 
 121833860.649 7  23184192.688    94935453.74245  23184199.9884         44.000  
        32.8004 
 109841725.744 8  20902182.430    85590982.59347  20902188.4574         50.400  
        44.1004 
 127224685.711 6  24210073.680    99136194.38343  24210081.7974         41.700  
        23.5004 
 15 12 31  2  7 30.0000000  0 10G20G30G02G13G29G15G06G07G05G09
 126000097.038 6  23977024.938    98181931.25243  23977031.8634         40.600  
        21.7004 
 120259456.358 7  22884609.922    93708740.49945  22884621.1564         46.000  
        33.4004 
 105479352.399 9  20072057.930    82191712.88748  20072061.5664         54.100  
        48.8004 
 114942909.583 8  21872902.828    89565943.54346  21872909.9024         48.400  
        38.2004 
 123403243.986 7  23482856.609    96158404.36645  23482864.4654         43.400  
        30.0004 
 130516375.674 6  24836442.273   101701113.79843  24836451.7074         38.900  
        19.9004 
 115175043.748 8  21917089.016    89746816.47146  21917099.5204         48.500  
        39.7004 
 121827538.656 7  23182990.641    94930527.58145  23182996.7274         44.600  
        32.8004 
 109819449.471 8  20897942.797    85573624.47747  20897949.0004         50.500  
        44.0004 
 127326272.311 6  24229404.250    99215352.77744  24229413.3094         41.000  
        25.9004 
 15 12 31  2  8  0.0000000  0 10G20G30G02G13G29G15G06G07G05G09
 125922880.290 6  23962331.023    98121762.36343  23962338.1334         40.900  
        21.8004 
 120204701.293 7  22874191.055    93666074.24745  22874201.4774         44.000  
        33.6004 
 105474640.882 8  20071160.969    82188041.58048  20071164.7704         51.200  
        48.6004 
 114858117.272 8  21856767.422    89499871.63846  21856774.8954         48.200  
        38.1004 
 123345595.504 7  23471886.313    96113483.47744  23471893.9804         42.600  
        29.9004 
 130408197.428 6  24815856.914   101616819.07743  24815866.0354         37.300  
        19.9004 
 115249202.632 7  21931200.953    89804602.57246  21931211.2304         47.900  
        39.2004 
 121821722.238 7  23181883.070    94925995.36945  23181890.3404         44.000  
        33.1004 
 109797376.526 8  20893742.609    85556424.79847  20893748.9694         51.000  
        44.4004 
 127427942.400 6  24248751.844    99294576.22244  24248760.8364         40.900  
        24.5004 
 15 12 31  2  8 30.0000000  0 10G20G30G02G13G29G15G06G07G05G09
 125845715.732 6  23947646.523    98061634.13843  23947654.6524         39.900  
        22.3004 
 120150319.593 7  22863842.828    93623698.91845  22863852.6454         43.900  
        33.6004 
 105470397.207 8  20070353.586    82184734.83848  20070356.9224         53.600  
        48.4004 
 114773685.767 8  21840700.891    89434080.88746  21840707.4734         48.900  
        38.3004 
 123288430.325 7  23461008.164    96068939.21244  23461016.1214         42.300  
        29.3004 
 130300140.148 6  24795293.711   101532618.65343  24795303.8594         37.500  
        20.4004 
 115323704.751 7  21945378.211    89862656.11846  21945388.2664         47.300  
        39.0004 
 121816412.545 7  23180872.477    94921857.99145  23180879.2894         44.200  
        32.8004 
 109775507.262 8  20889580.977    85539383.83447  20889587.2464         51.000  
        43.8004 
 127529693.930 6  24268115.211    99373863.14044  24268123.4494         39.400  
        24.6004 
 15 12 31  2  9  0.0000000  0 10G20G30G02G13G29G15G06G07G05G09
 125768603.059 6  23932973.242    98001546.31843  23932979.7854         39.200  
        21.8004 
 120096313.627 7  22853564.836    93581616.37745  22853575.4344         43.900  
        33.7004 
 105466622.196 9  20069635.094    82181793.28248  20069638.6374         54.300  
        48.4004 
 114689616.502 8  21824703.063    89368572.40546  21824709.6524         48.100  
        38.3004 
 123231750.129 7  23450222.344    96024772.83844  23450229.5434         42.800  
        29.8004 
 130192205.722 6  24774755.609   101448514.04244  24774764.7704         39.000  
        25.1004 
 115398548.941 8  21959620.961    89920976.22046  21959631.6414         48.600  
        39.2004 
 121811610.276 7  23179958.789    94918116.01445  23179965.7974         44.200  
        32.4004 
 109753841.197 8  20885458.086    85522501.21047  20885464.4024         49.900  
        43.6004 
 127631524.529 6  24287492.359    99453211.64043  24287501.6334         40.800  
        23.4004 
 15 12 31  2  9 30.0000000  0 10G20G30G02G13G29G15G06G07G05G09
 125691542.387 6  23918309.000    97941499.01643  23918316.2034         40.900  
        21.8004 
 120042686.294 7  22843359.648    93539828.87545  22843370.6684         45.300  
        33.3004 
 105463317.108 8  20069006.273    82179217.89948  20069010.1134         52.500  
        48.7004 
 114605911.309 8  21808774.641    89303347.60446  21808781.4774         49.400  
        38.7004 
 123175556.789 7  23439528.344    95980985.83944  23439536.5784         42.700  
        29.2004 
 130084396.070 6  24754239.805   101364506.64044  24754249.6684         39.800  
        24.7004 
 115473734.280 7  21973927.617    89979562.14746  21973938.0664         47.700  
        38.4004 
 121807316.148 7  23179141.766    94914769.97145  23179148.7114         47.300  
        32.3004 
 109732378.459 8  20881373.750    85505777.02547  20881380.0594         50.800  
        44.1004 
 127733432.061 6  24306884.672    99532620.08243  24306893.3834         39.400  
        23.8004 
 15 12 31  2 10  0.0000000  0 10G20G30G02G13G29G15G06G07G05G09
 125614533.801 6  23903655.047    97881492.32943  23903661.8954         41.000  
        22.5004 
 119989440.064 7  22833227.445    93498338.37745  22833238.4654         44.900  
        33.3004 
 105460483.189 9  20068467.070    82177009.65248  20068470.7504         54.100  
        48.5004 
 114522572.287 8  21792915.555    89238408.14646  21792922.2664         48.400  
        38.6004 
 123119852.107 7  23428928.648    95937579.62444  23428936.9734         42.900  
        28.9004 
 129976712.509 6  24733748.547   101280597.46843  24733757.6524         40.200  
        23.4004 
 115549259.854 8  21988299.953    90038413.20046  21988310.0354         49.000  
        39.7004 
 121803530.860 7  23178421.313    94911820.44745  23178427.9304         44.700  
        32.4004 
 109711118.656 8  20877327.992    85489210.96147  20877334.3754         49.900  
        43.9004 
 127835414.387 6  24326290.906    99612086.80943  24326299.6024         39.900  
        23.3004 
 15 12 31  2 10 30.0000000  0 10G20G30G02G13G29G15G06G07G05G09
 125537577.495 6  23889010.656    97821526.36843  23889017.9884         40.400  
        23.3004 
 119936577.650 7  22823168.438    93457146.95945  22823178.3794         44.500  
        33.6004 
 105458121.760 8  20068017.375    82175169.58248  20068021.1254         53.200  
        48.6004 
 114439600.817 8  21777126.328    89173755.08946  21777133.3444         48.800  
        38.2004 
 123064637.843 7  23418421.914    95894555.55245  23418429.2544         43.200  
        30.0004 
 129869156.636 6  24713279.953   101196787.74343  24713290.3754         37.700  
        18.6004 
 115625124.725 8  22002736.977    90097528.63746  22002747.4694         48.800  
        39.1004 
 121800255.550 7  23177798.359    94909268.30345  23177804.9844         45.800  
        32.0004 
 109690061.793 8  20873320.805    85472803.03747  20873327.3834         50.700  
        44.0004 
 127937469.375 6  24345711.383    99691610.19644  24345720.0944         40.600  
        24.1004 
 15 12 31  2 11  0.0000000  0 10G20G30G02G13G29G15G06G07G05G09
 125460673.454 6  23874375.945    97761601.13743  23874383.1214         39.900  
        22.3004 
 119884101.933 7  22813182.195    93416256.86845  22813192.6214         44.700  
        34.0004 
 105456234.332 8  20067658.500    82173698.85848  20067662.1254         53.600  
        48.4004 
 114356999.009 8  21761407.938    89109390.09246  21761414.6954         49.400  
        38.6004 
 123009915.795 7  23408008.984    95851915.02144  23408016.1254         42.000  
        29.6004 
 129761730.679 6  24692837.336   101113079.28643  24692846.7504         37.300  
        18.3004 
 115701328.133 8  22017237.742    90156907.85446  22017247.6724         48.000  
        38.7004 
 121797490.848 7  23177271.875    94907114.02845  23177278.8794         44.500  
        31.6004 
 109669207.926 8  20869352.828    85456553.29547  20869358.9104         50.300  
        43.7004 
 128039595.128 6  24365144.641    99771188.69143  24365155.0514         39.100  
        23.0004 
 15 12 31  2 11 30.0000000  0 10G20G30G02G13G29G15G06G07G05G09
 125383822.106 6  23859751.484    97701716.97143  23859758.9104         40.600  
        22.6004 
 119832015.048 7  22803270.117    93375669.80945  22803280.9454         44.300  
        34.2004 
 105454821.526 8  20067389.500    82172597.97448  20067393.5554         53.800  
        48.4004 
 114274768.267 8  21745759.617    89045314.25146  21745767.1174         48.100  
        38.7004 
 122955687.381 7  23397689.344    95809659.12245  23397696.4844         43.000  
        30.1004 
 129654436.221 6  24672420.063   101029473.27943  24672429.6884         39.500  
        21.8004 
 115777868.656 8  22031803.055    90216549.78346  22031813.2424         48.400  
        38.2004 
 121795237.389 7  23176843.172    94905358.12645  23176849.3634         45.700  
        31.4004 
 109648556.739 8  20865422.938    85440461.48347  20865429.3204         49.900  
        44.5004 
 128141789.245 6  24384591.750    99850820.40344  24384601.7464         39.700  
        24.8004 
 15 12 31  2 12  0.0000000  0 10G20G30G02G13G29G15G06G07G05G09
 125307023.665 6  23845137.117    97641874.01143  23845144.1644         39.900  
        23.2004 
 119780319.695 7  22793432.836    93335387.83845  22793443.2384         43.700  
        33.2004 
 105453884.472 8  20067211.430    82171867.80748  20067215.0864         53.800  
        48.4004 
 114192910.403 8  21730182.453    88981528.96646  21730189.9774         49.100  
        38.7004 
 122901954.253 7  23387464.461    95767789.17844  23387471.6844         42.300  
        29.4004 
 129547274.804 6  24652029.180   100945970.95244  24652037.2734         40.200  
        24.1004 
 115854745.420 8  22046432.117    90276453.70246  22046442.9264         48.500  
        37.8004 
 121793495.902 7  23176511.008    94904001.16045  23176518.2624         46.200  
        31.1004 
 109628107.995 8  20861531.719    85424527.42647  20861537.8554         51.200  
        44.3004 
 128244049.517 6  24404051.891    99930503.69443  24404061.6954         38.600  
        23.2004 
 15 12 31  2 12 30.0000000  0 10G20G30G02G13G29G15G06G07G05G09
 125230277.492 6  23830532.617    97582071.80843  23830540.2894         40.200  
        23.3004 
 119729018.408 7  22783670.578    93295412.94945  22783681.4924         45.100  
        33.7004 
 105453424.586 9  20067123.695    82171509.45648  20067127.4654         55.100  
        48.4004 
 114111427.054 8  21714676.930    88918035.50246  21714684.0824         49.400  
        39.0004 
 122848718.532 7  23377333.797    95726306.82645  23377340.9884         42.900  
        30.8004 
 129440248.129 6  24631662.570   100862573.61444  24631671.4574         39.700  
        25.2004 
 115931957.301 8  22061125.367    90336618.76146  22061135.6684         48.400  
        38.1004 
 121792266.925 7  23176277.047    94903043.55845  23176284.3524         45.700  
        30.9004 
 109607861.732 8  20857679.117    85408751.13947  20857685.4414         50.700  
        45.0004 
 128346373.861 6  24423523.008   100010236.87743  24423533.7034         38.800  
        23.6004 
 15 12 31  2 13  0.0000000  0 10G20G30G02G13G29G15G06G07G05G09
 125153584.405 6  23815939.164    97522310.96343  23815945.9534         40.800  
        22.3004 
 119678113.942 7  22773984.039    93255747.27245  22773994.1214         45.000  
        33.6004 
 105453443.563 8  20067127.305    82171524.24048  20067131.1454         53.200  
        48.4004 
 114030320.092 8  21699242.484    88854835.32446  21699249.9104         48.600  
        39.5004 
 122795981.724 7  23367298.063    95685213.23045  23367305.6054         43.200  
        30.5004 
 129333358.187 6  24611321.109   100779282.75543  24611331.5434         39.200  
        20.9004 
 116009503.449 8  22075881.578    90397044.29146  22075891.6414         48.600  
        38.8004 
 121791551.534 7  23176141.141    94902486.15545  23176148.0274         43.500  
        30.8004 
 109587817.847 8  20853864.844    85393132.54747  20853871.2544         50.100  
        44.1004 
 128448760.352 6  24443006.766   100090018.50443  24443016.3914         38.100  
        22.0004 
 15 12 31  2 13 30.0000000  0 10G20G30G02G13G29G15G06G07G05G09
 125076944.529 6  23801354.453    97462591.58743  23801361.4064         40.000  
        22.5004 
 119627608.577 7  22764372.688    93216392.58145  22764382.8754         45.100  
        33.6004 
 105453941.589 8  20067222.148    82171912.31048  20067226.1764         52.200  
        48.4004 
 113949591.172 8  21683880.281    88791929.73246  21683887.3554         50.000  
        38.7004 
 122743745.148 7  23357357.406    95644509.44544  23357365.2504         42.600  
        29.6004 
 129226606.421 6  24591006.086   100696099.57743  24591016.4964         37.800  
        22.3004 
 116087382.652 7  22090701.711    90457729.33746  22090712.4454         47.400  
        38.9004 
 121791349.908 7  23176102.266    94902329.07245  23176109.7384         44.700  
        31.5004 
 109567976.172 8  20850089.133    85377671.52247  20850094.9924         51.800  
        44.1004 
 128551206.573 6  24462502.703   100169846.69943  24462511.1414         37.400  
        22.2004 
 15 12 31  2 14  0.0000000  0 10G20G30G02G13G29G15G06G07G05G09
 125000357.529 6  23786780.648    97402913.42043  23786787.7194         38.800  
        22.6004 
 119577504.784 7  22754838.594    93177350.80845  22754848.5824         45.300  
        33.7004 
 105454919.689 8  20067408.164    82172674.45648  20067411.8094         53.500  
        48.5004 
 113869241.961 8  21668590.766    88729320.01646  21668597.4224         49.500  
        39.1004 
 122692010.392 7  23347513.477    95604196.68145  23347520.9384         42.400  
        30.9004 
 129119994.479 6  24570720.102   100613025.34743  24570728.7194         39.000  
        20.9004 
 116165593.714 7  22105585.117    90518672.96146  22105595.2344         46.800  
        38.1004 
 121791662.674 7  23176162.367    94902572.82945  23176169.1884         45.100  
        31.0004 
 109548336.261 8  20846351.688    85362367.72747  20846357.6414         51.200  
        44.6004 
 128653710.616 6  24482007.867   100249719.92043  24482017.4104         37.500  
        23.2004 
 15 12 31  2 14 30.0000000  0 10G20G30G02G13G29G15G06G07G05G09
 124923823.532 6  23772216.203    97343276.56743  23772224.4264         39.200  
        23.6004 
 119527805.336 7  22745380.938    93138624.12245  22745391.2034         45.500  
        34.1004 
 105456379.355 9  20067686.242    82173811.84648  20067689.7464         54.100  
        48.4004 
 113789274.013 8  21653373.180    88667007.40246  21653380.0434         49.500  
        39.6004 
 122640779.079 7  23337764.531    95564276.20045  23337771.7774         43.500  
        31.0004 
 129013524.601 6  24550459.133   100530061.72443  24550468.8134         39.200  
        21.5004 
 116244135.904 7  22120530.523    90579874.62346  22120540.8714         46.300  
        37.7004 
 121792490.766 7  23176319.961    94903218.14145  23176326.8874         46.600  
        31.3004 
 109528898.615 8  20842652.664    85347221.52647  20842658.8834         51.700  
        44.6004 
 128756270.540 6  24501524.250   100329636.66443  24501533.7114         37.700  
        22.2004 
 15 12 31  2 15  0.0000000  0 10G20G30G02G13G29G15G06G07G05G09
 124847342.949 6  23757662.375    97283681.32743  23757669.9344         39.600  
        22.8004 
 119478512.535 7  22736000.680    93100214.28345  22736010.5434         45.800  
        34.1004 
 105458321.623 8  20068055.773    82175325.28348  20068059.8204         52.100  
        48.5004 
 113709688.825 8  21638228.586    88604993.02246  21638235.6334         49.300  
        39.6004 
 122590052.929 7  23328111.125    95524749.36945  23328118.3984         43.000  
        30.0004 
 128907197.962 6  24530225.789   100447209.74244  24530235.5234         39.600  
        24.1004 
 116323007.889 7  22135539.875    90641333.25746  22135550.5474         46.800  
        38.8004 
 121793834.650 7  23176575.492    94904265.35845  23176582.3054         45.500  
        31.9004 
 109509662.700 8  20838992.242    85332232.51947  20838998.7464         51.400  
        44.7004 
 128858884.079 6  24521050.758   100409595.19544  24521060.7734         38.100  
        24.9004 
 15 12 31  2 15 30.0000000  0 10G20G30G02G13G29G15G06G07G05G09
 124770916.023 6  23743119.398    97224127.92443  23743126.4024         39.600  
        22.3004 
 119429629.008 7  22726698.023    93062123.36845  22726708.5314         45.200  
        33.9004 
 105460748.004 8  20068517.313    82177215.95548  20068521.1884         53.300  
        48.4004 
 113630488.486 8  21623157.742    88543278.53846  21623164.3404         51.000  
        39.8004 
 122539833.424 7  23318554.938    95485617.31144  23318561.8134         43.600  
        29.7004 
 128801016.627 6  24510020.523   100364470.96544  24510030.5124         38.900  
        25.1004 
 116402208.713 7  22150611.141    90703048.13446  22150621.7304         45.800  
        38.0004 
 121795694.670 7  23176929.313    94905714.76545  23176936.3674         44.500  
        32.4004 
 109490628.505 8  20835369.961    85317400.68947  20835375.9494         51.300  
        44.4004 
 128961549.270 6  24540587.391   100489593.96643  24540596.7504         36.900  
        22.8004 
 15 12 31  2 16  0.0000000  0 10G20G30G02G13G29G15G06G07G05G09
 124694542.457 6  23728585.859    97164616.09643  23728592.9264         40.200  
        22.5004 
 119381157.093 7  22717474.094    93024353.19345  22717484.4344         45.700  
        34.6004 
 105463658.883 8  20069071.547    82179484.16248  20069075.3794         52.400  
        48.8004 
 113551674.214 8  21608159.570    88481864.87146  21608166.4454         50.700  
        39.4004 
 122490122.125 7  23309095.055    95446881.25445  23309102.3284         43.900  
        30.2004 
 128694982.191 6  24489840.977   100281846.70744  24489852.7584         37.100  
        25.4004 
 116481737.185 7  22165745.023    90765018.31046  22165755.5864         45.800  
        38.2004 
 121798071.527 7  23177382.180    94907566.91445  23177388.4344         45.000  
        31.8004 
 109471795.679 8  20831786.477    85302725.77247  20831792.4924         50.400  
        44.4004 
 129064263.970 6  24560134.016   100569631.29543  24560143.2974         38.700  
        22.5004 
 15 12 31  2 16 30.0000000  0 10G20G30G02G13G29G15G06G07G05G09
 124618222.842 6  23714062.445    97105146.30644  23714069.7464         40.500  
        24.0004 
 119333099.369 7  22708329.133    92986905.73445  22708339.6024         45.800  
        34.5004 
 105467055.516 8  20069717.820    82182130.87648  20069721.3714         53.000  
        48.4004 
 113473247.849 8  21593235.023    88420753.47346  21593241.8404         48.900  
        39.6004 
 122440920.601 7  23299732.016    95408542.42244  23299739.6414         43.400  
        29.5004 
 128589096.011 6  24469692.336   100199337.99543  24469703.6414         36.600  
        23.2004 
 116561592.235 7  22180941.258    90827242.95946  22180951.6884         45.700  
        37.7004 
 121800965.829 7  23177932.148    94909822.25545  23177939.3874         45.000  
        31.2004 
 109453164.494 8  20828241.102    85288207.97047  20828247.1914         51.000  
        44.1004 
 129167026.242 6  24579689.133   100649705.73243  24579697.5904         37.700  
        22.6004 
 15 12 31  2 17  0.0000000  0 10G20G30G02G13G29G15G06G07G05G09
 124541957.159 6  23699549.625    97045718.52343  23699556.6724         39.900  
        23.6004 
 119285458.140 7  22699263.211    92949782.80945  22699273.3014         45.000  
        34.3004 
 105470938.735 8  20070456.805    82185156.74548  20070460.2664         53.700  
        48.5004 
 113395210.758 8  21578385.484    88359945.40246  21578392.2894         49.800  
        39.8004 
 122392230.122 7  23290466.648    95370601.80345  23290474.4884         42.600  
        30.2004 
 128483360.227 6  24449572.664   100116946.39743  24449582.2344         40.500  
        23.3004 
 116641772.611 7  22196198.719    90889721.11946  22196209.2854         45.700  
        37.4004 
 121804378.230 7  23178582.117    94912481.31245  23178588.7894         46.900  
        31.5004 
 109434735.022 8  20824734.031    85273847.36947  20824740.3094         50.800  
        44.1004 
 129269833.859 6  24599251.586   100729815.51943  24599261.8834         37.000  
        22.8004 
 15 12 31  2 17 30.0000000  0 10G20G30G02G13G29G15G06G07G05G09
 124465745.324 6  23685046.547    96986332.73844  23685054.6524         40.500  
        24.6004 
 119238235.951 7  22690276.648    92912986.41345  22690286.4264         44.500  
        34.1004 
 105475309.799 8  20071288.734    82188562.75448  20071291.9614         52.800  
        48.3004 
 113317564.928 8  21563609.492    88299442.20546  21563616.3524         50.100  
        39.5004 
 122344052.413 7  23281298.492    95333060.72245  23281306.3794         43.600  
        30.5004 
 128377776.435 6  24429480.523   100034673.24043  24429490.0474         39.500  
        21.7004 
 116722277.373 7  22211518.477    90952452.01746  22211529.0234         46.300  
        38.0004 
 121808308.695 7  23179329.734    94915544.06145  23179336.2584         46.500  
        32.1004 
 109416507.009 8  20821265.180    85259643.74147  20821271.3914         51.400  
        44.5004 
 129372685.066 6  24618824.320   100809959.24843  24618833.3444         37.000  
        22.0004 
 15 12 31  2 18  0.0000000  0 10G20G30G02G13G29G15G06G07G05G09
 124389587.997 6  23670554.602    96926989.42144  23670562.2034         39.600  
        25.1004 
 119191435.133 7  22681371.117    92876518.32945  22681380.8484         45.400  
        34.2004 
 105480169.208 8  20072213.070    82192349.28948  20072216.7194         53.500  
        48.3004 
 113240311.707 8  21548908.648    88239244.94046  21548915.5984         49.500  
        40.3004 
 122296388.571 7  23272229.273    95295920.09045  23272236.2034         42.900  
        30.5004 
 128272346.066 6  24409418.742    99952519.58743  24409426.5594         40.400  
        22.3004 
 116803105.119 7  22226899.695    91015434.62346  22226909.6604         47.300  
        37.5004 
 121812757.759 7  23180176.398    94919010.90245  23180183.7814         46.000  
        31.7004 
 109398480.137 8  20817834.438    85245596.83147  20817841.2234         50.500  
        44.3004 
 129475577.531 6  24638404.953   100890135.16843  24638413.1844         38.700  
        22.0004 
 15 12 31  2 18 30.0000000  0 10G20G30G02G13G29G15G06G07G05G09
 124313485.072 6  23656073.086    96867688.46643  23656079.8484         40.400  
        23.0004 
 119145058.088 7  22672545.766    92840380.45545  22672555.6414         46.500  
        34.8004 
 105485518.475 8  20073231.000    82196517.52748  20073235.0044         53.500  
        48.3004 
 113163452.750 8  21534283.008    88179354.89446  21534289.5904         49.800  
        40.2004 
 122249240.431 7  23263257.141    95259181.28244  23263264.1454         44.900  
        29.7004 
 128167070.916 6  24389384.414    99870486.92144  24389393.2894         39.000  
        24.1004 
 116884254.812 7  22242341.281    91078668.07346  22242352.0784         47.600  
        38.1004 
 121817725.771 7  23181121.547    94922882.11945  23181128.6054         45.700  
        32.3004 
 109380654.478 8  20814442.680    85231706.72047  20814449.1914         50.500  
        44.6004 
 129578509.500 6  24657992.242   100970341.87443  24658001.4224         37.500  
        21.8004 
 15 12 31  2 19  0.0000000  0 10G20G30G02G13G29G15G06G07G05G09
 124237436.308 6  23641601.492    96808429.73744  23641608.2074         41.200  
        26.1004 
 119099107.316 7  22663800.906    92804574.74145  22663810.7894         45.300  
        34.7004 
 105491358.380 8  20074342.430    82201068.07848  20074346.2814         53.400  
        48.2004 
 113086989.484 8  21519732.773    88119773.18046  21519739.5164         50.800  
        40.7004 
 122202609.304 7  23254383.375    95222845.33845  23254390.6564         42.900  
        30.8004 
 128061952.890 6  24369381.000    99788576.77444  24369390.3714         37.300  
        24.6004 
 116965725.358 7  22257845.570    91142151.55146  22257855.9344         46.800  
        36.8004 
 121823213.734 7  23182165.789    94927158.47545  23182172.6254         45.200  
        32.9004 
 109363030.101 8  20811088.586    85217973.44047  20811095.1564         50.800  
        44.7004 
 129681478.956 6  24677586.586   101050577.73143  24677596.1524         38.100  
        22.2004 
 15 12 31  2 19 30.0000000  0 10G20G30G02G13G29G15G06G07G05G09
 124161442.354 6  23627139.789    96749213.71843  23627147.0234         41.200  
        22.9004 
 119053584.962 7  22655139.039    92769102.85245  22655148.2464         45.700  
        34.7004 
 105497689.453 8  20075547.438    82206001.35948  20075551.2344         53.800  
        48.4004 
 113010923.180 8  21505257.445    88060500.77546  21505264.2894         50.300  
        40.4004 
 122156496.388 7  23245608.305    95186913.21445  23245615.5944         42.400  
        30.6004 
 127956993.272 6  24349408.297    99706790.08844  24349418.1524         40.100  
        25.4004 
 117047515.350 7  22273409.180    91205883.94446  22273420.0354         46.800  
        37.3004 
 121829221.014 7  23183309.727    94931839.50345  23183316.2894         46.600  
        31.8004 
 109345606.602 8  20807773.414    85204396.69547  20807779.7974         50.300  
        44.6004 
 129784483.612 6  24697187.586   101130841.06043  24697196.1604         38.300  
        22.6004 
 15 12 31  2 20  0.0000000  0 10G20G30G02G13G29G15G06G07G05G09
 124085503.473 6  23612689.328    96690040.63343  23612696.2074         41.200  
        22.6004 
 119008493.615 7  22646558.648    92733966.77945  22646567.5044         45.500  
        34.5004 
 105504512.994 9  20076846.000    82211318.37948  20076849.6454         54.300  
        48.4004 
 112935255.811 8  21490858.039    88001539.23046  21490865.1884         49.500  
        40.0004 
 122110903.071 7  23236931.633    95151385.95745  23236939.2664         43.900  
        30.9004 
 127852194.179 6  24329465.305    99625128.45844  24329476.3284         39.800  
        25.6004 
 117129623.776 7  22289034.195    91269864.46846  22289044.6764         45.400  
        36.9004 
 121835748.636 7  23184551.156    94936925.98345  23184558.2934         46.200  
        32.8004 
 109328384.327 8  20804496.086    85190976.74647  20804502.1374         49.800  
        44.2004 
 129887521.751 6  24716794.891   101211130.52943  24716803.7624         37.800  
        21.7004 
 15 12 31  2 20 30.0000000  0 10G20G30G02G13G29G15G06G07G05G09
 124009619.376 6  23598249.422    96630910.19943  23598256.0164         39.900  
        22.5004 
 118963835.555 7  22638060.258    92699168.35445  22638069.6294         45.600  
        34.7004 
 105511829.899 9  20078238.156    82217019.85148  20078242.2664         54.100  
        48.6004 
 112859988.733 8  21476535.461    87942889.60546  21476542.7034         49.500  
        40.1004 
 122065830.658 7  23228354.844    95116264.61545  23228362.2624         43.400  
        31.5004 
 127747557.197 6  24309553.672    99543593.14344  24309563.8874         40.600  
        25.5004 
 117212049.390 7  22304719.516    91334092.14846  22304729.7774         45.100  
        37.0004 
 121842796.879 7  23185892.883    94942418.13045  23185899.1954         46.400  
        33.4004 
 109311362.661 8  20801256.648    85177713.13547  20801263.0164         50.000  
        44.6004 
 129990591.366 6  24736408.242   101291444.46543  24736416.9104         36.600  
        21.8004 
 15 12 31  2 21  0.0000000  0 10G20G30G02G13G29G15G06G07G05G09
 123933790.159 6  23583819.586    96571822.52443  23583825.8484         40.400  
        22.5004 
 118919612.764 7  22629645.250    92664709.09045  22629654.3404         44.800  
        35.2004 
 105519640.454 9  20079724.469    82223105.98348  20079728.1094         54.500  
        48.1004 
 112785123.276 8  21462288.906    87884552.92246  21462295.7734         49.800  
        40.4004 
 122021280.464 7  23219877.391    95081550.19545  23219884.6174         43.900  
        31.6004 
 127643083.678 6  24289672.898    99462185.20343  24289682.0514         40.200  
        22.9004 
 117294790.676 7  22320464.773    91398565.80046  22320474.9614         45.200  
        36.5004 
 121850365.652 7  23187332.609    94948315.88045  23187339.6884         46.500  
        31.7004 
 109294541.770 8  20798056.031    85164605.96447  20798062.1334         50.000  
        44.4004 
 130093690.099 6  24756027.367   101371781.10243  24756036.2854         37.900  
        20.4004 
 15 12 31  2 21 30.0000000  0 10G20G30G02G13G29G15G06G07G05G09
 123858016.731 6  23569400.273    96512778.35143  23569406.9574         40.600  
        22.2004 
 118875828.193 7  22621312.750    92630591.29745  22621322.4654         45.200  
        35.4004 
 105527946.367 9  20081304.922    82229578.10447  20081308.8324         54.100  
        47.9004 
 112710661.139 8  21448119.273    87826530.51546  21448126.0164         51.300  
        40.6004 
 121977254.025 7  23211499.742    95047243.91045  23211506.4884         43.000  
        31.0004 
 127538775.341 6  24269823.328    99380905.95943  24269832.5514         37.900  
        21.7004 
 117377846.926 7  22336269.703    91463284.89446  22336279.7854         45.300  
        36.4004 
 121858455.588 7  23188872.063    94954619.71845  23188878.9064         46.000  
        33.2004 
 109277921.984 8  20794893.180    85151655.49847  20794899.4144         50.300  
        44.3004 
 130196816.668 6  24775651.727   101452139.44143  24775661.0944         38.200  
        21.8004 
 15 12 31  2 22  0.0000000  0 10G20G30G02G13G29G15G06G07G05G09
 123782298.776 6  23554991.484    96453777.38744  23554998.5944         40.700  
        25.0004 
 118832483.717 7  22613064.172    92596816.43745  22613074.1724         44.400  
        35.1004 
 105536747.819 8  20082979.648    82236436.37647  20082983.4884         53.500  
        47.9004 
 112636603.638 8  21434026.570    87768823.40446  21434034.1294         49.700  
        40.5004 
 121933752.842 7  23203221.383    95013346.90445  23203228.5984         43.100  
        31.2004 
 127434633.838 6  24250006.305    99299756.83343  24250015.4774         39.400  
        23.2004 
 117461216.548 7  22352134.320    91528248.17446  22352144.5314         45.000  
        36.4004 
 121867066.669 7  23190510.719    94961329.65245  23190517.7704         46.000  
        32.9004 
 109261503.102 8  20791768.938    85138861.59347  20791775.1174         49.600  
        44.0004 
 130299968.598 6  24795281.211   101532517.51143  24795290.4614         37.600  
        22.0004 
 15 12 31  2 22 30.0000000  0 10G20G30G02G13G29G15G06G07G05G09
 123706636.365 6  23540593.219    96394819.69444  23540601.1254         41.000  
        25.5004 
 118789581.538 7  22604900.438    92563386.22545  22604910.1604         45.100  
        34.8004 
 105546045.759 8  20084749.422    82243681.51948  20084753.1374         53.300  
        48.0004 
 112562952.108 8  21420011.125    87711432.63746  21420018.1684         49.400  
        40.4004 
 121890777.649 7  23195043.711    94979859.78345  23195050.7034         42.900  
        30.4004 
 127330660.817 6  24230219.984    99218738.99144  24230230.7734         40.300  
        25.8004 
 117544898.196 7  22368058.641    91593454.58046  22368068.6804         46.200  
        36.0004 
 121876199.481 7  23192248.602    94968446.12845  23192256.0394         46.700  
        32.3004 
 109245284.816 8  20788682.844    85126223.99347  20788689.1454         49.900  
        44.9004 
 130403144.018 6  24814914.234   101612913.90843  24814923.5514         36.600  
        21.3004 
 15 12 31  2 23  0.0000000  0 10G20G30G02G13G29G15G06G07G05G09
 123631029.748 7  23526205.742    96335905.49944  23526212.9224         42.200  
        24.7004 
 118747124.049 7  22596821.063    92530302.51345  22596831.0634         44.500  
        35.3004 
 105555840.956 8  20086612.891    82251314.13748  20086616.7344         53.700  
        48.1004 
 112489708.295 8  21406073.258    87654359.56646  21406080.5984         49.300  
        40.8004 
 121848329.774 7  23186965.609    94946783.54345  23186972.9344         42.800  
        30.8004 
 127226857.904 6  24210468.539    99137853.68744  24210477.5514         40.900  
        28.2004 
 117628890.739 7  22384042.156    91658903.24246  22384052.3244         46.300  
        36.2004 
 121885854.234 7  23194086.008    94975969.31345  23194093.2544         45.200  
        32.1004 
 109229267.242 8  20785634.547    85113742.78447  20785640.4614         49.900  
        44.3004 
 130506340.948 6  24834552.625   101693327.01543  24834561.9184         36.100  
        21.5004 
 15 12 31  2 23 30.0000000  0 10G20G30G02G13G29G15G06G07G05G09
 123555479.064 6  23511829.195    96277034.86244  23511836.0864         41.900  
        25.0004 
 118705113.573 7  22588826.680    92497567.13345  22588836.3014         44.400  
        35.1004 
 105566134.494 8  20088572.055    82259335.07648  20088575.8984         52.000  
        48.0004 
 112416873.454 8  21392213.172    87597605.18946  21392220.0944         49.100  
        40.5004 
 121806410.448 7  23178989.273    94914119.16945  23178996.2504         42.600  
        31.6004 
 127123226.754 6  24190747.359    99057102.23744  24190757.1844         40.600  
        26.7004 
 117713192.945 7  22400083.922    91724593.21246  22400094.6644         46.700  
        36.6004 
 121896030.885 7  23196022.469    94983899.17045  23196028.8754         45.800  
        32.6004 
 109213450.282 8  20782625.000    85101417.91247  20782630.8524         50.200  
        44.3004 
 130609557.752 6  24854194.289   101773755.69143  24854203.8094         36.500  
        20.4004 
 15 12 31  2 24  0.0000000  0 10G20G30G02G13G29G15G06G07G05G09
 123479984.800 6  23497462.688    96218208.20244  23497469.4494         40.200  
        24.3004 
 118663552.264 7  22580918.008    92465181.75445  22580927.4304         45.200  
        35.8004 
 105576926.773 8  20090625.641    82267744.65247  20090629.4184         52.300  
        47.9004 
 112344449.041 8  21378431.359    87541170.61246  21378437.9104         49.400  
        40.4004 
 121765021.224 7  23171112.859    94881867.83945  23171120.8524         42.300  
        31.6004 
 127019768.763 6  24171059.773    98976485.71844  24171069.3714         39.300  
        25.6004 
 117797803.554 7  22416185.016    91790523.47045  22416195.2774         46.200  
        35.9004 
 121906729.635 7  23198058.844    94992235.88645  23198065.4774         45.300  
        31.9004 
 109197834.084 8  20779653.055    85089249.47247  20779659.1214         50.300  
        44.3004 
 130712792.357 5  24873838.125   101854198.18443  24873848.1374         34.400  
        20.6004 
 15 12 31  2 24 30.0000000  0 10G20G30G02G13G29G15G06G07G05G09
 123404546.883 6  23483107.734    96159425.44044  23483113.7974         41.100  
        26.6004 
 118622442.346 7  22573094.648    92433148.10645  22573104.0004         44.900  
        34.9004 
 105588218.576 8  20092774.086    82276543.47547  20092777.9734         52.300  
        47.8004 
 112272436.438 8  21364727.875    87485056.93246  21364734.4774         49.600  
        41.0004 
 121724162.972 7  23163337.672    94850030.27845  23163345.3324         42.700  
        32.6004 
 126916485.871 6  24151405.508    98896005.66343  24151414.4924         38.300  
        22.0004 
 117882721.183 7  22432344.750    91856692.98546  22432354.7664         47.400  
        36.2004 
 121917950.648 7  23200194.031    95000979.56945  23200200.6024         46.400  
        33.2004 
 109182418.434 8  20776719.539    85077237.30047  20776725.7704         49.800  
        44.6004 
 130816042.878 6  24893486.305   101934653.04043  24893496.3634         36.100  
        21.1004 
 15 12 31  2 25  0.0000000  0 10G20G30G02G13G29G15G06G07G05G09
 123329165.553 6  23468763.164    96100686.79844  23468769.6524         40.400  
        26.5004 
 118581785.932 7  22565357.914    92401467.83545  22565367.3484         46.100  
        35.2004 
 105600010.587 8  20095018.180    82285732.06847  20095022.2934         51.000  
        47.6004 
 112200836.848 8  21351102.750    87429265.08846  21351109.7274         49.500  
        41.4004 
 121683836.827 7  23155663.531    94818607.33845  23155671.5434         44.100  
        31.9004 
 126813379.676 6  24131785.883    98815663.28544  24131793.7114         40.100  
        24.1004 
 117967944.440 7  22448561.852    91923100.65146  22448572.2154         47.400  
        36.0004 
 121929694.222 7  23202428.023    95010130.43445  23202435.4144         44.600  
        32.3004 
 109167203.105 8  20773824.063    85065381.22647  20773830.2304         49.800  
        45.0004 
 130919307.253 6  24913137.594   102015118.76943  24913147.2504         37.400  
        20.6004 
 15 12 31  2 25 30.0000000  0 10G20G30G02G13G29G15G06G07G05G09
 123253841.085 6  23454428.313    96041992.46844  23454436.4844         40.100  
        25.0004 
 118541585.353 7  22557708.273    92370142.76946  22557717.9534         45.900  
        36.0004 
 105612303.800 8  20097357.250    82295311.21147  20097361.3404         52.600  
        47.5004 
 112129651.847 8  21337556.523    87373796.30546  21337563.4344         49.200  
        40.9004 
 121644043.993 7  23148091.578    94787599.95545  23148098.8134         44.500  
        31.6004 
 126710451.671 6  24112199.016    98735459.76644  24112207.7734         40.300  
        25.8004 
 118053472.223 7  22464837.070    91989745.59846  22464847.8134         47.000  
        36.4004 
 121941960.006 7  23204763.313    95019688.26645  23204769.8794         44.300  
        33.0004 
 109152188.362 8  20770966.813    85053681.44647  20770972.8014         49.800  
        44.8004 
 131022583.787 6  24932790.156   102095593.89043  24932800.7814         37.200  
        21.5004 
 15 12 31  2 26  0.0000000  0 10G20G30G02G13G29G15G06G07G05G09
 123178573.571 6  23440106.070    95983342.50644  23440113.4534         41.100  
        25.1004 
 118501842.666 7  22550145.477    92339174.49845  22550154.8954         45.200  
        35.8004 
 105625098.710 8  20099792.445    82305281.28347  20099796.0824         51.800  
        47.6004 
 112058882.782 8  21324089.906    87318651.62246  21324096.6454         50.500  
        41.1004 
 121604785.660 7  23140620.938    94757009.07645  23140628.5554         44.300  
        31.3004 
 126607703.536 6  24092646.352    98655396.43844  24092654.8404         40.900  
        26.2004 
 118139303.037 7  22481170.766    92056626.67645  22481180.8134         47.200  
        35.9004 
 121954748.324 7  23207196.898    95029653.15145  23207202.7034         45.900  
        31.1004 
 109137373.933 8  20768148.086    85042137.75547  20768153.8594         50.300  
        44.5004 
 131125870.520 6  24952446.055   102176076.99343  24952456.0664         37.100  
        20.1004 
 15 12 31  2 26 30.0000000  0 10G20G30G02G13G29G15G06G07G05G09
 123103363.133 6  23425793.711    95924737.01144  23425800.7274         41.700  
        25.6004 
 118462560.080 7  22542670.172    92308564.74546  22542679.4224         45.700  
        36.1004 
 105638395.931 8  20102323.102    82315642.75447  20102326.5864         51.400  
        47.8004 
 111988530.858 8  21310702.242    87263831.99746  21310709.1374         50.300  
        41.6004 
 121566062.869 7  23133251.766    94726835.49345  23133259.3404         42.400  
        31.7004 
 126505136.668 6  24073128.664    98575474.34144  24073136.8204         40.500  
        26.5004 
 118225435.641 7  22497560.727    92123742.92945  22497571.9144         47.400  
        35.7004 
 121968059.170 7  23209728.070    95040025.37145  23209735.3714         44.500  
        31.0004 
 109122760.192 8  20765367.023    85030750.44847  20765372.8204         49.900  
        44.7004 
 131229165.698 5  24972101.977   102256566.72843  24972111.5084         35.300  
        18.3004 
 15 12 31  2 27  0.0000000  0 10G20G30G02G13G29G15G06G07G05G09
 123028210.537 7  23411492.422    95866176.58744  23411499.1214         42.300  
        24.7004 
 118423739.537 7  22535283.281    92278315.02045  22535292.1174         45.300  
        35.6004 
 105652195.786 8  20104948.531    82326395.90547  20104952.4734         52.800  
        47.9004 
 111918597.505 8  21297394.492    87209338.52646  21297401.2344         51.700  
        41.7004 
 121527876.564 7  23125985.273    94697079.95345  23125993.1644         42.800  
        31.0004 
 126402752.598 6  24053644.070    98495694.78744  24053654.6994         38.200  
        26.9004 
 118311868.520 7  22514008.563    92191093.13245  22514019.5594         46.800  
        35.4004 
 121981892.706 7  23212362.172    95050804.76845  23212368.2194         45.400  
        33.9004 
 109108346.973 8  20762624.227    85019519.39147  20762629.9774         50.600  
        44.9004 
 131332467.38215  24991758.805   102337061.45253  24991769.7114         33.200  
        19.6004 
 15 12 31  2 27 30.0000000  0 10G20G30G02G13G29G15G06G07G05G09
 122953115.402 7  23397202.555    95807660.96644  23397209.2624         42.400  
        25.0004 
 118385383.354 7  22527984.297    92248427.14346  22527993.1644         45.900  
        36.1004 
 105666499.389 8  20107670.977    82337541.57747  20107674.3014         52.900  
        47.5004 
 111849084.112 8  21284166.266    87155172.31346  21284173.2274         50.100  
        41.6004 
 121490228.035 7  23118821.180    94667743.45845  23118828.1524         42.400  
        30.8004 
 126300553.121 6  24034197.063    98416058.98844  24034205.0274         40.600  
        25.6004 
 118398600.542 7  22530513.664    92258676.44845  22530524.3134         47.000  
        35.9004 
 121996248.894 7  23215093.672    95061991.49845  23215099.4064         46.000  
        31.7004 
 109094134.257 8  20759919.594    85008444.57447  20759925.5274         50.500  
        44.6004 
 131435773.758 5  25011417.250   102417559.87143  25011427.7934         35.100  
        21.3004 
 15 12 31  2 28  0.0000000  0 10G20G30G02G13G29G15G06G07G05G09
 122878077.930 6  23382923.820    95749190.26444  23382930.4344         41.900  
        24.2004 
 118347493.731 7  22520774.016    92218902.80846  22520783.2154         46.000  
        36.7004 
 105681307.311 8  20110488.641    82349080.23747  20110492.5314         52.600  
        47.2004 
 111779992.091 8  21271018.633    87101334.43046  21271025.0864         50.000  
        41.5004 
 121453118.089 7  23111759.563    94638826.63345  23111766.5314         43.000  
        32.1004 
 126198539.822 6  24014784.133    98336568.21844  24014793.3444         40.100  
        25.8004 
 118485630.330 7  22547074.617    92326491.79545  22547085.5084         47.200  
        35.8004 
 122011127.823 7  23217923.914    95073585.49945  23217930.7464         44.900  
        33.2004 
 109080122.120 8  20757253.344    84997526.03447  20757258.8714         51.600  
        45.1004 
 131539083.125 6  25031077.352   102498060.61643  25031087.6174         36.600  
        21.8004 
 15 12 31  2 28 30.0000000  0 10G20G30G02G13G29G15G06G07G05G09
 122803098.902 6  23368655.625    95690765.14444  23368662.1604         41.200  
        25.3004 
 118310072.675 7  22513652.602    92189743.59646  22513661.8444         45.800  
        36.0004 
 105696620.130 8  20113402.023    82361012.30447  20113406.0784         51.400  
        47.4004 
 111711322.512 8  21257951.281    87047825.72146  21257957.7424         49.900  
        41.4004 
 121416548.014 7  23104800.969    94610330.51245  23104807.8754         44.100  
        32.2004 
 126096713.950 6  23995408.422    98257223.56144  23995416.7074         40.900  
        26.2004 
 118572956.556 7  22563692.156    92394538.11645  22563702.7664         46.300  
        34.9004 
 122026529.296 7  23220855.891    95085586.70945  23220862.0474         46.000  
        31.9004 
 109066310.561 8  20754624.773    84986763.79447  20754630.7034         49.900  
        44.7004 
 131642393.562 5  25050736.203   102578562.20043  25050746.5514         35.200  
        20.6004 
 15 12 31  2 29  0.0000000  0 10G20G30G02G13G29G15G06G07G05G09
 122728178.225 6  23354397.438    95632385.47244  23354405.2034         40.100  
        25.7004 
 118273121.600 7  22506620.898    92160950.62246  22506630.3134         45.400  
        36.3004 
 105712437.807 8  20116412.586    82373337.77047  20116416.2584         51.400  
        47.2004 
 111643076.112 8  21244964.203    86994646.77547  21244970.8204         49.900  
        42.1004 
 121380518.299 7  23097944.313    94582255.44645  23097951.4144         43.600  
        32.9004 
 125995077.556 6  23976066.164    98178026.45644  23976075.0594         41.300  
        26.1004 
 118660577.133 7  22580366.039    92462813.82745  22580376.3794         45.400  
        34.6004 
 122042452.840 7  23223885.609    95097994.70045  23223892.5124         44.300  
        33.2004 
 109052698.829 8  20752034.656    84976157.27847  20752040.6724         52.300  
        44.7004 
 131745702.846 6  25070396.305   102659062.83343  25070405.6454         36.300  
        19.6004 
 15 12 31  2 29 30.0000000  0 10G20G30G02G13G29G15G06G07G05G09
 122653316.124 6  23340152.406    95574051.43944  23340158.8714         41.200  
        26.5004 
 118236643.193 7  22499679.422    92132525.95646  22499688.5314         46.300  
        36.2004 
 105728761.564 8  20119518.992    82386057.58747  20119523.0514         51.800  
        47.7004 
 111575254.571 8  21232058.055    86941798.88947  21232064.8134         50.000  
        42.3004 
 121345030.283 7  23091190.836    94554602.47145  23091198.3404         43.600  
        32.1004 
 125893631.810 6  23956761.477    98098977.96244  23956771.4304         39.300  
        27.2004 
 118748491.349 7  22597095.836    92531318.33145  22597106.0824         47.000  
        35.6004 
 122058899.008 7  23227015.023    95110809.93645  23227022.1214         45.300  
        34.0004 
 109039287.857 8  20749482.727    84965707.20147  20749488.5474         49.900  
        45.0004 
 131849009.564 6  25090054.094   102739561.63643  25090062.6954         37.300  
        19.9004 
 15 12 31  2 30  0.0000000  0 10G20G30G02G13G29G15G06G07G05G09
 122578512.812 6  23325918.156    95515763.22644  23325924.6484         41.400  
        26.6004 
 118200639.483 7  22492828.117    92104471.17646  22492837.3134         46.600  
        36.5004 
 105745591.769 8  20122722.008    82399172.05847  20122725.4384         51.400  
        47.5004 
 111507859.394 8  21219233.094    86889283.23746  21219240.1484         50.200  
        41.8004 
 121310084.952 7  23084541.234    94527372.37245  23084548.6134         43.900  
        32.3004 
 125792378.316 6  23937494.305    98020079.27744  23937503.6564         39.800  
        26.8004 
 118836697.760 7  22613880.945    92600050.51845  22613891.3524         45.500  
        35.5004 
 122075867.404 7  23230244.000    95124032.09845  23230250.6724         43.900  
        31.9004 
 109026077.494 8  20746968.672    84955413.42947  20746975.0084         50.300  
        44.9004 
 131952312.021 6  25109711.992   102820057.02343  25109720.8524         38.000  
        19.0004 
 15 12 31  2 30 30.0000000  0 10G20G30G02G13G29G15G06G07G05G09
 122503768.439 6  23311694.289    95457520.93544  23311701.1564         41.700  
        26.8004 
 118165112.255 7  22486067.445    92076787.69145  22486076.9264         46.800  
        35.8004 
 105762928.729 8  20126020.344    82412681.39647  20126024.0704         51.000  
        47.0004 
 111440891.512 8  21206489.633    86837100.54346  21206496.2934         51.200  
        41.9004 
 121275682.980 7  23077994.070    94500565.66545  23078002.0704         44.100  
        32.3004 
 125691318.472 6  23918262.336    97941331.44344  23918272.0434         40.900  
        26.8004 
 118925194.736 7  22630721.391    92669009.12145  22630732.4024         45.600  
        35.3004 
 122093358.144 7  23233572.836    95137661.27145  23233579.4844         44.700  
        32.2004 
 109013067.923 8  20744493.242    84945276.11847  20744499.3014         50.200  
        45.3004 
 132055608.186 6  25129368.766   102900547.56543  25129377.7934         37.500  
        19.3004 
 15 12 31  2 31  0.0000000  0 10G20G30G02G13G29G15G06G07G05G09
 122429083.599 6  23297482.445    95399325.01544  23297489.1054         41.600  
        27.0004 
 118130063.812 7  22479397.578    92049477.28445  22479407.2774         46.500  
        35.7004 
 105780773.495 8  20129415.594    82426586.40447  20129419.7424         50.300  
        46.7004 
 111374352.346 8  21193827.711    86785251.91047  21193834.4024         51.200  
        42.5004 
 121241825.523 7  23071551.422    94474183.27245  23071558.2304         43.800  
        32.2004 
 125590454.383 6  23899069.172    97862736.12344  23899077.9414         41.100  
        28.0004 
 119013981.230 7  22647616.922    92738193.33845  22647628.0704         45.600  
        35.2004 
 122111371.223 7  23237000.430    95151697.46045  23237006.6454         44.100  
        31.6004 
 109000259.168 8  20742055.594    84935295.29847  20742061.4964         49.700  
        44.6004 
 132158896.665 6  25149023.641   102981032.07143  25149033.0514         37.500  
        20.4004 
 15 12 31  2 31 30.0000000  0 10G20G30G02G13G29G15G06G07G05G09
 122354458.190 6  23283282.016    95341175.42744  23283288.2974         41.000  
        25.6004 
 118095495.814 7  22472819.320    92022541.24645  22472829.2774         45.200  
        35.7004 
 105799126.190 8  20132908.773    82440887.20547  20132912.5904         51.200  
        47.0004 
 111308242.860 8  21181247.375    86733738.09847  21181254.1294         51.100  
        42.6004 
 121208513.134 7  23065211.938    94448225.60245  23065219.3204         43.100  
        31.1004 
 125489787.186 6  23879912.578    97784294.22544  23879921.1914         41.000  
        25.6004 
 119103055.480 7  22664566.750    92807601.75945  22664577.4024         45.400  
        34.8004 
 122129905.765 7  23240527.094    95166139.99945  23240533.6254         44.600  
        32.4004 
 108987651.001 8  20739656.602    84925470.77347  20739662.4924         50.200  
        45.0004 
 132262175.380 6  25168676.375   103061508.97842  25168686.2074         36.800  
        17.4004 
 15 12 31  2 32  0.0000000  0 10G20G30G02G13G29G15G06G07G05G09
 122279892.380 6  23269092.086    95283072.28044  23269098.9534         40.500  
        25.3004 
 118061410.330 7  22466333.141    91995981.19445  22466342.7194         45.500  
        35.9004 
 105817987.226 8  20136498.578    82455584.13847  20136501.6994         52.600  
        47.8004 
 111242564.519 8  21168749.352    86682560.23247  21168755.6564         51.900  
        42.8004 
 121175746.994 7  23058977.641    94422693.55845  23058984.6294         43.600  
        31.8004 
 125389318.526 6  23860793.703    97706006.96244  23860803.1454         41.800  
        27.1004 
 119192416.154 7  22681571.836    92877233.36645  22681583.0004         45.300  
        34.7004 
 122148962.163 7  23244153.375    95180989.16545  23244159.6214         45.300  
        31.3004 
 108975243.421 8  20737295.328    84915802.55547  20737301.1294         50.500  
        45.2004 
 132365442.727 6  25188328.430   103141977.05143  25188336.9384         38.800  
        19.3004 
 15 12 31  2 32 30.0000000  0 10G20G30G02G13G29G15G06G07G05G09
 122205386.734 6  23254914.578    95225016.02244  23254921.0044         41.300  
        27.2004 
 118027809.081 7  22459939.539    91969798.47545  22459948.6334         45.500  
        35.9004 
 105837356.843 8  20140183.773    82470677.36147  20140187.4224         51.700  
        46.7004 
 111177318.131 8  21156333.227    86631718.94647  21156340.0744         51.800  
        42.3004 
 121143527.692 7  23052845.727    94397587.63945  23052853.1414         45.000  
        32.2004 
 125289049.418 6  23841712.672    97627875.25644  23841722.3834         39.400  
        26.0004 
 119282061.566 7  22698631.258    92947086.86945  22698641.6804         45.800  
        34.9004 
 122168540.019 7  23247878.609    95196244.66345  23247884.9694         44.200  
        32.0004 
 108963036.483 8  20734972.203    84906290.68047  20734978.3714         50.200  
        44.6004 
 132468696.673 6  25207976.984   103222434.62843  25207985.9304         37.500  
        18.6004 
 15 12 31  2 33  0.0000000  0 10G20G30G02G13G29G15G06G07G05G09
 122130941.477 6  23240747.055    95167006.82744  23240754.2814         41.100  
        28.6004 
 117994694.339 7  22453637.766    91943994.83745  22453647.0084         45.900  
        35.9004 
 105857235.838 8  20143966.789    82486167.48747  20143970.4734         51.900  
        47.0004 
 111112505.221 8  21143999.789    86581215.43847  21144006.0354         51.600  
        42.7004 
 121111856.362 7  23046819.117    94372908.71045  23046826.8164         44.100  
        31.6004 
 125188981.960 6  23822670.695    97549900.65844  23822679.9844         40.500  
        27.1004 
 119371990.593 7  22715743.703    93017161.36045  22715755.0434         44.400  
        34.3004 
 122188639.178 7  23251703.477    95211906.37545  23251710.6524         44.400  
        32.1004 
 108951030.505 8  20732687.664    84896935.39847  20732693.6564         49.900  
        44.7004 
 132571935.780 6  25227622.156   103302880.72543  25227632.3874         37.700  
        18.6004 
 15 12 31  2 33 30.0000000  0  9G20G30G02G13G29G15G06G07G05
 122056556.760 6  23226592.664    95109044.82044  23226599.3554         41.400  
        28.2004 
 117962068.030 7  22447428.984    91918571.80645  22447437.9024         45.000  
        35.8004 
 105877624.619 8  20147846.914    82502054.85847  20147850.1134         51.000  
        47.2004 
 111048126.778 8  21131748.766    86531050.46947  21131755.0004         51.500  
        42.4004 
 121080733.584 7  23040896.359    94348657.22445  23040903.7974         44.000  
        31.5004 
 125089118.084 7  23803667.844    97472084.74644  23803677.0984         42.200  
        29.1004 
 119462201.844 7  22732910.602    93087455.75645  22732921.6414         45.000  
        34.5004 
 122209259.606 7  23255627.367    95227974.26945  23255634.1994         43.700  
        32.1004 
 108939225.358 8  20730440.945    84887736.60747  20730446.9344         49.700  
        44.7004 
 15 12 31  2 34  0.0000000  0  9G20G30G02G13G29G15G06G07G05
 121982232.959 7  23212449.664    95051130.23344  23212455.8404         42.000  
        27.2004 
 117929931.736 7  22441313.211    91893530.61046  22441322.6914         45.300  
        36.1004 
 105898523.121 8  20151823.664    82518339.41047  20151827.1524         50.800  
        47.2004 
 110984183.800 8  21119580.969    86481224.82447  21119587.1954         51.400  
        42.1004 
 121050159.983 7  23035078.523    94324833.66145  23035085.6254         43.900  
        31.6004 
 124989458.624 6  23784702.992    97394428.08344  23784711.4924         40.800  
        28.0004 
 119552693.560 7  22750130.977    93157968.69245  22750141.7424         45.700  
        34.6004 
 122230400.477 7  23259650.648    95244447.69345  23259657.0594         44.300  
        32.6004 
 108927620.915 8  20728232.844    84878694.19847  20728238.9614         50.000  
        44.7004 
