     2.11           OBSERVATION DATA    G (GPS)             RINEX VERSION / TYPE
teqc  2012Jun6      GSI, JAPAN          20160101 17:06:48UTCPGM / RUN BY / DATE
Linux 2.4.21-27.ELsmp|Opteron|gcc -static|Linux x86_64|=+   COMMENT
0339                                                        MARKER NAME
GSI, JAPAN          GEOSPATIAL INFORMATION AUTHORITY OF JAPAOBSERVER / AGENCY
00000               TPS NETG3           4.0 Apr,01,2014     REC # / TYPE / VERS
                    TPSCR.G5        GSI                     ANT # / TYPE
 -3762296.5709  3685992.6142  3585585.5418                  APPROX POSITION XYZ
        0.0000        0.0000        0.0000                  ANTENNA: DELTA H/E/N
     1     1                                                WAVELENGTH FACT L1/2
     6    L1    C1    L2    P2    S1    S2                  # / TYPES OF OBSERV
    30.0000                                                 INTERVAL
Forced Modulo Decimation to 30 seconds                      COMMENT
  2015    12    31     0     0    0.0000000     GPS         TIME OF FIRST OBS
                                                            END OF HEADER
 15 12 31  0  0  0.0000000  0  8G02G09G06G19G05G12G23G17
 117229612.21546  22308053.772    91347750.27646  22308047.6134         41.5004 
        41.6004 
 110880844.09547  21099921.407    86400655.99047  21099918.7704         46.6004 
        46.5004 
 108087160.50648  20568301.722    84223751.25248  20568300.7914         48.8004 
        48.2004 
 121155403.45146  23055109.649    94406800.12146  23055104.4424         38.6004 
        38.5004 
 122779567.23245  23364172.652    95672392.39245  23364169.0964         31.6004 
        31.5004 
 125730536.43845  23925730.163    97971840.89644  23925725.2234         30.0004 
        29.8004 
 122049211.58846  23225194.078    95103281.49745  23225188.7934         36.0004 
        35.6004 
 113490821.18747  21596585.482    88434396.82247  21596581.6004         44.4004 
        43.8004 
 15 12 31  0  0 30.0000000  0  8G02G09G06G19G05G12G23G17
 117136959.77646  22290422.412    91275553.57246  22290416.0324         41.8004 
        41.3004 
 110860483.11147  21096046.591    86384790.27847  21096044.1404         47.2004 
        46.7004 
 108049337.75648  20561104.431    84194278.97648  20561103.4074         48.6004 
        48.2004 
 121229109.14246  23069134.761    94464233.08346  23069129.9284         37.9004 
        38.0004 
 122674114.95545  23344106.196    95590221.78945  23344102.6424         31.6004 
        31.5004 
 125731833.11444  23925976.382    97972851.25244  23925972.5624         29.7004 
        29.7004 
 122085839.38046  23232164.686    95131822.59546  23232158.9784         36.2004 
        36.3004 
 113544550.22847  21606809.685    88476263.58447  21606806.2154         44.1004 
        43.7004 
 15 12 31  0  1  0.0000000  0  8G02G09G06G19G05G12G23G17
 117044345.72946  22272799.051    91203386.79046  22272792.2564         41.4004 
        41.3004 
 110840709.60347  21092283.494    86369382.34447  21092281.4234         46.3004 
        46.1004 
 108011754.01648  20553952.428    84164992.95048  20553951.6694         49.4004 
        48.9004 
 121303037.64446  23083203.298    94521839.66346  23083198.5924         37.8004 
        37.9004 
 122568878.19545  23324079.383    95508219.11345  23324076.4134         31.8004 
        31.7004 
 125733598.83544  23926312.042    97974227.11544  23926308.4144         28.4004 
        29.1004 
 122122868.04646  23239211.527    95160676.05846  23239205.2104         36.5004 
        36.5004 
 113598681.40247  21617110.219    88518443.69347  21617107.4914         44.3004 
        44.1004 
 15 12 31  0  1 30.0000000  0  8G02G09G06G19G05G12G23G17
 116951774.29446  22255183.210    91131253.20246  22255176.8444         41.9004 
        41.7004 
 110821526.46347  21088633.423    86354434.44247  21088630.9094         46.4004 
        46.2004 
 107974413.39248  20546846.759    84135896.34948  20546845.9224         49.5004 
        48.9004 
 121377190.32146  23097314.383    94579620.91246  23097309.6224         38.3004 
        38.4004 
 122463860.73445  23304094.999    95426387.32545  23304092.7734         32.2004 
        32.1004 
 125735834.09744  23926737.725    97975968.87644  23926733.1244         27.5004 
        27.4004 
 122160298.76046  23246334.197    95189842.80846  23246327.3324         36.5004 
        36.5004 
 113653216.34047  21627488.431    88560938.41747  21627485.1164         44.8004 
        44.6004 
 15 12 31  0  2  0.0000000  0  8G02G09G06G19G05G12G23G17
 116859248.62447  22237575.941    91059155.28646  22237569.7984         42.0004 
        41.7004 
 110802935.93447  21085095.344    86339948.30647  21085093.2934         46.4004 
        45.9004 
 107937319.37448  20539787.988    84106991.91448  20539787.1584         49.2004 
        48.7004 
 121451567.69246  23111468.564    94637577.23546  23111462.8134         39.1004 
        39.1004 
 122359065.40845  23284153.889    95344728.60945  23284150.8234         32.8004 
        32.5004 
 125738540.08144  23927252.858    97978077.40644  23927248.5674         27.2004 
        27.1004 
 122198131.84846  23253533.181    95219323.09346  23253527.1654         36.0004 
        36.1004 
 113708155.44347  21637942.991    88603748.08547  21637939.5214         44.4004 
        44.5004 
 15 12 31  0  2 30.0000000  0  8G02G09G06G19G05G12G23G17
 116766768.54647  22219977.808    90987092.89747  22219971.1984         42.3004 
        42.0004 
 110784936.51547  21081670.124    86325922.78047  21081668.3324         46.4004 
        45.6004 
 107900471.76548  20532775.934    84078279.48448  20532775.3864         49.2004 
        48.9004 
 121526166.15846  23125663.742    94695705.84546  23125658.8904         38.9004 
        38.8004 
 122254491.85945  23264253.727    95263242.72545  23264250.5424         33.0004 
        32.8004 
 125741713.57844  23927856.599    97980550.23744  23927852.3404         27.0004 
        27.1004 
 122236364.27845  23260808.399    95249114.55645  23260802.3714         35.6004 
        35.6004 
 113763495.40247  21648473.219    88646870.09547  21648470.7074         44.0004 
        43.8004 
 15 12 31  0  3  0.0000000  0  8G02G09G06G19G05G12G23G17
 116674337.36947  22202388.421    90915068.61746  22202382.3364         42.0004 
        41.7004 
 110767530.08547  21078357.822    86312359.32147  21078355.9524         46.6004 
        46.3004 
 107863873.70648  20525811.335    84049761.51048  20525810.9384         48.6004 
        48.3004 
 121600985.76446  23139901.687    94754006.78146  23139896.6964         39.3004 
        39.2004 
 122150142.61445  23244397.042    95181931.63445  23244392.9304         33.0004 
        32.9004 
 125745354.68044  23928549.641    97983387.39344  23928545.1184         26.8004 
        25.9004 
 122274996.06445  23268159.423    95279217.21045  23268154.1354         35.2004 
        35.2004 
 113819236.11147  21659080.777    88690304.37647  21659077.3664         44.1004 
        43.8004 
 15 12 31  0  3 30.0000000  0  8G02G09G06G19G05G12G23G17
 116581955.32147  22184808.344    90843082.62347  22184802.4624         42.4004 
        42.0004 
 110750715.63147  21075158.526    86299257.14447  21075156.3234         46.8004 
        46.1004 
 107827525.55348  20518894.862    84021438.26148  20518894.0904         48.8004 
        48.1004 
 121676023.71046  23154180.408    94812477.85946  23154176.1384         38.4004 
        38.6004 
 122046017.35645  23224582.367    95100795.07245  23224578.8074         33.5004 
        33.5004 
 125749460.53044  23929331.185    97986586.70944  23929324.2904         25.6004 
        25.9004 
 122314024.64845  23275586.690    95309629.06045  23275581.1204         35.3004 
        35.2004 
 113875374.57847  21669763.984    88734048.60747  21669759.6964         44.1004 
        44.0004 
 15 12 31  0  4  0.0000000  0  8G02G09G06G19G05G12G23G17
 116489625.73447  22167239.076    90771137.51546  22167232.8974         42.2004 
        41.8004 
 110734494.74847  21072071.493    86286617.48747  21072069.4824         46.9004 
        46.8004 
 107791430.29848  20512026.372    83993312.07648  20512025.2114         48.5004 
        48.1004 
 121751279.62246  23168500.616    94871118.77846  23168497.5444         38.8004 
        38.8004 
 121942118.28045  23204810.558    95019834.77145  23204808.4504         34.4004 
        34.1004 
 125754031.29744  23930200.627    97990148.30844  23930195.6794         25.0004 
        25.1004 
 122353449.96545  23283089.242    95340350.05145  23283083.3184         35.4004 
        35.5004 
 113931911.00847  21680522.333    88778102.92547  21680518.1514         44.0004 
        43.9004 
 15 12 31  0  4 30.0000000  0  8G02G09G06G19G05G12G23G17
 116397345.93946  22149678.795    90699231.19546  22149672.5794         41.8004 
        41.8004 
 110718863.76847  21069097.357    86274437.50547  21069095.0674         47.0004 
        46.8004 
 107755585.65848  20505205.554    83965381.17848  20505204.0704         48.4004 
        48.1004 
 121826748.14946  23182862.585    94929925.36946  23182857.8694         38.0004 
        37.9004 
 121838442.82846  23185082.547    94939048.71345  23185079.5304         36.0004 
        35.8004 
 125759061.63844  23931157.607    97994068.04444  23931153.2564         25.6004 
        25.6004 
 122393266.81845  23290667.062    95371376.14345  23290660.9914         35.6004 
        35.6004 
 113988839.95047  21691355.789    88822463.10347  21691352.0474         43.6004 
        43.5004 
 15 12 31  0  5  0.0000000  0  8G02G09G06G19G05G12G23G17
 116305119.92747  22132128.679    90627366.77247  22132122.0714         42.5004 
        42.0004 
 110703825.30447  21066235.425    86262719.22047  21066233.4194         47.0004 
        46.5004 
 107719995.65248  20498432.804    83937648.69147  20498431.6074         48.4004 
        47.8004 
 121902430.12546  23197264.836    94988898.27746  23197259.6964         38.6004 
        38.8004 
 121734994.61046  23165396.871    94858439.69646  23165393.7394         36.4004 
        36.2004 
 125764552.56044  23932203.465    97998346.64044  23932198.0524         25.6004 
        25.8004 
 122433476.09345  23298318.513    95402708.00745  23298312.1924         35.4004 
        35.5004 
 114046162.56647  21702263.413    88867130.03647  21702260.5494         43.5004 
        43.1004 
 15 12 31  0  5 30.0000000  0  8G02G09G06G19G05G12G23G17
 116212943.48947  22114587.985    90555540.99146  22114581.4434         42.2004 
        41.8004 
 110689373.67147  21063485.358    86251458.20347  21063483.1664         46.6004 
        46.8004 
 107684656.05048  20491707.798    83910111.33548  20491706.7444         48.8004 
        48.3004 
 121978318.43246  23211706.159    95048031.94646  23211700.2074         38.8004 
        38.7004 
 121631768.68746  23145753.927    94778003.91746  23145750.5354         36.4004 
        36.5004 
 125770496.38744  23933334.267    98002978.18044  23933329.0684         26.4004 
        26.0004 
 122474070.53945  23306043.606    95434340.00645  23306037.0714         35.3004 
        35.4004 
 114103870.94347  21713245.199    88912097.57847  21713242.6184         43.4004 
        43.4004 
 15 12 31  0  6  0.0000000  0  8G02G09G06G19G05G12G23G17
 116120818.58047  22097057.613    90483755.36147  22097051.1774         42.2004 
        42.1004 
 110675508.98547  21060846.854    86240654.55247  21060845.0124         47.2004 
        47.0004 
 107649568.46148  20485030.793    83882770.35448  20485029.8774         48.6004 
        48.3004 
 122054411.33746  23226185.110    95107325.03546  23226179.9824         37.1004 
        37.0004 
 121528765.71546  23126153.121    94697741.86646  23126149.0914         36.1004 
        36.2004 
 125776892.30544  23934551.636    98007961.98044  23934546.2174         26.7004 
        26.6004 
 122515048.72645  23313841.010    95466271.00545  23313834.7844         35.0004 
        35.1004 
 114161963.90647  21724300.164    88957364.78547  21724296.9154         43.6004 
        43.1004 
 15 12 31  0  6 30.0000000  0  8G02G09G06G19G05G12G23G17
 116028749.01347  22079536.637    90412012.85347  22079530.7834         42.1004 
        42.1004 
 110662233.84647  21058320.730    86230310.28547  21058318.9354         45.7004 
        45.4004 
 107614736.94648  20478402.566    83855628.90448  20478401.8524         49.2004 
        48.4004 
 122130709.43746  23240704.163    95166778.01746  23240699.7774         36.8004 
        36.8004 
 121425989.31346  23106595.245    94617656.36946  23106591.4744         36.6004 
        36.4004 
 125783740.76944  23935854.961    98013298.39644  23935849.6844         27.4004 
        27.1004 
 122556411.79845  23321711.710    95498501.91245  23321705.7584         34.9004 
        34.9004 
 114220442.08447  21735428.388    89002932.15447  21735424.0924         42.8004 
        42.7004 
 15 12 31  0  7  0.0000000  0  8G02G09G06G19G05G12G23G17
 115936735.89647  22062026.975    90340314.33646  22062021.6124         42.0004 
        41.5004 
 110649547.39947  21055906.689    86220424.73647  21055904.6814         46.7004 
        47.1004 
 107580162.20548  20471823.331    83828687.53748  20471822.6144         49.4004 
        49.2004 
 122207210.56146  23255261.219    95226389.21746  23255257.1964         36.6004 
        36.4004 
 121323439.72646  23087080.653    94537747.62146  23087077.6534         36.7004 
        36.7004 
 125791039.82644  23937243.806    98018985.93144  23937238.7674         27.9004 
        28.0004 
 122598157.14145  23329655.330    95531030.71345  23329649.8724         34.3004 
        34.2004 
 114279303.44747  21746629.245    89048798.09947  21746625.5134         43.0004 
        43.0004 
 15 12 31  0  7 30.0000000  0  8G02G09G06G19G05G12G23G17
 115844782.72147  22044529.446    90268662.52546  22044522.8544         42.0004 
        41.9004 
 110637451.56547  21053605.004    86210999.40847  21053602.8564         46.8004 
        46.9004 
 107545847.70748  20465293.366    83801948.95248  20465292.8494         49.3004 
        48.8004 
 122283914.84246  23269858.295    95286158.73846  23269854.3994         36.8004 
        36.8004 
 121221120.00446  23067609.238    94458017.98746  23067605.9624         36.1004 
        36.3004 
 125798789.54044  23938717.050    98025024.64144  23938714.6444         28.8004 
        28.8004 
 122640285.46045  23337672.093    95563857.91945  23337666.2394         33.8004 
        33.9004 
 114338548.00147  21757903.109    89094962.64147  21757899.0304         43.2004 
        43.0004 
 15 12 31  0  8  0.0000000  0  8G02G09G06G19G05G12G23G17
 115752892.89446  22027043.500    90197060.07646  22027036.8974         41.9004 
        41.8004 
 110625948.32847  21051415.875    86202035.85147  21051413.8524         47.1004 
        46.4004 
 107511797.05148  20458813.671    83775415.95548  20458813.1484         49.4004 
        49.0004 
 122360822.81746  23284493.824    95346086.98546  23284489.6664         37.2004 
        37.2004 
 121119032.55646  23048183.277    94378469.34546  23048179.4304         36.0004 
        36.0004 
 125806990.39344  23940278.357    98031414.85344  23940274.9384         28.8004 
        28.9004 
 122682796.89545  23345762.466    95596983.66845  23345755.5464         33.5004 
        33.6004 
 114398176.14647  21769250.285    89141426.09047  21769245.9874         43.2004 
        42.9004 
 15 12 31  0  8 30.0000000  0  8G02G09G06G19G05G12G23G17
 115661060.86747  22009568.601    90125502.66447  22009561.7904         42.1004 
        42.2004 
 110615030.32547  21049338.144    86193528.31447  21049336.2444         46.3004 
        45.9004 
 107478004.42048  20452383.488    83749084.03148  20452382.6544         49.2004 
        48.9004 
 122437925.47346  23299166.140    95406166.91646  23299161.6594         36.8004 
        37.0004 
 121017171.47746  23028799.422    94299097.08246  23028796.4264         36.7004 
        36.5004 
 125815633.35345  23941923.758    98038149.58445  23941920.2724         30.4004 
        30.9004 
 122725683.11545  23353923.587    95630401.44745  23353916.5834         33.4004 
        33.5004 
 114458178.68647  21780668.182    89188181.27047  21780664.6784         43.5004 
        43.4004 
 15 12 31  0  9  0.0000000  0  8G02G09G06G19G05G12G23G17
 115569288.93746  21992104.615    90053992.07246  21992097.9664         41.9004 
        41.9004 
 110604698.23247  21047371.856    86185477.32447  21047369.8434         46.1004 
        46.1004 
 107444472.19448  20446002.521    83722955.01548  20446001.4834         49.8004 
        49.2004 
 122515221.67546  23313875.289    95466397.64846  23313871.0054         37.7004 
        37.8004 
 120915538.36446  23009459.079    94219902.48746  23009456.3714         37.1004 
        37.1004 
 125824717.47145  23943652.081    98045228.07445  23943649.2234         31.5004 
        31.4004 
 122768942.59245  23362154.835    95664110.08145  23362148.6864         33.3004 
        33.3004 
 114518554.80747  21792157.268    89235227.55147  21792154.2084         43.3004 
        43.2004 
 15 12 31  0  9 30.0000000  0  8G02G09G06G19G05G12G23G17
 115477579.96146  21974653.337    89982530.53746  21974646.1154         41.9004 
        41.6004 
 110594953.07347  21045517.544    86177883.69247  21045515.6204         46.4004 
        46.0004 
 107411203.00248  20439671.546    83697030.96248  20439670.7764         48.9004 
        48.9004 
 122592710.94046  23328620.631    95526778.81246  23328616.5014         36.8004 
        36.9004 
 120814135.17946  22990162.668    94140887.03546  22990160.0484         37.4004 
        37.4004 
 125834242.25345  23945463.984    98052649.93645  23945461.3734         31.7004 
        31.6004 
 122812575.08445  23370457.758    95698109.37345  23370451.9404         33.3004 
        33.4004 
 114579304.09747  21803716.968    89282564.61647  21803714.6464         43.4004 
        43.1004 
 15 12 31  0 10  0.0000000  0  8G02G09G06G19G05G12G23G17
 115385932.42246  21957213.757    89911116.86946  21957206.3834         41.9004 
        41.9004 
 110585791.56547  21043774.174    86170744.84947  21043772.4934         46.5004 
        46.3004 
 107378195.25148  20433390.257    83671310.62648  20433389.5774         49.0004 
        48.6004 
 122670388.53546  23343402.002    95587306.72546  23343398.1974         36.4004 
        36.5004 
 120712959.46646  22970909.942    94062048.84446  22970906.5604         37.2004 
        37.1004 
 125844202.60645  23947359.521    98060411.20945  23947356.9764         31.1004 
        31.0004 
 122856575.97945  23378830.330    95732395.72645  23378825.6664         33.3004 
        33.5004 
 114640421.48947  21815347.369    89330188.51147  21815344.9714         43.2004 
        43.0004 
 15 12 31  0 10 30.0000000  0  8G02G09G06G19G05G12G23G17
 115294352.33446  21939786.036    89839755.76447  21939779.6794         41.9004 
        42.1004 
 110577218.20647  21042142.618    86164064.29747  21042141.2004         46.3004 
        46.4004 
 107345455.12248  20427160.056    83645798.83148  20427159.1304         49.1004 
        48.7004 
 122748257.33845  23358219.494    95647983.65245  23358216.2554         35.8004 
        35.8004 
 120612016.94046  22951701.560    93983392.34846  22951697.8054         37.6004 
        37.4004 
 125854601.39145  23949338.369    98068514.12345  23949334.3954         31.1004 
        31.2004 
 122900948.41145  23387274.357    95766971.57145  23387269.8374         33.5004 
        33.4004 
 114701909.94547  21827048.400    89378101.55047  21827045.3024         42.6004 
        42.7004 
 15 12 31  0 11  0.0000000  0  8G02G09G06G19G05G12G23G17
 115202839.17746  21922371.746    89768446.81846  21922365.3594         41.8004 
        41.8004 
 110569230.12947  21040622.829    86157839.81247  21040621.0334         47.2004 
        47.0004 
 107312981.55448  20420980.502    83620494.74148  20420979.5424         48.5004 
        48.1004 
 122826312.99045  23373073.362    95708806.17245  23373068.5854         35.1004 
        35.2004 
 120511305.58446  22932536.776    93904915.98146  22932532.6314         37.9004 
        37.9004 
 125865435.24945  23951400.604    98076956.05245  23951397.6514         30.9004 
        30.7004 
 122945687.97045  23395788.523    95801833.50745  23395783.5734         33.5004 
        33.5004 
 114763765.18847  21838819.749    89426300.40147  21838816.1914         42.7004 
        42.4004 
 15 12 31  0 11 30.0000000  0  8G02G09G06G19G05G12G23G17
 115111390.11146  21904969.538    89697187.81246  21904963.2214         41.9004 
        41.9004 
 110561822.54747  21039213.343    86152067.66647  21039211.4624         47.5004 
        47.4004 
 107280771.47348  20414851.238    83595395.96648  20414850.1294         48.7004 
        48.4004 
 122904549.43346  23387962.171    95769769.58146  23387957.0334         36.4004 
        36.5004 
 120410821.83946  22913415.159    93826616.98346  22913412.0254         37.7004 
        37.6004 
 125876697.00245  23953543.749    98085731.40045  23953539.8464         31.2004 
        31.2004 
 122990788.54445  23404370.754    95836976.74345  23404366.4854         33.4004 
        33.6004 
 114825980.86147  21850658.361    89474780.09647  21850655.4144         42.3004 
        42.1004 
 15 12 31  0 12  0.0000000  0  8G02G09G06G19G05G12G23G17
 115020006.48647  21887579.248    89625979.80247  21887573.5304         42.3004 
        42.2004 
 110554995.60947  21037913.748    86146747.96447  21037912.0724         46.7004 
        46.8004 
 107248826.82648  20408772.923    83570504.02848  20408771.4674         48.8004 
        48.3004 
 122982965.17046  23402884.141    95830872.66846  23402878.4394         36.1004 
        36.1004 
 120310566.92146  22894337.147    93748496.28146  22894334.0164         38.0004 
        37.9004 
 125888385.40745  23955768.519    98094839.21845  23955764.2514         31.7004 
        31.7004 
 123036249.00945  23413022.040    95872400.43245  23413016.7524         33.2004 
        33.5004 
 114888555.36147  21862566.004    89523539.39347  21862562.8424         42.1004 
        42.1004 
 15 12 31  0 12 30.0000000  0  8G02G09G06G19G05G12G23G17
 114928691.76147  21870203.397    89554825.47446  21870196.8284         42.0004 
        41.9004 
 110548750.31847  21036725.321    86141881.49647  21036723.8114         47.0004 
        46.3004 
 107217150.41248  20402744.837    83545821.09248  20402743.5894         49.1004 
        48.7004 
 123061559.66546  23417840.489    95892115.05046  23417834.6674         36.7004 
        36.6004 
 120210543.20146  22875302.756    93670555.73146  22875299.8374         37.9004 
        37.9004 
 125900500.04445  23958073.650    98104279.15845  23958069.5014         31.9004 
        32.1004 
 123082068.83045  23421740.985    95908104.15045  23421736.6664         33.0004 
        33.0004 
 114951488.11347  21874541.837    89572577.83946  21874538.0964         42.2004 
        41.9004 
 15 12 31  0 13  0.0000000  0  8G02G09G06G19G05G12G23G17
 114837449.44546  21852840.752    89483727.56146  21852833.8394         41.9004 
        41.8004 
 110543088.14647  21035648.087    86137469.40447  21035646.4794         46.9004 
        46.4004 
 107185745.54248  20396768.615    83521349.75048  20396767.4284         49.4004 
        48.7004 
 123140333.08846  23432830.290    95953496.85346  23432825.6314         36.3004 
        36.4004 
 120110753.21646  22856314.390    93592797.31546  22856310.8734         38.8004 
        38.9004 
 125913040.79345  23960459.789    98114051.13745  23960455.3964         31.8004 
        31.7004 
 123128248.21145  23430528.682    95944088.02145  23430523.5474         32.5004 
        32.7004 
 115014779.49547  21886586.294    89621895.74447  21886582.5034         42.1004 
        42.0004 
 15 12 31  0 13 30.0000000  0  8G02G09G06G19G05G12G23G17
 114746281.93146  21835491.694    89412687.93747  21835484.9304         41.6004 
        42.0004 
 110538009.43547  21034681.748    86133511.94947  21034680.2474         46.3004 
        46.0004 
 107154614.41548  20390844.270    83497091.71648  20390843.4494         48.6004 
        48.0004 
 123219284.19445  23447854.399    96015017.09645  23447849.8294         35.5004 
        35.5004 
 120011197.96846  22837369.231    93515221.82046  22837366.1014         38.4004 
        38.3004 
 125926006.55445  23962927.696    98124154.29945  23962923.5474         32.4004 
        32.4004 
 123174786.18445  23439384.634    95980351.31945  23439379.8804         32.3004 
        32.3004 
 115078427.72947  21898697.766    89671491.72247  21898694.2104         42.1004 
        42.0004 
 15 12 31  0 14  0.0000000  0  8G02G09G06G19G05G12G23G17
 114655187.43446  21818156.913    89341705.19446  21818150.2474         41.7004 
        41.8004 
 110533510.70347  21033825.576    86130006.43447  21033824.2784         47.0004 
        46.4004 
 107123755.45548  20384971.981    83473045.75847  20384971.1464         48.1004 
        47.8004 
 123298408.38845  23462910.569    96076672.25245  23462906.6714         34.8004 
        34.7004 
 119911875.72446  22818468.480    93437827.88146  22818465.1724         38.3004 
        38.3004 
 125939392.53045  23965474.076    98134584.89445  23965471.6704         32.2004 
        32.3004 
 123221677.78345  23448308.201    96016890.15345  23448302.6044         32.1004 
        32.2004 
 115142428.39846  21910876.193    89721362.34246  21910873.7624         41.9004 
        41.8004 
 15 12 31  0 14 30.0000000  0  8G02G09G06G19G05G12G23G17
 114564166.02946  21800836.216    89270779.41146  21800829.5784         41.4004 
        41.9004 
 110529589.60647  21033079.489    86126951.01947  21033078.0174         46.8004 
        46.3004 
 107093168.18248  20379151.485    83449211.50748  20379150.4554         48.5004 
        48.5004 
 123377702.28745  23477999.643    96138459.66545  23477995.7274         34.7004 
        34.7004 
 119812784.97146  22799611.867    93360614.32646  22799608.8034         38.0004 
        38.0004 
 125953194.59645  23968101.122    98145339.71045  23968098.0094         32.8004 
        32.9004 
 123268919.69645  23457297.396    96053701.95945  23457292.4194         31.8004 
        31.9004 
 115206777.90247  21923122.155    89771504.77047  21923119.3624         42.5004 
        42.4004 
 15 12 31  0 15  0.0000000  0  8G02G09G06G19G05G12G23G17
 114473220.79246  21783530.022    89199912.98046  21783523.7424         41.8004 
        41.7004 
 110526247.16347  21032443.067    86124346.51047  21032441.7554         46.6004 
        45.8004 
 107062855.56548  20373383.265    83425591.27448  20373382.3614         49.7004 
        48.9004 
 123457165.09145  23493121.314    96200378.65445  23493118.2864         35.5004 
        35.5004 
 119713927.99946  22780800.338    93283582.94346  22780797.1974         38.1004 
        38.2004 
 125967412.54145  23970806.544    98156418.60145  23970803.1464         32.4004 
        32.4004 
 123316511.35645  23466353.918    96090786.29145  23466349.0124         31.4004 
        31.8004 
 115271475.20947  21935433.871    89821918.19647  21935430.6004         42.0004 
        42.1004 
 15 12 31  0 15 30.0000000  0  9G02G09G07G06G19G05G12G23G17
 114382350.09246  21766237.763    89129104.63346  21766231.3124         41.6004 
        41.6004 
 110523479.57747  21031916.979    86122189.94047  21031915.2894         46.9004 
        46.6004 
 131759234.134 6  25072947.460                                          39.400  
                
 107032815.77648  20367667.095    83402183.64248  20367666.3004         49.0004 
        49.0004 
 123536791.54945  23508273.718    96262425.15945  23508269.6414         34.9004 
        35.0004 
 119615302.25346  22762032.587    93206731.74046  22762029.3464         38.4004 
        38.3004 
 125982040.96645  23973590.181    98167817.34445  23973586.2244         32.3004 
        32.3004 
 123364447.74445  23475476.394    96128139.24145  23475471.0814         31.2004 
        31.3004 
 115336515.20646  21947810.616    89872598.64846  21947806.3464         41.0004 
        40.9004 
 15 12 31  0 16  0.0000000  0  9G02G09G07G06G19G05G12G23G17
 114291557.46646  21748960.558    89058357.12446  21748953.8234         41.9004 
        41.8004 
 110521288.34147  21031500.081    86120482.47347  21031498.0784         47.0004 
        46.6004 
 131665696.172 6  25055148.530                                          40.600  
                
 107003052.23348  20362003.000    83378991.25747  20362002.4964         48.3004 
        47.7004 
 123616582.28245  23523457.588    96324599.66045  23523453.0054         35.0004 
        35.2004 
 119516910.58446  22743309.170    93130062.92446  22743305.8024         38.0004 
        38.0004 
 125997079.98345  23976451.708    98179536.03745  23976447.3254         31.5004 
        31.7004 
 123412729.22645  23484663.699    96165761.09345  23484658.3544         30.8004 
        30.9004 
 115401898.39146  21960251.651    89923546.51846  21960248.5504         40.7004 
        40.4004 
 15 12 31  0 16 30.0000000  0  9G02G09G07G06G19G05G12G23G17
 114200842.42446  21731697.990    88987670.06746  21731691.2204         41.7004 
        41.6004 
 110519670.84047  21031191.948    86119222.06947  21031190.0934         46.4004 
        46.2004 
 131572138.690 6  25037343.659                                          36.600  
                
 106973564.34848  20356392.027    83356013.67848  20356390.9884         49.3004 
        48.5004 
 123696533.45646  23538672.874    96386899.18746  23538668.1434         36.4004 
        36.5004 
 119418751.36346  22724630.018    93053575.24546  22724627.1134         38.2004 
        38.2004 
 126012525.92645  23979391.565    98191571.82445  23979387.2984         30.7004 
        30.8004 
 123461352.01745  23493917.033    96203648.90545  23493911.1834         30.3004 
        30.5004 
 115467620.37046  21972758.661    89974758.39246  21972754.7454         40.6004 
        40.3004 
 15 12 31  0 17  0.0000000  0  9G02G09G07G06G19G05G12G23G17
 114110208.33847  21714450.950    88917046.09346  21714444.2224         42.0004 
        41.7004 
 110518627.82647  21030993.597    86118409.32147  21030991.5334         46.4004 
        46.4004 
 131478566.302 6  25019538.186                                          38.400  
                
 106944354.90448  20350833.400    83333253.06548  20350832.6504         49.3004 
        48.5004 
 123776644.24145  23553916.292    96449323.09145  23553913.2874         35.0004 
        35.0004 
 119320826.71946  22705995.636    92977270.35446  22705992.2364         37.7004 
        37.9004 
 126028377.57345  23982407.426    98203923.74645  23982403.9404         31.0004 
        31.0004 
 123510315.47745  23503234.547    96241802.17345  23503229.4454         30.6004 
        30.5004 
 115533680.44046  21985329.884    90026233.71646  21985326.1304         41.4004 
        41.4004 
 15 12 31  0 17 30.0000000  0  9G02G09G07G06G19G05G12G23G17
 115595077.45546  21997012.172    90074086.94846  21997005.2134         41.8004 
        41.7004 
 112093576.36547  21330696.487    87345641.93247  21330694.6954         47.1004 
        46.6004 
 132960402.371 6  25301522.474                                          40.000  
                
 108490843.98248  20645120.399    84538309.48748  20645119.7894         49.6004 
        48.7004 
 125432327.66345  23868982.071    97739465.94945  23868978.6714         34.2004 
        34.2004 
 120798558.31946  22987198.484    94128749.54246  22987195.4484         37.3004 
        37.5004 
 127620049.50245  24285292.022    99444187.55245  24285289.8654         31.0004 
        30.8004 
 125135033.93045  23812408.530    97507816.48145  23812403.7824         30.9004 
        30.9004 
 117175492.00047  22297756.286    91305567.33946  22297753.0164         42.0004 
        41.7004 
 15 12 31  0 18  0.0000000  0  9G02G09G07G06G19G05G12G23G17
 115504604.24147  21979795.391    90003588.33547  21979788.7644         42.1004 
        42.1004 
 112093674.77347  21330715.053    87345718.60247  21330713.6614         46.9004 
        46.5004 
 132866803.110 6  25283710.627                                          40.400  
                
 108462190.05048  20639668.084    84515981.73948  20639667.1544         49.0004 
        48.7004 
 125512746.62545  23884285.567    97802130.01745  23884281.3144         33.9004 
        33.6004 
 120701099.14346  22968652.499    94052807.34846  22968648.8284         37.3004 
        37.2004 
 127636700.73145  24288461.137    99457162.50145  24288457.9144         31.6004 
        31.5004 
 125184667.65745  23821853.136    97546492.04945  23821848.2974         31.2004 
        31.2004 
 117242216.63646  22310453.492    91357560.51346  22310450.5244         41.4004 
        41.3004 
 15 12 31  0 18 30.0000000  0  9G02G09G07G06G19G05G12G23G17
 115414213.52647  21962594.975    89933154.00847  21962588.2194         42.4004 
        42.2004 
 112094342.57847  21330842.150    87346238.95247  21330840.4614         46.4004 
        46.0004 
 132773194.914 6  25265897.698                                          39.800  
                
 108433815.64048  20634268.650    84493871.80448  20634267.6474         49.3004 
        49.3004 
 125593316.70545  23899617.647    97864911.82845  23899612.8334         34.3004 
        34.2004 
 120603873.28646  22950151.667    93977046.95146  22950147.7184         37.2004 
        37.2004 
 127653748.59445  24291705.637    99470446.51345  24291703.1354         31.4004 
        31.5004 
 125234633.63145  23831361.743    97585426.49845  23831356.6534         31.3004 
        31.3004 
 117309270.38846  22323213.451    91409810.13446  22323210.2714         41.0004 
        40.8004 
 15 12 31  0 19  0.0000000  0  9G02G09G07G06G19G05G12G23G17
 115323906.84147  21945410.040    89862785.15947  21945403.6224         42.5004 
        42.6004 
 112095578.69147  21331077.324    87347202.14347  21331075.5804         46.3004 
        46.1004 
 132679580.567 6  25248082.908                                          37.000  
                
 108405721.83148  20628922.468    84471980.51748  20628921.4914         48.5004 
        48.0004 
 125674035.46945  23914978.884    97927809.47445  23914973.7034         35.9004 
        35.8004 
 120506881.29246  22931694.204    93901468.80346  22931690.3634         37.3004 
        37.3004 
 127671190.56645  24295025.174    99484037.59145  24295021.9244         32.6004 
        32.4004 
 125284929.59845  23840932.889    97624618.09845  23840926.7614         30.9004 
        31.1004 
 117376650.72046  22336035.801    91462314.23446  22336031.3234         40.7004 
        40.5004 
 15 12 31  0 19 30.0000000  0  9G02G09G07G06G19G05G12G23G17
 115233685.04047  21928241.737    89792482.44947  21928234.9954         42.9004 
        42.7004 
 112097381.63947  21331420.856    87348607.01547  21331418.4514         46.7004 
        46.2004 
 132585962.258 6  25230268.044                                          36.900  
                
 108377909.20348  20623629.481    84450308.33248  20623628.8584         49.4004 
        48.4004 
 125754900.33345  23930367.483    97990820.94345  23930362.4564         35.3004 
        35.2004 
 120410122.66346  22913281.377    93826072.50046  22913277.5684         37.1004 
        37.1004 
 127689023.75145  24298417.573    99497933.51945  24298415.4274         31.8004 
        31.4004 
 125335552.70745  23850565.459    97664064.61645  23850560.6024         30.4004 
        30.5004 
 117444354.66146  22348919.879    91515070.48346  22348914.9634         40.6004 
        40.8004 
 15 12 31  0 20  0.0000000  0  9G02G09G07G06G19G05G12G23G17
 115143548.53347  21911089.217    89722246.19847  21911082.0674         42.5004 
        42.2004 
 112099749.71247  21331871.321    87350452.25147  21331869.0834         46.8004 
        46.5004 
 132492342.285 6  25212453.686                                          40.100  
                
 108350378.31648  20618390.590    84428855.67848  20618389.7714         49.6004 
        48.8004 
 125835908.45245  23945781.544    98053944.05045  23945778.4024         33.9004 
        34.2004 
 120313597.12946  22894913.460    93750857.83946  22894909.5864         37.0004 
        37.0004 
 127707244.85745  24301886.277    99512131.72945  24301882.9344         32.5004 
        32.4004 
 125386500.37645  23860260.347    97703764.01345  23860255.5334         30.1004 
        30.3004 
 117512379.33746  22361864.457    91568076.64046  22361860.5334         40.9004 
        40.7004 
 15 12 31  0 20 30.0000000  0  9G02G09G07G06G19G05G12G23G17
 115053499.42147  21893953.136    89652078.05447  21893946.4414         42.7004 
        42.8004 
 112102682.18847  21332428.932    87352737.28347  21332427.0584         45.9004 
        45.7004 
 132398723.897 6  25194637.255                                          40.200  
                
 108323130.48148  20613205.390    84407623.59048  20613204.5814         48.7004 
        48.1004 
 125917057.88845  23961223.523    98117177.30545  23961220.3764         33.9004 
        33.9004 
 120217305.60446  22876590.508    93675825.50146  22876585.7514         36.8004 
        36.9004 
 127725851.63345  24305426.563    99526630.46345  24305424.1964         32.1004 
        32.0004 
 125437770.68344  23870017.309    97743714.82644  23870010.7264         29.9004 
        29.9004 
 117580722.43946  22374869.637    91621330.94746  22374866.1324         41.3004 
        41.0004 
 15 12 31  0 21  0.0000000  0  9G02G09G07G06G19G05G12G23G17
 114963539.90347  21876834.810    89581979.72747  21876828.0534         43.2004 
        43.2004 
 112106178.65247  21333094.829    87355461.77247  21333092.3104         46.0004 
        46.1004 
 132305110.662 6  25176823.068                                          38.400  
                
 108296167.61448  20608074.570    84386613.55648  20608073.6404         49.0004 
        48.6004 
 125998347.25445  23976693.100    98180519.58145  23976689.4704         34.2004 
        33.9004 
 120121248.89146  22858310.168    93600976.14346  22858307.3954         36.2004 
        36.3004 
 127744843.17745  24309039.947    99541429.02745  24309037.8254         31.1004 
        30.8004 
 125489362.12444  23879834.648    97783915.86544  23879829.0424         29.5004 
        29.8004 
 117649382.77146  22387934.452    91674832.45446  22387932.3294         41.2004 
        40.9004 
 15 12 31  0 21 30.0000000  0  9G02G09G07G06G19G05G12G23G17
 114873673.96447  21859733.829    89511954.31347  21859727.1164         43.3004 
        43.0004 
 112110240.78447  21333867.718    87358627.05347  21333865.3204         46.1004 
        45.9004 
 132211507.977 6  25159010.153                                          38.300  
                
 108269493.57148  20602998.704    84365828.58148  20602997.8674         48.1004 
        48.1004 
 126079776.92245  23992189.214    98243971.21145  23992184.7014         34.6004 
        34.6004 
 120025429.97745  22840076.426    93526312.08645  22840073.3024         35.7004 
        35.5004 
 127764219.25045  24312727.682    99556527.24145  24312724.7854         30.6004 
        30.6004 
 125541275.29245  23889713.864    97824367.59945  23889708.3364         30.3004 
        30.2004 
 117718360.60546  22401060.615    91728581.36446  22401059.0784         41.5004 
        41.4004 
 15 12 31  0 22  0.0000000  0  9G02G09G07G06G19G05G12G23G17
 114783902.73047  21842650.872    89442002.70147  21842644.1924         43.2004 
        43.2004 
 112114867.08247  21334748.183    87362231.93347  21334745.9404         46.0004 
        45.9004 
 132117918.477 6  25141200.339                                          38.900  
                
 108243109.04748  20597978.203    84345269.20547  20597977.0334         48.7004 
        47.8004 
 126161344.86945  24007711.573    98307530.58145  24007707.3734         35.3004 
        35.3004 
 119929848.80145  22821888.461    93451833.27145  22821885.1514         35.8004 
        35.8004 
 127783976.92345  24316487.857    99571922.77045  24316485.0674         30.8004 
        30.9004 
 125593507.58845  23899653.925    97865067.97945  23899647.3694         30.0004 
        30.1004 
 117787653.31646  22414247.042    91782575.62346  22414244.8934         41.4004 
        41.1004 
 15 12 31  0 22 30.0000000  0  9G02G09G07G06G19G05G12G23G17
 114694229.00347  21825586.468    89372127.06647  21825579.8144         43.6004 
        43.4004 
 112120057.79147  21335735.995    87366276.61047  21335733.5904         46.0004 
        45.9004 
 132024346.353 6  25123394.799                                          40.000  
                
 108217016.60248  20593013.017    84324937.41747  20593011.8214         48.2004 
        47.8004 
 126243050.14345  24023259.564    98371196.91145  24023255.2294         34.5004 
        34.6004 
 119834507.18345  22803745.109    93377541.10845  22803741.9424         35.9004 
        35.9004 
 127804115.02044  24320319.740    99587614.78544  24320314.9114         29.6004 
        29.5004 
 125646058.33144  23909653.521    97906016.51144  23909648.0074         29.7004 
        29.7004 
 117857259.31846  22427492.515    91836814.01046  22427489.8774         40.9004 
        40.8004 
 15 12 31  0 23  0.0000000  0  9G02G09G07G06G19G05G12G23G17
 114604650.62247  21808540.593    89302325.72147  21808533.8474         43.3004 
        43.4004 
 112125808.10347  21336830.241    87370757.34247  21336827.7914         46.2004 
        45.9004 
 131930791.063 6  25105591.347                                          40.100  
                
 108191213.64548  20588102.636    84304831.20848  20588101.7094         48.5004 
        48.1004 
 126324886.78445  24038832.136    98434965.61245  24038828.6364         34.5004 
        34.6004 
 119739401.67746  22785647.535    93303432.93246  22785643.5864         36.4004 
        36.5004 
 127824627.51744  24324223.745    99603598.52844  24324219.5024         28.0004 
        27.9004 
 125698921.79645  23919713.763    97947208.71444  23919707.8574         30.0004 
        29.8004 
 117927172.57946  22440796.676    91891291.81446  22440793.8624         40.5004 
        40.4004 
 15 12 31  0 23 30.0000000  0  9G02G09G07G06G19G05G12G23G17
 114515168.51447  21791512.437    89232599.39447  21791505.9004         43.7004 
        43.7004 
 112132116.57547  21338030.450    87375673.00547  21338028.2894         46.0004 
        46.0004 
 131837254.968 6  25087792.309                                          39.300  
                
 108165701.07648  20583247.990    84284951.27048  20583246.9914         49.1004 
        48.9004 
 126406852.48345  24054429.666    98498834.86445  24054426.0154         33.9004 
        34.0004 
 119644532.26346  22767594.368    93229508.72846  22767591.3584         36.8004 
        36.9004 
 127845511.92044  24328196.923    99619872.03244  24328194.2844         27.2004 
        27.7004 
 125752095.49345  23929831.794    97988642.65545  23929827.1054         30.0004 
        30.1004 
 117997391.02146  22454158.823    91946007.42846  22454155.3984         40.0004 
        39.9004 
 15 12 31  0 24  0.0000000  0  9G02G09G07G06G19G05G12G23G17
 114425787.24047  21774503.899    89162951.63747  21774497.0894         43.6004 
        43.8004 
 112138984.76247  21339337.910    87381024.81047  21339335.3184         45.7004 
        45.7004 
 131743743.938 6  25069998.495                                          40.800  
                
 108140482.76748  20578449.287    84265300.62748  20578448.3314         49.3004 
        49.0004 
 126488947.75745  24070051.908    98562805.13345  24070049.2704         33.5004 
        33.7004 
 119549902.01146  22749587.154    93155770.88346  22749583.9024         37.1004 
        37.0004 
 127866768.34044  24332242.829    99636435.43244  24332239.8614         26.1004 
        26.7004 
 125805580.06345  23940009.672    98030318.82845  23940005.4204         30.2004 
        30.0004 
 118067914.82346  22467579.385    92000960.96246  22467575.6884         40.0004 
        40.0004 
 15 12 31  0 24 30.0000000  0  9G02G09G07G06G19G05G12G23G17
 114336499.30147  21757513.146    89093376.61447  21757506.3754         43.7004 
        43.9004 
 112146402.16847  21340749.502    87386804.58247  21340746.9784         45.7004 
        46.1004 
 131650251.484 6  25052207.309                                          41.800  
                
 108115550.55148  20573704.549    84245872.91748  20573703.8964         48.5004 
        48.4004 
 126571161.20945  24085697.099    98626867.44745  24085693.9674         34.4004 
        34.3004 
 119455501.89246  22731622.986    93082212.35346  22731619.9424         36.7004 
        36.8004 
 127888384.82344  24336356.128    99653279.40644  24336352.7514         26.1004 
        24.7004 
 125859364.05345  23950244.107    98072228.32445  23950240.3974         30.3004 
        30.3004 
 118138732.43246  22481055.600    92056143.44646  22481051.7704         40.3004 
        40.0004 
 15 12 31  0 25  0.0000000  0  9G02G09G07G06G19G05G12G23G17
 114247311.27247  21740540.863    89023879.44547  21740534.6314         44.1004 
        44.0004 
 112154373.07347  21342266.337    87393015.64847  21342263.6774         45.5004 
        46.0004 
 131556786.049 6  25034421.806                                          41.800  
                
 108090911.07948  20569015.844    84226673.31648  20569015.0994         49.0004 
        48.8004 
 126653496.12745  24101364.695    98691024.44045  24101361.1024         33.7004 
        33.7004 
 119361337.79445  22713703.769    93008837.75245  22713701.4054         35.6004 
        35.4004 
 127910364.55944  24340539.017    99670406.38344  24340536.4354         24.1004 
        24.7004 
 125913450.73845  23960536.989    98114373.66445  23960532.8564         30.3004 
        30.4004 
 118209846.50246  22494589.041    92111556.93546  22494585.1774         41.0004 
        41.1004 
 15 12 31  0 25 30.0000000  0  9G02G09G07G06G19G05G12G23G17
 114158222.45247  21723588.530    88954459.58247  21723581.3774         43.7004 
        43.7004 
 112162894.02147  21343887.629    87399655.32247  21343884.9884         46.2004 
        46.2004 
 131463348.075 6  25016641.996                                          41.300  
                
 108066563.26948  20564382.524    84207700.97748  20564381.9234         49.2004 
        48.9004 
 126735948.06845  24117055.409    98755272.60245  24117050.2754         34.3004 
        34.5004 
 119267407.81145  22695830.079    92935645.58145  22695826.6344         35.5004 
        35.5004 
 127932702.63844  24344790.165    99687812.64444  24344784.0224         24.5004 
        24.3004 
 125967835.50145  23970886.644    98156751.28445  23970881.1754         30.7004 
        30.5004 
 118281252.45646  22508176.578    92167197.88546  22508173.6504         40.8004 
        40.9004 
 15 12 31  0 26  0.0000000  0  9G02G09G07G06G19G05G12G23G17
 114069238.44147  21706655.156    88885121.38247  21706648.1014         43.6004 
        43.7004 
 112171967.74847  21345613.958    87406725.73147  21345611.9374         45.8004 
        45.7004 
 131369944.629 6  24998867.788                                          41.000  
                
 108042512.24448  20559805.676    84188959.91348  20559805.2164         49.6004 
        49.1004 
 126818518.89245  24132767.591    98819613.40345  24132762.5594         33.0004 
        32.6004 
 119173716.07545  22677999.829    92862639.02645  22677997.3094         33.6004 
        33.6004 
 127955400.48243  24349108.251    99705499.25743  24349102.9784         22.8004 
        23.0004 
 126022520.35445  23981292.552    98199362.73245  23981287.7654         30.9004 
        30.9004 
 118352952.07846  22521820.500    92223067.67046  22521817.4134         40.4004 
        40.1004 
 15 12 31  0 26 30.0000000  0  9G02G09G07G06G19G05G12G23G17
 113980360.74247  21689742.466    88815866.01147  21689735.0964         43.5004 
        43.5004 
 112181592.89247  21347445.641    87414225.80547  21347443.8774         45.8004 
        45.7004 
 131276578.816 6  24981100.305                                          41.900  
                
 108018759.09848  20555285.568    84170450.95348  20555285.0904         49.5004 
        50.2004 
 126901206.59645  24148502.416    98884045.28145  24148498.8924         32.9004 
        32.9004 
 119080262.63245  22660216.600    92789818.18645  22660214.0324         33.3004 
        33.0004 
 127978455.91343  24353496.486    99723464.49043  24353491.3414         22.5004 
        22.8004 
 126077503.21345  23991756.430    98242206.39245  23991750.5854         30.7004 
        30.6004 
 118424942.97046  22535519.580    92279164.43046  22535516.4914         39.3004 
        39.3004 
 15 12 31  0 27  0.0000000  0  9G02G09G07G06G19G05G12G23G17
 113891588.08647  21672849.159    88746692.49847  21672842.3444         43.7004 
        43.6004 
 112191765.19147  21349381.222    87422152.24447  21349379.4844         45.6004 
        46.1004 
 131183250.490 7  24963341.540                                          42.200  
                
 107995301.93348  20550822.421    84152172.61548  20550821.4114         50.0004 
        49.5004 
 126984005.69845  24164258.924    98948563.96545  24164255.0934         32.4004 
        32.3004 
 118987045.21045  22642478.178    92717181.21445  22642474.8214         33.1004 
        33.1004 
 128001863.26844  24357949.722    99741703.94143  24357946.9724         24.2004 
        22.8004 
 126132778.72945  24002274.444    98285278.09845  24002269.3014         30.6004 
        30.6004 
 118497219.48346  22549273.676    92335483.72846  22549270.3934         39.6004 
        39.4004 
 15 12 31  0 27 30.0000000  0  9G02G09G07G06G19G05G12G23G17
 113802926.13747  21655977.555    88677605.25447  21655970.7854         43.9004 
        43.8004 
 112202487.32547  21351421.847    87430507.12647  21351419.8564         45.6004 
        45.3004 
 131089966.133 6  24945589.218                                          41.700  
                
 107972145.92148  20546416.006    84134128.94048  20546414.8874         49.5004 
        48.9004 
 127066918.33445  24180036.360    99013171.10845  24180032.8384         33.7004 
        33.7004 
 118894067.73045  22624785.251    92644731.24545  22624781.7704         33.2004 
        33.2004 
 128025623.63044  24362472.776    99760218.45144  24362468.4414         25.5004 
        24.3004 
 126188348.98645  24012849.413    98328579.48545  24012844.2444         30.9004 
        30.6004 
 118569783.09846  22563081.814    92392026.73246  22563079.5184         39.5004 
        39.2004 
 15 12 31  0 28  0.0000000  0  9G02G09G07G06G19G05G12G23G17
 113714373.43647  21639126.604    88608603.13247  21639119.9354         43.9004 
        43.4004 
 112213755.01947  21353565.976    87439287.12047  21353564.0634         45.8004 
        45.6004 
 130996725.912 6  24927845.476                                          41.300  
                
 107949289.23448  20542066.134    84116318.50948  20542065.3454         49.6004 
        49.2004 
 127149939.19145  24195835.466    99077862.57145  24195829.9464         32.9004 
        33.0004 
 118801327.74245  22607137.149    92572466.33045  22607133.6444         33.5004 
        33.4004 
 128049731.51544  24367060.123    99779003.76744  24367057.3364         27.4004 
        26.3004 
 126244208.56945  24023479.351    98372106.32545  24023474.0224         30.7004 
        30.7004 
 118642628.62146  22576944.370    92448789.41446  22576940.1034         38.8004 
        38.8004 
 15 12 31  0 28 30.0000000  0  9G02G09G07G06G19G05G12G23G17
 113625934.06547  21622296.462    88539689.32747  21622290.3944         43.5004 
        43.7004 
 112225569.65447  21355813.959    87448493.29847  21355812.4504         46.2004 
        46.0004 
 130903535.659 6  24910111.408                                          40.200  
                
 107926735.72348  20537774.377    84098744.31448  20537773.5864         48.4004 
        48.8004 
 127233069.18045  24211654.153    99142639.08545  24211650.4744         32.7004 
        32.8004 
 118708828.08545  22589535.919    92500388.69145  22589532.1784         35.6004 
        35.6004 
 128074187.07544  24371713.078    99798059.97544  24371710.5674         27.7004 
        27.7004 
 126300358.34745  24034164.986    98415859.28345  24034159.3844         30.8004 
        30.7004 
 118715756.77146  22590860.079    92505772.33046  22590856.3444         38.5004 
        38.3004 
 15 12 31  0 29  0.0000000  0  9G02G09G07G06G19G05G12G23G17
 113537605.79647  21605488.465    88470862.09247  21605481.9374         43.7004 
        43.5004 
 112237925.78947  21358165.642    87458121.42447  21358163.9914         46.6004 
        46.5004 
 130810394.837 6  24892387.943                                          40.800  
                
 107904482.53148  20533539.796    84081404.14048  20533538.9284         49.3004 
        48.7004 
 127316302.61945  24227492.985    99207496.20545  24227489.9464         32.9004 
        32.8004 
 118616565.27746  22571979.286    92428495.59246  22571975.7344         37.0004 
        36.7004 
 128098984.42944  24376432.894    99817382.54044  24376429.9714         27.3004 
        27.5004 
 126356791.92545  24044903.596    98459833.39545  24044898.9024         31.2004 
        31.1004 
 118789160.55146  22604828.105    92562970.02446  22604824.5424         38.7004 
        38.7004 
 15 12 31  0 29 30.0000000  0  9G02G09G07G06G19G05G12G23G17
 113449389.86047  21588701.526    88402122.38947  21588695.1534         43.8004 
        43.5004 
 112250821.90847  21360619.967    87468170.32547  21360618.0464         46.2004 
        46.1004 
 130717305.613 7  24874673.765                                          42.700  
                
 107882530.61748  20529362.482    84064298.72148  20529361.6314         49.0004 
        48.4004 
 127399636.71245  24243350.450    99272431.78745  24243348.4064         32.5004 
        32.4004 
 118524539.12846  22554467.075    92356786.91246  22554463.7354         37.7004 
        37.6004 
 128124120.08944  24381214.193    99836968.73444  24381212.7854         26.5004 
        26.7004 
 126413506.90845  24055695.386    98504026.79245  24055691.1434         31.0004 
        31.2004 
 118862837.12546  22618848.321    92620380.28346  22618845.0504         38.4004 
        38.4004 
 15 12 31  0 30  0.0000000  0  9G02G09G07G06G19G05G12G23G17
 113361289.70747  21571936.808    88333472.90547  21571930.4854         43.7004 
        43.5004 
 112264258.24247  21363176.520    87478640.16447  21363175.0664         46.3004 
        46.0004 
 130624272.710 6  24856970.678                                          41.400  
                
 107860882.75748  20525243.358    84047430.23347  20525242.1924         48.4004 
        47.9004 
 127483070.27845  24259227.750    99337444.86845  24259224.8594         33.0004 
        32.9004 
 118432751.50146  22537000.878    92285264.07946  22536997.1684         37.7004 
        37.8004 
 128149593.61844  24386062.785    99856818.16344  24386060.2134         25.5004 
        25.5004 
 126470502.89745  24066542.206    98548439.16445  24066536.8724         31.5004 
        31.1004 
 118936786.20946  22632920.768    92678002.89146  22632917.6204         38.9004 
        38.7004 
 15 12 31  0 30 30.0000000  0  9G02G09G07G06G19G05G12G23G17
 113273309.35347  21555194.165    88264916.77847  21555188.1644         44.0004 
        43.9004 
 112278235.51647  21365836.296    87489531.52147  21365834.9944         47.1004 
        46.8004 
 130531301.209 6  24839278.256                                          41.800  
                
 107839542.22648  20521182.338    84030801.21548  20521181.3064         49.4004 
        49.4004 
 127566603.79345  24275123.575    99402535.79245  24275119.7634         32.4004 
        32.4004 
 118341204.59146  22519579.142    92213928.83546  22519576.1384         37.2004 
        37.1004 
 128175404.12743  24390974.455    99876930.20943  24390970.5094         23.5004 
        23.4004 
 126527779.88345  24077441.090    98593070.48245  24077436.4434         31.6004 
        31.6004 
 119011007.04046  22647044.567    92735837.23146  22647041.5424         39.2004 
        39.1004 
 15 12 31  0 31  0.0000000  0  9G02G09G07G06G19G05G12G23G17
 113185446.72247  21538474.704    88196452.37847  21538468.0154         44.0004 
        44.0004 
 112292748.85047  21368598.185    87500840.58247  21368596.6124         47.0004 
        46.0004 
 130438390.745 6  24821598.018                                          41.400  
                
 107818506.71548  20517179.314    84014409.88548  20517178.4254         48.8004 
        48.3004 
 127650231.94145  24291037.782    99467700.50145  24291034.4514         31.9004 
        32.0004 
 118249895.58746  22502203.668    92142778.97246  22502200.5344         37.1004 
        37.0004 
 128201545.22543  24395947.288    99897299.85443  24395945.0994         20.2004 
        23.4004 
 126585332.21745  24088393.149    98637916.37245  24088388.5504         31.3004 
        31.3004 
 119085494.05046  22661218.802    92793879.00346  22661216.6534         39.2004 
        39.2004 
 15 12 31  0 31 30.0000000  0  9G02G09G07G06G19G05G12G23G17
 113097699.96647  21521777.727    88128078.26647  21521770.5764         44.8004 
        44.8004 
 112307793.31347  21371460.973    87512563.50547  21371459.4314         46.5004 
        45.8004 
 130345540.823 7  24803929.117                                          42.400  
                
 107797773.89048  20513233.994    83998254.40948  20513233.1004         49.4004 
        48.6004 
 127733948.69145  24306969.047    99532934.21045  24306965.7044         32.3004 
        32.5004 
 118158821.20646  22484872.444    92071811.93546  22484869.1894         37.2004 
        36.9004 
 128228010.89143  24400984.413    99917922.40843  24400984.4054         20.2004 
        19.7004 
 126643153.94645  24099396.881    98682972.15845  24099392.5754         31.1004 
        31.1004 
 119160241.07346  22675442.128    92852123.37646  22675440.1884         38.3004 
        38.3004 
 15 12 31  0 32  0.0000000  0  9G02G09G07G06G19G05G12G23G17
 113010075.35447  21505102.816    88059799.33347  21505096.6124         44.2004 
        44.2004 
 112323371.61547  21374425.637    87524702.40947  21374423.6564         46.0004 
        45.6004 
 130252758.743 6  24786273.191                                          41.200  
                
 107777349.04648  20509347.253    83982338.92348  20509346.2494         49.1004 
        48.8004 
 127817756.28745  24322917.162    99598238.72145  24322912.5344         31.9004 
        32.0004 
 118067985.49246  22467587.871    92001030.85346  22467583.9274         37.9004 
        37.6004 
 128254803.66743  24406084.401    99938799.86943  24406081.6224         18.8004 
        18.7004 
 126701247.44345  24110450.867    98728239.71245  24110446.0414         31.1004 
        31.0004 
 119235249.96846  22689715.825    92910571.81246  22689713.1274         37.1004 
        37.2004 
 15 12 31  0 32 30.0000000  0  9G02G09G07G06G19G05G12G23G17
 112922571.42347  21488451.373    87991614.43747  21488444.8784         44.3004 
        44.2004 
 112339479.50647  21377491.011    87537253.97347  21377489.0444         45.5004 
        45.7004 
 130160044.644 6  24768631.101                                          41.900  
                
 107757230.77748  20505518.808    83966662.32848  20505517.9134         49.0004 
        48.7004 
 127901650.35345  24338880.390    99663610.62545  24338877.9294         30.9004 
        31.0004 
 117977386.66146  22450347.319    91930434.36646  22450343.7634         38.2004 
        37.9004 
 128281917.89642  24411243.621    99959927.77943  24411240.9814         17.9004 
        18.7004 
 126759608.10745  24121557.263    98773715.44845  24121551.2574         31.0004 
        31.0004 
 119310515.70846  22704039.491    92969220.38046  22704036.5994         38.1004 
        38.1004 
 15 12 31  0 33  0.0000000  0  9G02G09G07G06G19G05G12G23G17
 112835194.32047  21471824.129    87923528.37347  21471817.4274         44.2004 
        43.9004 
 112356120.00147  21380657.412    87550220.55747  21380655.5454         45.6004 
        45.1004 
 130067405.867 6  24751002.255                                          40.600  
                
 107737424.29548  20501750.119    83951228.67348  20501748.9494         48.6004 
        48.5004 
 127985632.46844  24354860.862    99729051.12645  24354858.6584         29.3004 
        30.0004 
 117887028.98646  22433153.039    91860025.79346  22433148.6094         38.3004 
        38.3004 
 128309354.73442  24416463.387    99981307.11243  24416461.4504         17.9004 
        18.9004 
 126818237.59145  24132714.081    98819400.66345  24132708.8124         31.2004 
        31.3004 
 119386039.78146  22718411.903    93028070.23546  22718407.5604         38.3004 
        38.4004 
 15 12 31  0 33 30.0000000  0  9G02G09G07G06G19G05G12G23G17
 112747939.33247  21455220.182    87855537.46247  21455213.3804         44.8004 
        44.7004 
 112373285.13547  21383923.914    87563595.94947  21383922.0564         45.4004 
        45.1004 
 129974839.243 7  24733386.481                                          42.800  
                
 107717924.52948  20498039.240    83936034.02948  20498038.3764         49.7004 
        48.5004 
 128069694.46844  24370857.937    99794553.90744  24370856.4714         29.0004 
        29.3004 
 117796906.21346  22416002.141    91789800.26146  22415999.6874         38.0004 
        38.1004 
 128337105.33143  24421742.307   100002930.92143  24421743.0204         21.4004 
        18.9004 
 126877127.51845  24143920.538    98865288.81145  24143915.0104         31.2004 
        31.3004 
 119461813.62646  22732830.459    93087114.70946  22732827.0754         37.9004 
        37.8004 
 15 12 31  0 34  0.0000000  0  9G02G09G07G06G19G05G12G23G17
 112660812.07047  21438640.028    87787646.08547  21438633.6834         44.6004 
        44.6004 
 112390977.00747  21387290.625    87577381.78647  21387288.6184         45.2004 
        44.8004 
 129882350.934 7  24715787.079                                          43.100  
                
 107698736.21748  20494387.719    83921082.07448  20494387.0354         49.0004 
        48.9004 
 128153837.77345  24386872.377    99860120.04645  24386869.9274         33.0004 
        32.6004 
 117707022.30446  22398898.019    91719760.86646  22398894.9594         37.3004 
        37.5004 
 128365171.01443  24427084.624   100024800.24343  24427082.9054         20.7004 
        20.9004 
 126936279.21245  24155176.915    98911380.92645  24155171.3034         31.1004 
        31.1004 
 119537838.54146  22747297.709    93146354.84046  22747294.4734         38.3004 
        38.1004 
 15 12 31  0 34 30.0000000  0  9G02G09G07G06G19G05G12G23G17
 112573812.79947  21422084.754    87719854.43547  21422078.6074         44.6004 
        44.4004 
 112409192.76947  21390756.540    87591575.84647  21390755.3344         45.8004 
        45.2004 
 129789943.020 6  24698201.761                                          41.900  
                
 107679859.15948  20490795.551    83906372.65748  20490794.8824         49.0004 
        49.0004 
 128238058.72145  24402899.728    99925746.68145  24402897.4454         33.1004 
        33.0004 
 117617375.93846  22381839.525    91649906.55946  22381835.4564         38.0004 
        37.7004 
 128393547.40143  24432485.185   100046911.68443  24432483.5234         20.7004 
        21.6004 
 126995689.53545  24166482.276    98957674.57745  24166477.8244         31.1004 
        31.1004 
 119614110.14346  22761811.764    93205787.21246  22761809.0774         38.2004 
        38.2004 
 15 12 31  0 35  0.0000000  0  9G02G09G07G06G19G05G12G23G17
 112486946.52447  21405555.039    87652166.41447  21405548.5234         44.8004 
        44.8004 
 112427934.25947  21394323.062    87606179.56547  21394321.7044         45.5004 
        45.5004 
 129697622.044 7  24680633.207                                          42.100  
                
 107661297.95048  20487263.514    83891909.36348  20487263.0904         49.4004 
        48.3004 
 128322358.87245  24418941.281    99991435.04045  24418938.7484         33.1004 
        33.2004 
 117527970.96346  22364825.820    91580240.35046  22364822.2184         37.2004 
        37.2004 
 128422235.35143  24437943.877   100069265.86643  24437942.8494         22.5004 
        21.6004 
 127055359.55545  24177837.149    99004170.56945  24177832.5194         31.1004 
        31.1004 
 119690630.10646  22776372.894    93265413.09046  22776371.1194         38.6004 
        38.6004 
 15 12 31  0 35 30.0000000  0  9G02G09G07G06G19G05G12G23G17
 112400210.59147  21389049.433    87584579.95847  21389043.0974         45.0004 
        45.0004 
 112447195.36247  21397988.534    87621188.18347  21397987.0774         46.1004 
        45.6004 
 129605386.255 6  24663081.985                                          41.800  
                
 107643049.12648  20483790.843    83877689.47648  20483790.4354         48.8004 
        48.8004 
 128406732.05145  24434995.921   100057180.25045  24434993.0664         32.3004 
        32.8004 
 117438802.70946  22347857.870    91510758.60246  22347854.4494         37.6004 
        37.4004 
 128451228.15043  24443462.445   100091857.58243  24443459.6534         21.7004 
        22.1004 
 127115282.61945  24189240.634    99050863.73845  24189235.0564         30.7004 
        30.7004 
 119767391.17946  22790980.317    93325226.83946  22790977.9814         38.2004 
        38.5004 
 15 12 31  0 36  0.0000000  0  9G02G09G07G06G19G05G12G23G17
 112313607.82547  21372569.745    87517097.26847  21372563.3034         44.7004 
        44.9004 
 112466975.60347  21401752.335    87636601.32547  21401750.9584         45.8004 
        45.2004 
 129513239.982 6  24645546.583                                          40.600  
                
 107625114.94048  20480378.048    83863714.76148  20480377.7454         48.6004 
        48.2004 
 128491176.79645  24451065.012   100122981.26145  24451061.1124         30.3004 
        30.5004 
 117349872.90946  22330935.535    91441462.67746  22330931.8144         38.1004 
        38.1004 
 128480523.76043  24449037.011   100114685.31043  24449033.1054         20.4004 
        20.6004 
 127175457.50345  24200691.675    99097753.13345  24200686.3984         31.0004 
        30.9004 
 119844391.79746  22805632.764    93385227.25346  22805629.6214         37.9004 
        37.8004 
 15 12 31  0 36 30.0000000  0  9G02G09G07G06G19G05G12G23G17
 112227141.71047  21356115.836    87449721.05347  21356109.0584         44.9004 
        44.6004 
 112487275.01947  21405615.209    87652419.02047  21405613.8424         45.9004 
        45.6004 
 129421187.786 7  24628029.940                                          42.400  
                
 107607498.16748  20477025.892    83849987.37548  20477025.3024         48.8004 
        48.1004 
 128575692.70944  24467148.236   100188837.72345  24467143.3574         29.9004 
        30.0004 
 117261183.46646  22314058.789    91372354.02746  22314054.7564         38.4004 
        38.2004 
 128510121.11643  24454668.767   100137748.15343  24454666.3454         20.4004 
        20.6004 
 127235883.72745  24212190.368    99144838.38245  24212185.5634         31.1004 
        31.0004 
 119921631.13346  22820330.221    93445413.67446  22820327.3854         37.0004 
        36.9004 
 15 12 31  0 37  0.0000000  0  9G02G09G07G06G19G05G12G23G17
 112140812.80647  21339688.146    87382451.75747  21339681.0034         44.5004 
        44.4004 
 112508090.95647  21409576.555    87668639.19347  21409575.0704         45.2004 
        45.3004 
 129329231.557 7  24610530.876                                          42.900  
                
 107590198.90948  20473733.798    83836507.40948  20473733.2434         48.6004 
        48.9004 
 128660276.56745  24483244.931   100254747.11845  24483240.2794         30.6004 
        30.7004 
 117172733.63046  22297226.149    91303432.10446  22297223.2564         37.4004 
        37.4004 
 128540016.44143  24460358.078   100161043.14943  24460353.1754         19.1004 
        19.2004 
 127296558.31645  24223736.119    99192117.15545  24223731.3674         30.8004 
        30.8004 
 119999105.71346  22835073.407    93505783.40046  22835070.8614         37.1004 
        37.1004 
 15 12 31  0 37 30.0000000  0  9G02G09G07G06G19G05G12G23G17
 112054623.18547  21323286.690    87315290.99247  21323279.6734         44.2004 
        44.3004 
 112529421.71247  21413635.850    87685260.53047  21413634.2324         45.7004 
        45.4004 
 129237374.392 6  24593050.923                                          41.500  
                
 107573218.22748  20470502.830    83823275.68248  20470501.9084         48.9004 
        49.0004 
 128744926.18745  24499353.337   100320707.76645  24499350.1814         31.4004 
        31.4004 
 117084523.19246  22280441.091    91234696.73046  22280437.6814         37.3004 
        37.3004 
 128570207.33443  24466103.575   100184568.46943  24466096.5804         19.1004 
        19.2004 
 127357479.12245  24235328.465    99239587.78245  24235324.2964         30.8004 
        30.9004 
 120076812.81146  22849861.337    93566334.30946  22849858.4974         37.7004 
        37.7004 
 15 12 31  0 38  0.0000000  0  9G02G09G07G06G19G05G12G23G17
 111968573.87747  21306912.067    87248239.57047  21306905.3634         45.0004 
        45.1004 
 112551265.11147  21417792.792    87702281.31747  21417790.9934         45.4004 
        45.2004 
 129145619.05244  24575590.273   100632935.65043  24575588.9334         25.3004 
        23.3004 
 107556556.70148  20467332.402    83810292.63648  20467331.5434         48.8004 
        48.0004 
 128829638.90145  24515473.568   100386717.57545  24515469.7714         31.2004 
        31.4004 
 116996551.83546  22263700.056    91166147.64246  22263696.9524         36.7004 
        36.8004 
 128600690.30042  24471904.886   100208321.36742  24471898.6174         17.1004 
        17.1004 
 127418643.10945  24246967.750    99287247.90345  24246963.6804         30.9004 
        30.8004 
 120154749.76246  22864692.120    93627064.32946  22864689.6624         37.5004 
        37.3004 
 15 12 31  0 38 30.0000000  0  9G02G09G07G06G19G05G12G23G17
 111882663.18447  21290563.778    87181296.16047  21290557.3474         44.5004 
        44.7004 
 112573615.99847  21422046.669    87719697.55547  21422044.1784         45.5004 
        45.6004 
 129053964.44744  24558149.869   100561516.60343  24558146.8584         25.3004 
        23.8004 
 107540211.94748  20464222.338    83797556.43148  20464221.1674         49.4004 
        48.7004 
 128914409.18845  24531604.369   100452772.25945  24531602.4824         30.4004 
        30.1004 
 116908816.16646  22247004.881    91097782.19346  22247001.3574         36.8004 
        36.7004 
 128631459.20642  24477760.295   100232297.08242  24477755.1994         17.2004 
        17.1004 
 127480044.82245  24258652.154    99335093.25645  24258648.8054         31.0004 
        31.0004 
 120232910.41446  22879566.584    93687968.64346  22879562.8514         36.9004 
        36.9004 
 15 12 31  0 39  0.0000000  0  9G02G09G07G06G19G05G12G23G17
 111796899.57147  21274243.402    87114467.35447  21274237.0474         45.1004 
        44.7004 
 112596479.12647  21426396.869    87737512.93847  21426395.0124         44.8004 
        44.9004 
 128962420.36344  24540729.914   100490183.65344  24540727.1474         27.9004 
        26.8004 
 107524191.54948  20461173.583    83785072.96548  20461172.5944         49.5004 
        49.5004 
 128999241.47045  24547746.966   100518875.24745  24547745.6504         30.1004 
        30.2004 
 116821323.18546  22230354.723    91029605.85146  22230352.4974         36.7004 
        36.5004 
 128662517.99042  24483668.944   100256498.67942  24483665.8254         17.2004 
        17.7004 
 127541688.74545  24270383.089    99383127.35545  24270378.8904         30.8004 
        30.8004 
 120311298.55846  22894483.136    93749050.24046  22894479.9694         36.8004 
        37.0004 
 15 12 31  0 39 30.0000000  0  9G02G09G07G06G19G05G12G23G17
 111711279.04047  21257950.517    87047750.04247  21257943.9374         45.2004 
        45.2004 
 112619847.06347  21430843.720    87755721.67247  21430841.9724         45.1004 
        44.6004 
 128870984.16944  24523329.488   100418934.75344  24523326.2724         27.7004 
        28.1004 
 107508490.88348  20458185.830    83772838.63648  20458184.7814         48.7004 
        48.6004 
 129084128.02345  24563899.872   100585020.52945  24563897.6394         30.4004 
        30.1004 
 116734067.28446  22213750.435    90961614.24246  22213747.5804         37.3004 
        37.0004 
 128693858.11343  24489633.211   100280919.48943  24489629.5414         20.5004 
        21.3004 
 127603566.78345  24282158.610    99431343.88845  24282154.1674         31.0004 
        31.0004 
 120389906.12946  22909441.373    93810302.83946  22909438.7834         36.7004 
        36.7004 
 15 12 31  0 40  0.0000000  0  9G02G09G07G06G19G05G12G23G17
 111625802.54747  21241684.635    86981144.96847  21241678.3024         45.2004 
        45.4004 
 112643717.21147  21435385.522    87774321.73747  21435384.0954         45.1004 
        45.3004 
 128779657.81444  24505950.054   100347771.41744  24505947.3754         26.6004 
        27.3004 
 107493110.12448  20455258.627    83760853.58948  20455258.1204         48.9004 
        48.8004 
 129169065.61144  24580063.361   100651205.56244  24580059.4904         29.4004 
        29.3004 
 116647047.46646  22197191.351    90893806.59046  22197188.4424         37.5004 
        37.5004 
 128725475.83443  24495650.239   100305556.62143  24495646.8614         22.1004 
        21.3004 
 127665675.57645  24293977.136    99479740.22545  24293973.0954         30.9004 
        30.8004 
 120468729.77346  22924440.686    93871723.78346  22924439.0214         36.6004 
        36.6004 
 15 12 31  0 40 30.0000000  0  9G02G09G07G06G19G05G12G23G17
 111540476.79747  21225447.664    86914657.35447  21225441.5274         45.1004 
        45.1004 
 112668092.74547  21440024.269    87793315.61047  21440022.4494         44.9004 
        44.6004 
 128688449.46744  24488592.972   100276699.99944  24488591.0674         26.5004 
        26.2004 
 107478055.33748  20452393.879    83749122.55348  20452393.3834         49.5004 
        48.7004 
 129254057.23544  24596237.241   100717432.66844  24596232.4034         29.7004 
        29.7004 
 116560268.92646  22180678.143    90826186.96846  22180675.2694         37.9004 
        37.3004 
 128757373.21843  24501720.351   100330411.67143  24501718.0764         22.7004 
        22.4004 
 127728018.56145  24305840.006    99528319.05145  24305836.8214         30.7004 
        30.6004 
 120547771.78746  22939482.210    93933314.86846  22939479.8774         36.4004 
        36.5004 
 15 12 31  0 41  0.0000000  0  9G02G09G07G06G19G05G12G23G17
 111455298.49147  21209238.983    86848284.64047  21209232.7064         45.1004 
        45.0004 
 112692966.81147  21444757.485    87812697.95547  21444755.8774         45.2004 
        45.2004 
 128597357.09344  24471259.504   100205715.95544  24471258.1414         27.0004 
        26.9004 
 107463322.46148  20449589.827    83737642.35347  20449589.9014         48.8004 
        47.9004 
 129339095.73545  24612419.226   100783696.28145  24612416.0074         30.1004 
        30.2004 
 116473726.88846  22164209.587    90758751.61846  22164206.5524         38.1004 
        38.0004 
 128789542.72543  24507841.903   100355478.74843  24507838.7754         23.0004 
        23.1004 
 127790587.95845  24317747.607    99577074.31445  24317743.0484         30.8004 
        30.9004 
 120627024.57646  22954563.607    93995070.21246  22954560.2794         36.2004 
        36.2004 
 15 12 31  0 41 30.0000000  0  9G02G09G07G06G19G05G12G23G17
 111370268.95047  21193058.208    86782027.83747  21193051.8554         44.9004 
        45.0004 
 112718337.21447  21449585.337    87832467.05747  21449583.9854         45.1004 
        45.3004 
 128506383.30544  24453947.463   100134827.35144  24453945.9224         27.2004 
        27.2004 
 107448912.18948  20446848.149    83726413.53948  20446847.7154         49.3004 
        48.3004 
 129424178.65245  24628609.848   100849994.49245  24628606.6554         30.3004 
        30.2004 
 116387421.09446  22147786.035    90691500.36646  22147783.2464         38.3004 
        38.2004 
 128821981.06143  24514014.272   100380755.33243  24514011.3064         23.0004 
        23.1004 
 127853381.31545  24329696.776    99626004.07445  24329693.1544         31.2004 
        31.2004 
 120706485.09846  22969683.567    94056987.41946  22969681.1644         36.1004 
        36.3004 
 15 12 31  0 42  0.0000000  0  9G02G09G07G06G19G05G12G23G17
 111285395.50647  21176907.426    86715892.67347  21176900.9364         45.2004 
        44.7004 
 112744207.54847  21454508.251    87852625.71447  21454507.5654         45.3004 
        45.0004 
 128415536.57144  24436659.977   100064037.70944  24436657.7844         28.2004 
        28.2004 
 107434830.95548  20444168.522    83715441.11648  20444167.9324         48.9004 
        48.3004 
 129509308.90945  24644810.350   100916329.60044  24644807.5244         30.0004 
        29.9004 
 116301357.03246  22131409.228    90624437.47446  22131405.7814         38.9004 
        39.0004 
 128854690.58243  24520238.737   100406243.20343  24520234.7724         21.7004 
        22.0004 
 127916402.17545  24341688.810    99675111.10645  24341684.5504         30.9004 
        30.6004 
 120786156.34646  22984845.191    94119068.80846  22984842.9334         36.1004 
        36.1004 
 15 12 31  0 42 30.0000000  0  9G02G09G07G06G19G05G12G23G17
 111200678.16947  21160786.386    86649879.14147  21160779.6904         44.9004 
        44.8004 
 112770574.22047  21459525.549    87873171.12347  21459525.1134         45.9004 
        45.4004 
 128324818.07344  24419396.417    99993347.96644  24419394.9064         28.0004 
        28.1004 
 107421078.07948  20441551.467    83704724.56548  20441550.9084         49.1004 
        49.2004 
 129594482.75344  24661017.997   100982698.71244  24661014.8274         29.1004 
        29.6004 
 116215532.96546  22115077.145    90557561.58046  22115073.6664         39.1004 
        39.2004 
 128887667.28543  24526514.842   100431939.27743  24526512.1354         20.7004 
        20.7004 
 127979645.69245  24353723.268    99724391.65145  24353719.9354         30.5004 
        30.5004 
 120866033.87745  23000045.338    94181310.96645  23000042.5824         35.6004 
        35.6004 
 15 12 31  0 43  0.0000000  0  9G02G09G07G06G19G05G12G23G17
 111116122.02647  21144695.833    86583991.21947  21144689.4044         44.7004 
        45.0004 
 112797438.45447  21464638.012    87894104.23947  21464637.1164         45.7004 
        45.2004 
 128234233.70244  24402159.653    99922762.75144  24402157.2694         29.6004 
        29.1004 
 107407657.62848  20438997.914    83694267.02748  20438997.2374         49.3004 
        49.0004 
 129679700.88344  24677234.709   101049102.34844  24677231.2624         28.2004 
        28.8004 
 116129952.10246  22098792.019    90490875.19046  22098788.7054         39.4004 
        39.4004 
 128920911.12043  24532840.518   100457843.51543  24532837.1684         20.7004 
        20.7004 
 128043113.39045  24365801.574    99773846.87045  24365797.5304         30.7004 
        30.8004 
 120946118.27045  23015285.072    94243714.30645  23015282.4694         34.9004 
        35.0004 
 15 12 31  0 43 30.0000000  0  9G02G09G07G06G19G05G12G23G17
 111031724.51347  21128635.408    86518226.90147  21128629.1414         45.6004 
        45.4004 
 112824794.16247  21469843.503    87915420.32347  21469842.5654         44.8004 
        45.1004 
 128143782.56145  24384946.704    99852281.31845  24384945.8154         30.1004 
        30.3004 
 107394566.38348  20436506.734    83684066.01848  20436506.0254         49.5004 
        49.0004 
 129764957.32044  24693459.771   101115535.82644  24693454.8134         29.3004 
        29.2004 
 116044610.24446  22082551.711    90424375.04346  22082548.8104         39.4004 
        39.4004 
 128954415.17143  24539216.648   100483950.47843  24539214.0374         20.5004 
        20.5004 
 128106799.00245  24377920.715    99823471.89945  24377915.9354         30.5004 
        30.6004 
 121026403.05845  23030563.500    94306273.80645  23030560.7784         35.4004 
        35.5004 
 15 12 31  0 44  0.0000000  0 10G02G09G07G06G19G05G12G30G23G17
 110947488.22547  21112606.295    86452588.21547  21112599.3064         45.3004 
        45.3004 
 112852640.17947  21475142.711    87937118.46747  21475141.4374         44.7004 
        44.2004 
 128053468.31144  24367761.017    99781906.56244  24367759.6704         29.4004 
        29.6004 
 107381806.08948  20434078.468    83674122.90248  20434077.6954         49.0004 
        48.5004 
 129850251.18244  24709690.929   101181998.43844  24709685.6574         28.9004 
        29.0004 
 115959508.34446  22066357.910    90358061.88246  22066354.4094         39.3004 
        39.2004 
 128988177.55143  24545643.195   100510258.74543  24545637.6864         21.2004 
        20.9004 
 131766537.3984   25074337.979   102675221.8024   25074342.7504          4.6004 
         1.8004 
 128170701.17145  24390081.833    99873265.66145  24390076.1754         30.6004 
        30.5004 
 121106886.15646  23045878.680    94368987.82545  23045876.2584         36.0004 
        35.9004 
 15 12 31  0 44 30.0000000  0 10G02G09G07G06G19G05G12G30G23G17
 110863412.65947  21096607.086    86387074.77347  21096600.3054         45.7004 
        45.4004 
 112880972.12747  21480534.176    87959195.25747  21480532.6894         44.6004 
        44.4004 
 127963291.45044  24350600.077    99711638.85544  24350598.0764         28.1004 
        28.2004 
 107369375.33548  20431713.098    83664436.55148  20431712.3674         49.4004 
        48.7004 
 129935577.20444  24725928.627   101248486.07844  24725923.4064         28.6004 
        28.8004 
 115874643.77946  22050207.732    90291933.65346  22050204.7964         38.5004 
        38.6004 
 129022192.69243  24552113.452   100536764.01243  24552111.5224         21.2004 
        20.9004 
 131664881.85041  25054992.171   102596009.87641  25054995.0404         10.7004 
         9.1004 
 128234814.43645  24402282.278    99923223.92245  24402277.2614         30.8004 
        30.9004 
 121187562.18046  23061230.473    94431852.16246  23061228.9524         36.2004 
        36.2004 
 15 12 31  0 45  0.0000000  0 10G02G09G07G06G19G05G12G30G23G17
 110779499.27047  21080638.752    86321687.69547  21080632.4604         45.7004 
        45.8004 
 112909787.81647  21486016.928    87981648.98747  21486016.1724         43.9004 
        43.6004 
 127873254.68244  24333466.784    99641480.33244  24333465.6304         27.1004 
        27.2004 
 107357274.85648  20429410.441    83655007.56848  20429409.9174         49.0004 
        48.4004 
 130020932.93444  24742170.949   101314996.89344  24742165.2854         29.4004 
        29.3004 
 115790016.60246  22034103.623    90225990.40346  22034100.3414         38.1004 
        38.1004 
 129056457.16643  24558631.060   100563463.55042  24558630.9784         18.9004 
        17.7004 
 131563112.48242  25035627.298   102516709.23442  25035629.8644         12.5004 
        12.0004 
 128299136.68245  24414522.125    99973345.01145  24414517.8974         31.0004 
        31.0004 
 121268428.44546  23076619.125    94494864.74446  23076616.9724         36.2004 
        36.0004 
 15 12 31  0 45 30.0000000  0 10G02G09G07G06G19G05G12G30G23G17
 110695746.60347  21064701.370    86256425.85347  21064694.7514         45.9004 
        45.7004 
 112939081.90647  21491591.573    88004475.50247  21491590.3534         43.2004 
        43.3004 
 127783357.40444  24316359.573    99571430.48844  24316358.2224         26.4004 
        26.1004 
 107345502.13448  20427170.051    83645833.97948  20427169.6334         49.2004 
        48.4004 
 130106312.92444  24758417.123   101381526.58444  24758413.5094         28.6004 
        28.1004 
 115705623.31446  22018043.985    90160229.40646  22018041.1444         38.1004 
        38.1004 
 129090965.18642  24565198.336   100590352.86042  24565198.5554         15.1004 
        17.7004 
 131461228.36743  25016240.075   102437319.09744  25016242.2214         23.2004 
        24.3004 
 128363662.67445  24426800.339   100023624.85245  24426796.8844         30.9004 
        30.9004 
 121349478.94145  23092042.550    94558020.88645  23092040.2144         35.0004 
        35.1004 
 15 12 31  0 46  0.0000000  0  9G02G09G07G06G19G05G30G23G17
 110612162.28047  21048795.374    86191295.18347  21048789.1704         46.1004 
        45.6004 
 112968858.35747  21497258.500    88027677.88147  21497256.7214         44.0004 
        43.8004 
 127693608.55344  24299280.986    99501496.30944  24299279.8524         25.5004 
        25.6004 
 107334064.05448  20424993.433    83636921.14847  20424993.0604         48.7004 
        47.8004 
 130191720.96644  24774669.881   101448078.15544  24774667.6214         28.7004 
        28.2004 
 115621469.93946  22002030.773    90094655.34046  22002028.2904         38.9004 
        38.7004 
 131359238.31844  24996831.688   102357846.39644  24996834.6254         26.8004 
        27.2004 
 128428395.60345  24439118.220   100074065.97345  24439115.6364         30.6004 
        30.6004 
 121430717.15145  23107501.441    94621323.29445  23107499.5864         34.4004 
        34.3004 
 15 12 31  0 46 30.0000000  0 10G02G09G07G06G19G05G12G30G23G17
 110528747.21447  21032921.793    86126296.41547  21032915.7634         45.5004 
        45.0004 
 112999114.19347  21503015.918    88051253.81647  21503014.3494         44.2004 
        43.9004 
 127604010.57444  24282231.949    99431679.72644  24282229.9514         27.9004 
        27.0004 
 107322960.67848  20422880.594    83628269.12148  20422880.1504         49.4004 
        48.2004 
 130277153.93644  24790927.588   101514649.11744  24790925.5314         29.7004 
        29.5004 
 115537555.64846  21986062.155    90029267.56746  21986059.7044         38.5004 
        38.4004 
 129160716.79342  24578473.698   100644704.64842  24578472.4104         14.6004 
        14.7004 
 131257144.08244  24977403.244   102278292.52844  24977405.4834         27.6004 
        26.4004 
 128493332.42245  24451476.584   100124665.94045  24451472.0914         30.6004 
        30.6004 
 121512139.19345  23122996.003    94684768.96445  23122993.8504         35.5004 
        35.4004 
 15 12 31  0 47  0.0000000  0 10G02G09G07G06G19G05G12G30G23G17
 110445499.97047  21017080.602    86061428.42047  21017074.2614         45.6004 
        45.0004 
 113029844.01347  21508863.639    88075199.08147  21508861.8784         44.5004 
        44.2004 
 127514562.66144  24265211.197    99361980.07445  24265208.0674         29.4004 
        30.4004 
 107312189.54148  20420831.050    83619875.99348  20420830.5124         48.8004 
        48.3004 
 130362606.49845  24807189.274   101581235.35245  24807186.6334         30.4004 
        30.4004 
 115453876.87046  21970138.795    89964063.32246  21970135.7524         37.9004 
        37.8004 
 129195950.19842  24585180.402   100672159.17342  24585177.0764         14.6004 
        14.1004 
 131154944.90844  24957954.975   102198653.83044  24957957.0034         24.0004 
        26.4004 
 128558467.65445  24463871.247   100175420.53145  24463866.8114         30.2004 
        30.6004 
 121593739.14445  23138523.487    94748353.23745  23138521.8874         35.1004 
        35.1004 
 15 12 31  0 47 30.0000000  0 10G02G09G07G06G19G05G12G30G23G17
 110362422.06347  21001271.876    85996692.37047  21001265.3834         45.3004 
        45.4004 
 113061045.58747  21514801.198    88099511.95747  21514799.5614         44.8004 
        44.9004 
 127425267.34945  24248217.804    99292399.33045  24248216.1304         30.5004 
        30.6004 
 107301751.34248  20418844.832    83611742.30248  20418844.1754         49.4004 
        48.0004 
 130448075.75645  24823454.064   101647834.62245  24823450.2334         30.1004 
        30.4004 
 115370433.50546  21954260.215    89899042.50346  21954256.7764         37.1004 
        37.1004 
 129231417.02342  24591929.735   100699795.58642  24591925.6924         14.2004 
        14.1004 
 131052643.37744  24938487.576   102118938.37343  24938490.7214         24.0004 
        20.8004 
 128623798.74044  24476303.168   100226327.75944  24476299.3684         29.7004 
        29.7004 
 121675514.18845  23154084.548    94812073.94545  23154083.2664         35.0004 
        35.0004 
 15 12 31  0 48  0.0000000  0 10G02G09G07G06G19G05G12G30G23G17
 110279515.65047  20985495.047    85932089.95147  20985488.7594         45.3004 
        45.2004 
 113092717.13147  21520828.407    88124191.04147  21520826.7924         45.0004 
        44.9004 
 127336128.20044  24231255.657    99222940.30244  24231253.4204         29.2004 
        29.0004 
 107291647.28848  20416921.912    83603868.98048  20416921.4534         49.3004 
        48.6004 
 130533560.08544  24839720.700   101714445.63444  24839717.4694         29.9004 
        29.8004 
 115287226.00445  21938425.485    89834205.47145  21938422.7644         35.9004 
        35.9004 
 129267114.44442  24598721.814   100727611.63142  24598719.1724         15.3004 
        14.1004 
 130950242.48143  24919000.795   102039145.60643  24919003.5284         20.3004 
        20.8004 
 128689323.91344  24488772.458   100277386.21044  24488767.8424         29.3004 
        29.4004 
 121757462.00645  23169679.606    94875929.28745  23169677.1864         35.3004 
        35.3004 
 15 12 31  0 48 30.0000000  0 10G02G09G07G06G19G05G12G30G23G17
 110196784.57247  20969751.841    85867624.15147  20969745.5154         45.6004 
        45.0004 
 113124858.61447  21526945.102    88149236.31547  21526942.9494         44.8004 
        45.1004 
 127247150.06044  24214323.233    99153606.71844  24214320.8014         27.8004 
        27.8004 
 107281880.27148  20415063.363    83596258.28348  20415062.8954         49.5004 
        48.8004 
 130619059.21044  24855990.283   101781068.17344  24855987.2404         29.0004 
        29.3004 
 115204255.85745  21922636.844    89769553.39045  21922634.4314         35.5004 
        35.3004 
 129303041.17142  24605558.833   100755606.38843  24605555.4774         15.3004 
        19.1004 
 130847746.90943  24899496.787   101959279.05543  24899498.7904         20.9004 
        21.1004 
 128755042.52644  24501277.642   100328595.40944  24501274.7654         29.3004 
        29.3004 
 121839581.70245  23185306.550    94939918.55545  23185303.8744         35.1004 
        35.2004 
 15 12 31  0 49  0.0000000  0 10G02G09G07G06G19G05G12G30G23G17
 110114227.36147  20954041.726    85803293.84247  20954035.1624         45.8004 
        45.4004 
 113157464.77047  21533149.663    88174643.67147  21533147.7144         44.4004 
        44.5004 
 127158332.58344  24197421.121    99084398.32944  24197420.4164         28.9004 
        28.6004 
 107272448.05448  20413268.472    83588908.47348  20413268.0894         49.7004 
        48.3004 
 130704568.17644  24872262.841   101847698.38244  24872259.4994         28.7004 
        29.0004 
 115121520.08245  21906892.731    89705083.95145  21906890.2684         35.6004 
        35.4004 
 129339192.11143  24612437.427   100783775.87543  24612434.3524         20.5004 
        19.1004 
 130745156.26043  24879973.589   101879338.47643  24879976.3164         20.9004 
        21.2004 
 128820949.35944  24513819.312   100379951.27944  24513816.6254         29.3004 
        29.3004 
 121921867.61845  23200965.195    95004037.33445  23200961.6924         34.4004 
        34.5004 
 15 12 31  0 49 30.0000000  0 10G02G09G07G06G19G05G12G30G23G17
 110031849.62747  20938365.894    85739103.37247  20938359.2764         45.6004 
        45.1004 
 113190537.08947  21539443.128    88200414.26647  21539441.2494         44.0004 
        44.1004 
 127069682.31644  24180552.105    99015320.22444  24180551.2924         28.9004 
        28.9004 
 107263355.07348  20411538.480    83581823.00448  20411537.8184         49.3004 
        48.9004 
 130790087.81044  24888537.951   101914336.89544  24888534.1244         28.1004 
        28.2004 
 115039022.41245  21891194.353    89640800.05545  21891191.1274         35.4004 
        35.3004 
 129375566.94243  24619360.765   100812119.82843  24619356.1024         23.1004 
        22.8004 
 130642476.86743  24860434.774   101799328.72543  24860437.8754         21.6004 
        21.2004 
 128887045.87244  24526397.523   100431454.95544  24526394.7904         29.3004 
        29.2004 
 122004320.40245  23216656.025    95068286.15045  23216652.0234         34.4004 
        34.4004 
 15 12 31  0 50  0.0000000  0 10G02G09G07G06G19G05G12G30G23G17
 109949656.07447  20922724.797    85675056.42447  20922718.7734         45.9004 
        45.4004 
 113224076.21947  21545825.450    88226548.61147  21545823.5494         44.0004 
        43.8004 
 126981205.23244  24163715.266    98946377.08744  24163714.6754         29.0004 
        28.9004 
 107254605.01548  20409873.304    83575004.74248  20409872.7414         48.9004 
        48.7004 
 130875619.59444  24904814.047   101980984.85444  24904810.2804         28.6004 
        28.6004 
 114956765.62145  21875542.378    89576703.84845  21875538.3744         35.9004 
        35.7004 
 129412165.81444  24626324.941   100840638.36244  24626321.5454         24.3004 
        24.2004 
 130539714.20344  24840878.915   101719254.11843  24840884.2134         24.0004 
        23.9004 
 128953332.52544  24539011.968   100483106.80244  24539009.4794         29.0004 
        28.9004 
 122086940.75645  23232377.284    95132665.53245  23232375.2274         33.8004 
        33.8004 
 15 12 31  0 50 30.0000000  0 10G02G09G07G06G19G05G12G30G23G17
 111443069.81747  21206912.188    86838755.42747  21206906.0904         46.0004 
        45.4004 
 114833497.55847  21852087.626    89480643.12147  21852086.4804         43.7004 
        43.6004 
 128468325.65744  24446704.920   100105172.23944  24446704.2664         29.0004 
        29.0004 
 108821617.65448  20708065.869    84796053.52048  20708065.5434         49.3004 
        49.7004 
 132536576.55844  25220882.947   103275236.85244  25220879.1604         27.9004 
        27.7004 
 116450170.90846  22159727.594    90740396.27546  22159724.2874         36.9004 
        36.9004 
 131024403.32644  24933122.299   102096927.25144  24933120.5444         25.2004 
        25.2004 
 132012293.07944  25121100.556   102866718.41144  25121106.6974         25.1004 
        24.9004 
 130595223.56744  24851453.653   101762502.32644  24851450.7144         28.8004 
        28.8004 
 123745141.56645  23547922.262    96424769.93145  23547920.8584         33.8004 
        33.8004 
 15 12 31  0 51  0.0000000  0 10G02G09G07G06G19G05G12G30G23G17
 111361244.60347  21191340.880    86774995.50147  21191335.2404         45.2004 
        45.0004 
 114867958.57947  21858645.446    89507495.82047  21858644.1614         43.6004 
        43.3004 
 128380198.02045  24429934.867   100036501.37944  24429933.6954         30.1004 
        29.3004 
 108813550.63548  20706530.839    84789767.51348  20706530.3484         48.6004 
        48.4004 
 132622119.65844  25237160.983   103341893.64044  25237158.8114         26.8004 
        26.5004 
 116368390.25846  22144165.214    90676671.05846  22144161.9534         36.4004 
        36.5004 
 131061436.64444  24940170.150   102125784.26944  24940167.6994         24.7004 
        25.2004 
 131909366.77144  25101514.334   102786516.31744  25101522.1374         24.7004 
        24.6004 
 130661878.06644  24864137.554   101814440.81244  24864134.1734         28.9004 
        28.9004 
 123828083.26745  23563705.852    96489399.71245  23563704.2374         34.1004 
        34.0004 
 15 12 31  0 51 30.0000000  0 10G02G09G07G06G19G05G12G30G23G17
 111279605.37447  21175805.866    86711380.50147  21175799.5934         45.6004 
        45.1004 
 114902876.34247  21865290.022    89534704.42647  21865289.0124         43.4004 
        43.5004 
 128292248.41345  24413198.266    99967969.28045  24413197.9624         30.3004 
        30.3004 
 108805825.46448  20705060.740    84783747.86848  20705060.2384         48.7004 
        48.1004 
 132707663.99044  25253439.676   103408551.38044  25253438.0794         26.4004 
        26.5004 
 116286846.52646  22128648.118    90613130.48546  22128644.5364         36.2004 
        36.2004 
 131098681.57444  24947258.203   102154806.17844  24947255.1264         24.7004 
        24.3004 
 131806361.70043  25081913.923   102706252.90444  25081917.8084         23.9004 
        24.6004 
 130728712.36044  24876857.061   101866519.39244  24876851.4644         29.0004 
        28.9004 
 123911180.34545  23579518.722    96554150.56445  23579517.2574         34.2004 
        34.1004 
 15 12 31  0 52  0.0000000  0 10G02G09G07G06G19G05G12G30G23G17
 111198153.92647  21160306.188    86647911.81947  21160299.9114         45.8004 
        45.4004 
 114938248.78447  21872020.816    89562267.32947  21872020.2384         43.4004 
        43.1004 
 128204479.86344  24396496.310    99899578.24144  24396495.8514         29.9004 
        29.8004 
 108798443.03748  20703655.806    84777995.29748  20703655.3274         49.5004 
        49.3004 
 132793207.77944  25269718.813   103475208.67644  25269716.1504         26.7004 
        26.6004 
 116205539.96446  22113175.888    90549774.72845  22113172.8734         36.0004 
        35.9004 
 131136135.18143  24954384.215   102183990.70643  24954381.5334         23.3004 
        22.0004 
 131703280.69543  25062299.466   102625930.27144  25062299.3394         23.9004 
        24.0004 
 130795724.27144  24889608.052   101918736.36544  24889603.4144         28.9004 
        28.8004 
 123994430.43845  23595360.446    96619020.63445  23595358.9584         33.3004 
        33.1004 
 15 12 31  0 52 30.0000000  0 10G02G09G07G06G19G05G12G30G23G17
 111116886.42047  21144841.217    86584586.47347  21144835.4084         45.3004 
        45.9004 
 114974067.76447  21878837.072    89590178.18747  21878836.5564         43.7004 
        43.0004 
 128116889.51845  24379828.922    99831326.05445  24379828.3724         30.1004 
        30.0004 
 108791398.25948  20702315.333    84772505.82648  20702314.9704         48.3004 
        48.1004 
 132878742.64644  25285996.238   103541859.02444  25285992.9244         27.3004 
        27.9004 
 116124464.41145  22097747.323    90486598.96945  22097744.6654         35.8004 
        35.7004 
 131173788.47543  24961548.306   102213330.88343  24961546.0824         19.3004 
        22.0004 
 131600120.52744  25042668.457   102545545.95243  25042667.5744         24.1004 
        23.3004 
 130862905.46244  24902392.131   101971085.26644  24902387.2584         28.6004 
        28.6004 
 124077824.67445  23611229.893    96684003.03245  23611228.1464         33.3004 
        33.2004 
 15 12 31  0 53  0.0000000  0 10G02G09G07G06G19G05G12G30G23G17
 111035813.66147  21129414.136    86521412.87647  21129408.0444         46.1004 
        45.9004 
 115010340.05747  21885739.563    89618442.26647  21885739.0614         43.6004 
        43.1004 
 128029488.91145  24363196.614    99763221.71145  24363196.1624         30.1004 
        30.0004 
 108784700.86348  20701041.333    84767287.03448  20701040.6414         48.9004 
        48.3004 
 132964275.28444  25302273.029   103608507.64144  25302270.5914         29.1004 
        29.0004 
 116043628.61445  22082364.789    90423610.04145  22082362.3364         35.5004 
        35.6004 
 131211647.54943  24968754.456   102242831.38942  24968750.6454         19.3004 
        17.9004 
 131496892.91343  25023023.347   102465109.04243  25023024.4654         22.2004 
        23.3004 
 130930262.72444  24915210.129   102023571.34544  24915205.1194         28.4004 
        28.4004 
 124161369.37645  23627128.169    96749102.66645  23627126.0464         33.1004 
        33.0004 
 15 12 31  0 53 30.0000000  0 10G02G09G07G06G19G05G12G30G23G17
 110954931.30047  21114022.867    86458387.63547  21114016.4224         46.1004 
        45.7004 
 115047057.06347  21892726.694    89647052.86947  21892726.4604         44.1004 
        43.9004 
 127942274.47145  24346599.897    99695262.44545  24346600.0734         30.5004 
        30.0004 
 108778345.37348  20699831.685    84762334.65548  20699831.1614         48.5004 
        48.4004 
 133049797.55144  25318546.912   103675148.14844  25318543.8814         29.6004 
        29.5004 
 115963026.18045  22067026.385    90360802.94345  22067023.7414         35.5004 
        35.5004 
 131249703.13143  24975996.945   102272484.95842  24975993.4774         18.4004 
        17.9004 
 131393594.28743  25003367.624   102384616.74543  25003368.2724         22.2004 
        20.6004 
 130997787.38844  24928059.777   102076187.90944  24928054.5594         28.5004 
        28.6004 
 124245055.66445  23643053.102    96814312.62645  23643050.7114         31.8004 
        32.1004 
 15 12 31  0 54  0.0000000  0 10G02G09G07G06G19G05G12G30G23G17
 110874240.04147  21098667.549    86395511.30747  21098661.2534         46.5004 
        45.8004 
 115084215.46247  21899797.441    89676007.41447  21899797.3414         44.2004 
        43.7004 
 127855248.20345  24330040.330    99627449.84945  24330038.8084         31.2004 
        31.1004 
 108772331.41948  20698687.331    84757648.41448  20698686.8014         48.7004 
        48.9004 
 133135305.95244  25334818.476   103741777.84744  25334815.1724         28.7004 
        29.4004 
 115882656.01745  22051732.519    90298176.83145  22051729.8354         35.7004 
        35.9004 
 131287951.07343  24983274.952   102302288.41943  24983272.7164         22.3004 
        20.6004 
 131290226.22443  24983696.231   102304070.32943  24983699.0464         20.0004 
        20.6004 
 131065476.31944  24940940.285   102128932.45544  24940935.3624         29.0004 
        28.8004 
 124328879.54145  23659004.392    96879629.77845  23659001.9624         31.3004 
        31.3004 
 15 12 31  0 54 30.0000000  0 10G02G09G07G06G19G05G12G30G23G17
 110793742.06547  21083348.895    86332785.59247  21083343.2844         45.9004 
        45.7004 
 115121813.62447  21906952.480    89705304.63647  21906952.0784         43.9004 
        43.5004 
 127768413.77945  24313515.869    99559786.73345  24313514.9584         30.3004 
        30.7004 
 108766660.45148  20697608.227    84753229.44248  20697607.6014         49.8004 
        49.7004 
 133220798.79344  25351086.382   103808395.39344  25351084.7554         27.5004 
        28.4004 
 115802518.47345  22036483.177    90235731.97945  22036480.1684         35.6004 
        35.6004 
 131326388.99744  24990589.951   102332239.93644  24990587.1484         24.4004 
        24.0004 
 131186792.16143  24964014.242   102223472.46543  24964015.5644         20.6004 
        20.2004 
 131133327.59844  24953850.977   102181803.49344  24953848.6864         29.8004 
        29.6004 
 124412838.86745  23674981.754    96945052.50545  23674979.6724         31.4004 
        31.4004 
 15 12 31  0 55  0.0000000  0 10G02G09G07G06G19G05G12G30G23G17
 110713443.03847  21068068.605    86270214.90047  21068062.7764         46.6004 
        46.1004 
 115159852.90747  21914191.151    89734945.58947  21914190.6054         44.2004 
        43.6004 
 127681777.44944  24297030.031    99492277.93644  24297028.3324         29.7004 
        29.8004 
 108761336.84048  20696595.280    84749081.13548  20696594.7654         49.5004 
        49.1004 
 133306277.58044  25367352.389   103875001.96644  25367351.4554         26.4004 
        27.0004 
 115722617.52246  22021278.861    90173471.49146  22021275.7074         36.4004 
        36.1004 
 131365017.75443  24997939.542   102362340.17743  24997938.3894         23.8004 
        23.8004 
 131083298.52143  24944320.665   102142828.15743  24944320.2564         22.7004 
        22.1004 
 131201342.49645  24966794.530   102234802.03344  24966791.2974         30.1004 
        29.9004 
 124496934.84045  23690984.605    97010581.67245  23690984.0194         32.6004 
        32.7004 
 15 12 31  0 55 30.0000000  0 11G02G09G07G06G19G05G12G13G30G23G17
 110633348.01347  21052827.302    86207803.16947  21052821.1304         45.7004 
        45.6004 
 115198334.25147  21921514.287    89764931.00447  21921513.1954         44.2004 
        44.1004 
 127595345.30445  24280581.829    99424928.25345  24280582.1674         30.1004 
        30.0004 
 108756364.55148  20695649.207    84745206.58648  20695648.5244         48.6004 
        48.5004 
 133391743.23444  25383616.425   103941598.30744  25383614.4474         26.8004 
        26.4004 
 115642956.17946  22006119.683    90111397.71946  22006116.5414         37.1004 
        36.9004 
 131403837.04943  25005327.263   102392588.87843  25005325.9004         23.8004 
        23.8004 
 130230970.753 6  24782129.177                                          40.900  
                
 130979751.23143  24924616.535   102062142.01143  24924615.6464         22.7004 
        22.1004 
 131269522.16845  24979769.198   102287928.95745  24979765.8664         30.2004 
        30.2004 
 124581168.10545  23707013.482    97076217.82045  23707013.2954         32.7004 
        32.7004 
 15 12 31  0 56  0.0000000  0 11G02G09G07G06G19G05G12G13G30G23G17
 110553453.19947  21037623.262    86145547.44847  21037617.5154         45.7004 
        45.1004 
 115237249.48847  21928919.342    89795254.51147  21928918.5094         43.8004 
        44.0004 
 127509114.23745  24264173.044    99357735.26145  24264171.6154         30.9004 
        30.8004 
 108751738.43448  20694768.638    84741601.77348  20694768.3554         48.7004 
        48.6004 
 133477187.91844  25399876.382   104008178.27344  25399875.2744         27.5004 
        27.3004 
 115563528.14446  21991005.415    90049505.73446  21991002.2984         37.6004 
        37.8004 
 131442838.51343  25012749.334   102422979.57243  25012747.6924         23.2004 
        23.1004 
 130091230.53442  24755536.378   101369786.67443  24755536.4104         17.9004 
        18.7004 
 130876147.24644  24904900.248   101981411.65244  24904901.0584         24.8004 
        24.8004 
 131337858.45345  24992773.413   102341177.93145  24992770.2964         30.5004 
        30.4004 
 124665529.86945  23723067.929    97141954.07745  23723066.2234         33.0004 
        33.0004 
 15 12 31  0 56 30.0000000  0 11G02G09G07G06G19G05G12G13G30G23G17
 110473762.62147  21022458.819    86083450.86147  21022452.7454         45.5004 
        45.5004 
 115276598.77747  21936407.266    89825916.24847  21936406.2114         43.6004 
        43.2004 
 127423089.72945  24247802.740    99290703.20045  24247800.7964         30.8004 
        30.8004 
 108747461.69748  20693954.655    84738269.20848  20693954.3024         48.7004 
        48.5004 
 133562611.90344  25416132.747   104074742.09044  25416131.0764         27.4004 
        27.3004 
 115484335.47846  21975934.988    89987797.15246  21975931.9844         38.1004 
        37.9004 
 131482021.38943  25020205.829   102453511.63143  25020203.0394         20.4004 
        20.4004 
 129951520.98143  24728950.607   101260922.17243  24728950.8314         20.6004 
        21.4004 
 130772491.77744  24885174.838   101900641.14344  24885176.3124         27.3004 
        26.2004 
 131406351.55145  25005807.699   102394549.08645  25005804.8184         30.3004 
        30.5004 
 124750019.50945  23739146.367    97207789.97445  23739143.1984         32.5004 
        32.6004 
 15 12 31  0 57  0.0000000  0 11G02G09G07G06G19G05G12G13G30G23G17
 110394278.09547  21007333.651    86021514.84547  21007327.3494         45.3004 
        44.9004 
 115316379.57047  21943977.868    89856914.23047  21943976.1654         43.3004 
        43.1004 
 127337274.44244  24231472.320    99223834.14945  24231470.3824         29.7004 
        30.1004 
 108743534.88848  20693207.471    84735209.31948  20693207.2544         49.0004 
        48.6004 
 133648012.43544  25432384.678   104141287.59544  25432381.4604         27.0004 
        27.1004 
 115405377.97346  21960910.167    89926271.82046  21960907.0694         38.3004 
        38.1004 
 131521382.23743  25027696.483   102484182.31843  25027693.1654         20.4004 
        20.4004 
 129811845.38944  24702371.360   101152084.16343  24702370.3204         24.1004 
        21.4004 
 130668787.48544  24865441.136   101819832.55444  24865442.1954         28.4004 
        28.3004 
 131474998.68745  25018870.262   102448040.28545  25018867.8294         30.2004 
        30.0004 
 124834634.19245  23755248.035    97273723.28845  23755244.9254         31.7004 
        32.0004 
 15 12 31  0 57 30.0000000  0 11G02G09G07G06G19G05G12G13G30G23G17
 110314998.08247  20992247.234    85959738.18547  20992241.1554         45.8004 
        45.6004 
 115356586.17647  21951628.752    89888244.01347  21951627.3694         43.4004 
        43.0004 
 127251667.48544  24215181.351    99157127.47644  24215181.2904         29.0004 
        29.1004 
 108739955.32448  20692526.192    84732420.00348  20692526.1234         48.9004 
        48.3004 
 133733384.21544  25448630.757   104207810.70844  25448628.9534         25.7004 
        25.7004 
 115326652.55146  21945929.174    89864927.32746  21945925.8724         38.5004 
        38.5004 
 131560915.00043  25035217.760   102514986.98842  25035215.5484         18.2004 
        17.8004 
 129672202.95244  24675798.684   101043271.98544  24675797.1124         24.1004 
        24.2004 
 130565033.65144  24845697.601   101738985.41944  24845700.3764         27.8004 
        27.6004 
 131543794.39544  25031960.777   102501647.24044  25031958.1574         29.8004 
        29.8004 
 124919368.07145  23771373.163    97339749.49045  23771369.1934         31.3004 
        31.3004 
 15 12 31  0 58  0.0000000  0 11G02G09G07G06G19G05G12G13G30G23G17
 110235922.98747  20977199.886    85898121.20347  20977193.8554         46.0004 
        45.7004 
 115397214.56647  21959359.823    89919902.45147  21959358.7524         43.2004 
        43.1004 
 127166270.23644  24198930.930    99090584.20344  24198929.9994         29.0004 
        29.0004 
 108736721.95248  20691911.185    84729900.45348  20691910.9734         49.6004 
        48.6004 
 133818723.31644  25464869.356   104274308.31544  25464869.2924         25.4004 
        25.2004 
 115248156.94846  21930991.815    89803761.92046  21930988.6224         39.0004 
        38.8004 
 131600614.30042  25042773.199   102545921.36742  25042770.4024         15.1004 
        17.8004 
 129532594.35844  24649232.106   100934486.15444  24649229.7594         24.9004 
        25.0004 
 130461231.38944  24825944.415   101658100.52044  24825947.1964         27.8004 
        27.3004 
 131612734.96644  25045080.603   102555367.09944  25045077.6374         29.5004 
        29.7004 
 125004216.54645  23787519.262    97405864.97645  23787516.4934         31.1004 
        31.1004 
 15 12 31  0 58 30.0000000  0 11G02G09G07G06G19G05G12G13G30G23G17
 110157060.70547  20962192.828    85836670.05347  20962186.8174         46.5004 
        46.3004 
 115438268.49947  21967172.614    89951892.47847  21967171.3604         43.4004 
        43.3004 
 127081091.43844  24182721.013    99024211.13444  24182720.1764         29.5004 
        29.5004 
 108733841.69348  20691363.291    84727656.05948  20691362.7924         50.2004 
        49.4004 
 133904033.23044  25481103.421   104340783.16644  25481103.8414         24.0004 
        25.2004 
 115169897.08746  21916100.473    89742780.20546  21916096.5004         38.9004 
        38.7004 
 131640484.59842  25050358.848   102576988.96842  25050357.9604         15.1004 
        13.9004 
 129393028.31144  24622673.855   100825732.47744  24622671.2514         25.2004 
        25.1004 
 130357389.71344  24806184.049   101577184.88244  24806187.2084         27.1004 
        27.3004 
 131681824.09644  25058228.786   102609202.71744  25058224.7384         29.6004 
        29.6004 
 125089182.92045  23803687.319    97472072.33645  23803684.9564         31.4004 
        31.4004 
 15 12 31  0 59  0.0000000  0 11G02G09G07G06G19G05G12G13G30G23G17
 110078407.76947  20947225.821    85775382.02947  20947219.6364         46.2004 
        45.9004 
 115479740.43247  21975064.556    89984208.22947  21975063.2114         43.4004 
        43.3004 
 126996128.89145  24166554.524    98958006.56345  24166553.0424         30.5004 
        30.7004 
 108731309.97148  20690881.443    84725683.24448  20690881.1324         49.5004 
        48.9004 
 133989306.91044  25497331.208   104407229.77543  25497329.4524         24.0004 
        23.5004 
 115091868.00146  21901250.844    89681978.30846  21901248.1414         38.8004 
        38.7004 
 131680516.11141  25057978.726   102608182.17942  25057977.3444         11.3004 
        13.9004 
 129253501.93744  24596122.158   100717010.71744  24596119.2754         24.8004 
        25.1004 
 130253506.31144  24786415.880   101496236.74944  24786418.3604         25.5004 
        26.0004 
 131751054.25244  25071403.041   102663148.25244  25071398.9134         28.9004 
        29.2004 
 125174259.20845  23819877.555    97538365.34945  23819874.8574         31.9004 
        32.1004 
 15 12 31  0 59 30.0000000  0 10G02G09G07G06G19G05G13G30G23G17
 109999967.13847  20932299.417    85714259.43747  20932292.7534         46.9004 
        46.1004 
 115521628.85747  21983035.966    90016848.50747  21983034.3584         43.2004 
        42.7004 
 126911386.20345  24150428.059    98891973.32345  24150426.5254         30.3004 
        30.7004 
 108729128.36348  20690466.206    84723983.25048  20690465.9814         48.4004 
        48.7004 
 134074543.17443  25513551.587   104473647.16643  25513549.2324         22.4004 
        21.8004 
 115014070.15846  21886446.525    89621356.60446  21886444.1114         38.6004 
        38.5004 
 129114018.45743  24569578.955   100608322.38444  24569576.0654         23.8004 
        24.3004 
 130149584.79744  24766639.692   101415258.92444  24766641.5724         24.6004 
        24.8004 
 131820424.50444  25084603.199   102717202.95644  25084600.6844         28.7004 
        29.0004 
 125259444.25145  23836087.699    97604743.09545  23836086.0954         32.4004 
        32.2004 
 15 12 31  1  0  0.0000000  0 10G02G09G07G06G19G05G13G30G23G17
 109921744.60447  20917414.102    85653306.78647  20917407.5014         46.0004 
        46.1004 
 115563935.38147  21991086.428    90049814.57547  21991085.1844         42.7004 
        42.9004 
 126826870.20744  24134346.316    98826116.72344  24134344.3294         29.7004 
        29.6004 
 108727301.51248  20690118.523    84722559.69048  20690118.3884         49.2004 
        48.0004 
 134159743.93843  25529765.411   104540036.89143  25529762.2894         20.6004 
        21.8004 
 114936507.40946  21871687.194    89560918.08746  21871683.7684         38.7004 
        38.7004 
 128974584.39443  24543045.755   100499672.58243  24543043.1734         23.4004 
        23.4004 
 130045632.04944  24746857.951   101334256.79444  24746860.3634         24.2004 
        24.3004 
 131889936.15144  25097830.467   102771367.84144  25097827.9474         28.6004 
        28.5004 
 125344738.37245  23852317.935    97671205.82845  23852316.2744         31.9004 
        31.8004 
 15 12 31  1  0 30.0000000  0 10G02G09G07G06G19G05G13G30G23G17
 109843741.10447  20902570.048    85592524.81547  20902564.2144         46.5004 
        46.5004 
 115606656.66447  21999216.000    90083103.82647  21999214.4504         42.9004 
        42.9004 
 126742582.87145  24118306.674    98760438.31245  24118304.9484         30.3004 
        30.2004 
 108725829.14348  20689838.461    84721412.35248  20689838.2334         49.0004 
        48.5004 
 134244906.75943  25545971.634   104606397.02443  25545969.7924         20.6004 
        19.0004 
 114859178.83646  21856971.752    89500662.04746  21856968.8154         39.4004 
        39.2004 
 128835201.19543  24516521.449   100391062.45443  24516519.7944         23.4004 
        23.4004 
 129941649.97244  24727070.933   101253231.87944  24727072.8094         24.8004 
        24.9004 
 131959585.92444  25111084.727   102825640.36944  25111081.4244         28.4004 
        27.7004 
 125430138.46645  23868568.486    97737751.14445  23868567.7364         30.5004 
        30.4004 
 15 12 31  1  1  0.0000000  0 10G02G09G07G06G19G05G13G30G23G17
 109765959.28447  20887769.232    85531915.58447  20887762.9704         47.1004 
        46.4004 
 115649790.96547  22007424.213    90116714.90747  22007422.5474         42.9004 
        42.6004 
 126658527.78245  24102312.048    98694940.87245  24102308.5604         30.2004 
        30.3004 
 108724712.55748  20689625.842    84720542.24948  20689625.7744         48.7004 
        48.4004 
 134330028.59342  25562169.810   104672725.19143  25562167.6954         17.6004 
        19.0004 
 114782084.54546  21842300.924    89440588.56346  21842298.1254         39.1004 
        39.1004 
 128695871.86144  24490008.590   100282494.28743  24490006.5134         24.0004 
        23.8004 
 129837641.94844  24707279.195   101172186.79544  24707281.5634         26.5004 
        26.7004 
 132029372.31144  25124363.832   102880019.35544  25124360.6094         26.5004 
        26.6004 
 125515641.89545  23884839.647    97804376.97145  23884837.8744         30.0004 
        30.2004 
 15 12 31  1  1 30.0000000  0 10G02G09G07G06G19G05G13G30G23G17
 109688403.44547  20873010.727    85471482.44247  20873004.5384         46.5004 
        46.3004 
 115693338.18747  22015710.939    90150647.73547  22015709.2894         42.6004 
        42.7004 
 126574709.53145  24086361.719    98629627.96545  24086357.9664         30.2004 
        30.2004 
 108723954.71748  20689481.567    84719951.68947  20689481.2454         48.2004 
        47.5004 
 134415110.21342  25578360.366   104739022.04742  25578362.6214         17.6004 
        14.1004 
 114705226.80446  21827675.837    89380699.41246  21827673.0884         39.8004 
        39.6004 
 128556601.24044  24463506.554   100173971.86744  24463504.4064         25.5004 
        25.4004 
 129733613.15744  24687482.368   101091125.55444  24687486.6744         27.6004 
        27.8004 
 132099295.39644  25137669.938   102934504.87344  25137665.9034         26.5004 
        26.6004 
 125601249.00545  23901131.573    97871083.59645  23901129.5684         30.1004 
        30.3004 
 15 12 31  1  2  0.0000000  0 11G02G09G07G06G19G05G12G13G30G23G17
 109611067.51647  20858294.476    85411220.65747  20858287.8274         45.6004 
        45.8004 
 115737288.35147  22024074.488    90184894.53347  22024073.0814         42.8004 
        42.4004 
 126491123.61345  24070455.874    98564496.09845  24070452.2754         30.3004 
        30.4004 
 108723548.61348  20689404.571    84719635.21547  20689403.9894         48.5004 
        47.8004 
 134500142.12742  25594538.967   104805280.20842  25594547.1584         12.0004 
        14.1004 
 114628597.81646  21813093.752    89320988.49346  21813090.2354         40.0004 
        39.9004 
 131924067.913 6  25104314.403                                          37.400  
                
 128417384.14944  24437014.305   100065491.13444  24437011.0354         26.3004 
        26.2004 
 129629558.77244  24667681.685   101010044.36644  24667683.8294         28.3004 
        28.1004 
 132169345.37144  25151000.395   102989089.25344  25150996.1294         26.1004 
        26.0004 
 125686949.10345  23917440.242    97937862.69245  23917438.0274         31.2004 
        31.5004 
 15 12 31  1  2 30.0000000  0 11G02G09G07G06G19G05G12G13G30G23G17
 109533957.29547  20843620.492    85351134.74347  20843614.0524         46.4004 
        46.2004 
 115781642.50147  22032514.778    90219456.12247  22032513.8984         42.9004 
        42.8004 
 126407776.13045  24054595.008    98499550.03645  24054591.4964         30.3004 
        30.3004 
 108723498.42548  20689395.118    84719596.06948  20689394.6984         48.3004 
        48.2004 
 134585124.97542  25610712.976   104871500.2484   25610753.3604         12.0004 
         3.5004 
 114552200.70746  21798556.353    89261458.24046  21798552.6174         40.0004 
        39.9004 
 131965170.911 5  25112135.207                                          34.900  
                
 128278226.45744  24410532.442    99957056.67544  24410531.1674         26.0004 
        25.8004 
 129525485.14944  24647876.799   100928948.19144  24647879.9804         28.1004 
        27.8004 
 132239523.49544  25164354.938   103043773.48044  25164351.0104         25.8004 
        25.8004 
 125772742.67345  23933766.672    98004714.63145  23933764.6364         31.7004 
        31.8004 
 15 12 31  1  3  0.0000000  0 11G02G09G07G06G19G05G12G13G30G23G17
 109457075.16347  20828990.374    85291226.55647  20828983.8094         46.1004 
        45.9004 
 115826399.01847  22041031.748    90254331.23947  22041031.1784         42.7004 
        42.4004 
 126324670.71344  24038780.301    98434792.56644  24038778.4064         29.6004 
        29.7004 
 108723805.49648  20689453.620    84719835.30748  20689453.1254         49.0004 
        48.9004 
 134670057.768 5  25626875.965                                          33.600  
                
 114476036.42146  21784061.913    89202109.42846  21784059.7084         40.8004 
        40.7004 
 132006414.872 5  25119983.355                                          33.700  
                
 128139131.47644  24384062.918    99848671.10644  24384061.2134         24.9004 
        25.8004 
 129421395.87944  24628067.502   100847839.85844  24628071.5514         27.7004 
        26.8004 
 132309828.16044  25177734.067   103098556.31144  25177729.6654         25.7004 
        25.9004 
 125858627.95645  23950110.061    98071638.02545  23950108.7324         31.8004 
        31.7004 
 15 12 31  1  3 30.0000000  0 11G02G09G07G06G19G05G12G13G30G23G17
 109380422.01847  20814404.111    85231496.79747  20814397.3424         45.8004 
        45.9004 
 115871553.97247  22049624.750    90289516.83047  22049623.9594         42.8004 
        42.5004 
 126241808.79345  24023011.895    98370224.86945  24023011.0634         30.4004 
        30.5004 
 108724469.05848  20689580.078    84720352.33048  20689579.5574         49.0004 
        49.0004 
 134754937.373 5  25643028.660                                          33.600  
                
 114400103.36146  21769612.836    89142940.78546  21769609.8484         41.1004 
        41.1004 
 132047795.780 5  25127857.627                                          35.300  
                
 128000100.13144  24357606.024    99740335.12644  24357603.7584         24.2004 
        24.5004 
 129317292.39444  24608258.598   100766720.39544  24608261.0924         26.6004 
        26.5004 
 132380255.87744  25191136.058   103153435.02244  25191132.6774         26.3004 
        26.4004 
 125944600.80545  23966469.667    98138629.64845  23966469.1844         31.0004 
        31.2004 
 15 12 31  1  4  0.0000000  0 11G02G09G07G06G19G05G12G13G30G23G17
 109303994.45647  20799860.240    85171942.82047  20799853.6634         46.2004 
        45.9004 
 115917099.88447  22058291.302    90325007.06747  22058291.0054         42.8004 
        42.5004 
 126159188.03745  24007289.334    98305845.06145  24007288.4864         30.3004 
        30.5004 
 108725484.56548  20689773.259    84721143.59648  20689772.9844         50.0004 
        49.3004 
 134839756.283 5  25659168.473                                          31.700  
                
 114324395.83146  21755206.110    89083947.87846  21755203.2854         41.5004 
        41.5004 
 132089305.208 6  25135757.904                                          37.500  
                
 127861129.79444  24331161.143    99632046.69144  24331159.2444         25.4004 
        24.6004 
 129213172.45244  24588444.938   100685588.06544  24588448.2144         26.8004 
        26.7004 
 132450799.50744  25204560.481   103208404.06144  25204557.5564         26.7004 
        26.7004 
 126030653.42945  23982844.275    98205683.41245  23982844.3694         30.2004 
        30.2004 
 15 12 31  1  4 30.0000000  0 11G02G09G07G06G19G05G12G13G30G23G17
 109227794.84047  20785359.734    85112566.46747  20785353.5024         46.5004 
        46.3004 
 115963034.84547  22067032.743    90360800.46047  22067032.2264         43.0004 
        42.4004 
 126076811.51545  23991614.678    98241655.55244  23991613.2214         30.2004 
        29.9004 
 108726853.14448  20690033.844    84722209.97348  20690033.5874         48.9004 
        48.2004 
 134924512.599 5  25675299.206                                          30.500  
                
 114248914.38147  21740842.550    89025131.13947  21740839.6884         42.1004 
        42.1004 
 132130940.483 6  25143680.759                                          36.500  
                
 127722223.55944  24304728.432    99523808.20144  24304725.7744         26.3004 
        25.9004 
 129109039.41244  24568629.748   100604445.52344  24568631.8724         27.4004 
        27.3004 
 132521457.06844  25218005.210   103263461.85944  25218002.5304         26.8004 
        26.8004 
 126116783.68145  23999234.610    98272797.70245  23999234.5884         30.3004 
        30.2004 
 15 12 31  1  5  0.0000000  0 10G02G09G07G06G05G12G13G30G23G17
 109151828.00347  20770903.648    85053371.50047  20770897.4274         46.6004 
        46.4004 
 116009359.01746  22075847.563    90396897.13846  22075847.4164         41.9004 
        41.9004 
 125994684.72545  23975986.644    98177660.64145  23975984.7964         31.7004 
        31.7004 
 108728578.04048  20690362.064    84723554.00948  20690361.7784         49.3004 
        48.5004 
 114173661.31247  21726522.577    88966492.34947  21726519.3924         42.4004 
        42.2004 
 132172701.465 6  25151626.262                                          36.600  
                
 127583386.53644  24278308.485    99415623.61644  24278306.4394         26.3004 
        26.4004 
 129004898.95844  24548813.174   100523297.20444  24548814.1684         28.5004 
        28.4004 
 132592229.12244  25231472.682   103318608.88044  25231470.0254         26.4004 
        26.4004 
 126202991.49045  24015639.573    98339972.41945  24015639.2704         30.4004 
        30.2004 
 15 12 31  1  5 30.0000000  0 10G02G09G07G06G05G12G13G30G23G17
 109076099.74547  20756493.472    84994362.43647  20756487.0314         46.3004 
        46.2004 
 116056073.78247  22084736.759    90433298.16946  22084737.2444         42.0004 
        41.6004 
 125912814.28745  23960407.700    98113865.49145  23960405.3674         32.3004 
        32.4004 
 108730663.60848  20690758.517    84725179.09348  20690758.6184         48.7004 
        48.7004 
 114098640.41847  21712246.656    88908034.47247  21712243.1564         42.9004 
        42.6004 
 132214588.887 6  25159598.648                                          37.900  
                
 127444624.66444  24251902.566    99307497.60444  24251900.4764         25.0004 
        25.1004 
 128900757.63544  24528995.019   100442148.17944  24528996.0114         27.6004 
        27.3004 
 132663117.52044  25244963.075   103373846.54544  25244958.6534         26.4004 
        26.5004 
 126289277.63345  24032059.070    98407208.17445  24032059.1944         30.4004 
        30.3004 
 15 12 31  1  6  0.0000000  0 10G02G09G07G06G05G12G13G30G23G17
 109000605.33747  20742127.375    84935535.59447  20742121.1904         46.4004 
        46.4004 
 116103170.39846  22093699.537    90469996.75346  22093698.9704         41.8004 
        41.6004 
 125831196.70945  23944875.689    98050267.39545  23944874.3234         32.3004 
        32.3004 
 108733104.17848  20691223.012    84727080.80747  20691223.0024         48.7004 
        47.9004 
 114023845.42547  21698013.213    88849752.62147  21698010.4344         42.3004 
        42.6004 
 132256593.185 6  25167590.564                                          36.900  
                
 127305934.54544  24225510.323    99199427.50244  24225509.2974         25.0004 
        25.1004 
 128796612.15044  24509176.616   100360995.85544  24509178.0694         26.9004 
        26.8004 
 132734113.42744  25258473.634   103429167.97344  25258468.9954         26.4004 
        26.5004 
 126375633.65445  24048492.553    98474498.38945  24048492.4694         30.3004 
        30.4004 
 15 12 31  1  6 30.0000000  0 10G02G09G07G06G05G12G13G30G23G17
 108925349.89347  20727806.433    84876894.96347  20727800.5524         46.6004 
        46.3004 
 116150649.37646  22102734.569    90506993.28646  22102733.8504         41.3004 
        41.2004 
 125749837.64345  23929393.558    97986870.71845  23929392.2544         32.1004 
        32.1004 
 108735903.28648  20691755.627    84729261.89947  20691755.5594         48.5004 
        47.8004 
 113949278.72847  21683823.116    88791648.67947  21683820.7474         42.2004 
        42.0004 
 132298714.492 6  25175605.870                                          38.300  
                
 127167321.18244  24199132.727    99091417.22744  24199133.0884         24.4004 
        24.4004 
 128692468.32544  24489358.434   100279844.82044  24489361.0374         26.3004 
        26.3004 
 132805217.61844  25272003.245   103484573.82544  25272000.1894         25.4004 
        26.1004 
 126462059.22845  24064939.511    98541842.79644  24064938.5144         30.1004 
        29.9004 
 15 12 31  1  7  0.0000000  0 10G02G09G07G06G05G12G13G30G23G17
 108850334.24147  20713531.894    84818441.18247  20713525.4654         46.8004 
        46.8004 
 116198506.84646  22111841.818    90544284.74046  22111840.7554         41.4004 
        41.0004 
 125668738.05645  23913961.034    97923676.21545  23913958.9804         31.5004 
        31.5004 
 108739060.05947  20692356.474    84731721.69447  20692356.3514         47.9004 
        47.6004 
 113874938.53647  21669677.006    88733721.23647  21669674.3174         42.7004 
        42.7004 
 132340948.342 6  25183643.910                                          38.800  
                
 127028785.73244  24172770.665    98983467.64444  24172770.5234         25.8004 
        26.0004 
 128588327.70644  24469540.998   100198696.28744  24469543.9804         26.4004 
        26.6004 
 132876426.79344  25285553.038   103540061.46444  25285550.6124         25.4004 
        25.0004 
 126548550.25744  24081398.478    98609238.21344  24081397.2414         29.3004 
        29.4004 
 15 12 31  1  7 30.0000000  0 11G02G09G07G06G19G05G12G13G30G23G17
 108775560.72547  20699303.004    84760176.07647  20699296.4424         47.2004 
        46.6004 
 116246740.99646  22121020.971    90581869.71946  22121019.1844         41.0004 
        41.1004 
 125587901.74545  23898577.852    97860686.86145  23898576.6844         31.8004 
        31.6004 
 108742575.73448  20693025.790    84734461.14047  20693025.3764         48.5004 
        47.9004 
 135431682.848 4  25771813.603                                          29.700  
                
 113800825.73147  21655574.358    88675970.97547  21655571.3764         43.5004 
        43.3004 
 132383292.618 6  25191702.150                                          39.400  
                
 126890331.50844  24146424.242    98875581.37744  24146422.6434         27.1004 
        27.2004 
 128484193.90144  24449725.241   100117553.05544  24449728.5474         27.5004 
        27.4004 
 132947739.28744  25299122.588   103595629.65043  25299121.3604         24.0004 
        23.3004 
 126635105.10244  24097869.122    98676683.37344  24097867.5544         28.2004 
        28.4004 
 15 12 31  1  8  0.0000000  0 11G02G09G07G06G19G05G12G13G30G23G17
 108701030.07247  20685120.329    84702100.21647  20685113.8394         47.0004 
        46.6004 
 116295348.16346  22130270.244    90619745.36846  22130269.3294         41.8004 
        41.4004 
 125507330.52845  23883245.302    97797904.07945  23883244.7814         31.0004 
        31.3004 
 108746449.61248  20693763.130    84737479.70448  20693762.5924         48.8004 
        48.5004 
 135515960.077 4  25787852.015                                          29.100  
                
 113726938.85047  21641514.041    88618396.74547  21641510.9614         43.9004 
        44.2004 
 132425742.974 6  25199781.142                                          39.700  
                
 126751959.73244  24120092.637    98767759.33744  24120090.5914         26.8004 
        27.2004 
 128380068.60244  24429911.395   100036416.48144  24429913.2214         28.6004 
        28.3004 
 133019151.80243  25312712.381   103651275.79543  25312711.1164         23.0004 
        23.3004 
 126721720.42244  24114351.528    98744175.64444  24114350.1704         27.6004 
        27.5004 
 15 12 31  1  8 30.0000000  0 11G02G09G07G06G19G05G12G13G30G23G17
 108626746.06347  20670984.125    84644216.54747  20670978.2704         47.5004 
        46.7004 
 116344327.43246  22139591.099    90657910.97046  22139590.1344         41.7004 
        41.6004 
 125427028.20345  23867965.042    97735330.82545  23867962.7444         30.1004 
        30.0004 
 108750683.85848  20694569.041    84740779.07948  20694568.4584         48.3004 
        48.5004 
 135600160.628 4  25803876.070                                          29.600  
                
 113653279.37747  21627497.145    88560999.72647  21627494.1014         44.2004 
        44.3004 
 132468298.136 6  25207877.499                                          36.500  
                
 126613674.46444  24093777.223    98660004.71244  24093774.1634         26.8004 
        26.1004 
 128275956.40144  24410099.482    99955290.10344  24410100.6434         29.7004 
        29.5004 
 133090663.77343  25326321.821   103706999.43743  25326318.8784         22.9004 
        22.8004 
 126808393.94744  24130845.383    98811713.27444  24130844.2824         26.6004 
        26.6004 
 15 12 31  1  9  0.0000000  0 11G02G09G07G06G19G05G12G13G30G23G17
 108552710.20347  20656895.939    84586526.24647  20656889.5934         46.5004 
        46.6004 
 116393675.93546  22148981.730    90696364.29546  22148980.7214         41.1004 
        41.1004 
 125346997.21345  23852735.612    97672969.00045  23852732.4874         30.1004 
        30.5004 
 108755278.57748  20695443.279    84744359.33948  20695442.9954         48.7004 
        48.4004 
 135684281.857 4  25819882.939                                          27.900  
                
 113579846.31647  21613523.228    88503779.13247  21613520.2044         44.8004 
        44.5004 
 132510954.491 6  25215996.442                                          36.200  
                
 126475477.60244  24067479.077    98552318.94844  24067476.6064         25.5004 
        25.1004 
 128171859.83245  24390291.264    99874175.91545  24390292.6464         30.1004 
        30.2004 
 133162272.49443  25339948.819   103762798.48643  25339946.3734         23.3004 
        23.1004 
 126895122.84944  24147349.290    98879294.00944  24147348.6774         26.6004 
        26.7004 
 15 12 31  1  9 30.0000000  0 11G02G09G07G06G19G05G12G13G30G23G17
 108478929.12947  20642855.819    84529034.48347  20642849.4834         46.6004 
        46.5004 
 116443395.66546  22158442.722    90735106.89046  22158442.7744         41.9004 
        41.8004 
 125267244.49244  23837559.487    97610823.99645  23837556.6804         29.8004 
        30.0004 
 108760238.76948  20696387.100    84748224.39148  20696387.1164         49.4004 
        48.7004 
 135768326.247 4  25835877.774                                          26.100  
                
 113506644.31147  21599593.527    88446738.59247  21599590.7064         45.3004 
        45.1004 
 132553713.261 5  25224132.113                                          34.900  
                
 126337376.15044  24041199.479    98444707.52844  24041196.8534         25.0004 
        25.1004 
 128067786.36344  24370485.966    99793079.76344  24370487.8224         29.7004 
        29.8004 
 133233980.36443  25353594.579   103818674.76343  25353591.4014         23.3004 
        23.1004 
 126981908.79944  24163863.362    98946919.20744  24163863.5754         26.9004 
        26.6004 
 15 12 31  1 10  0.0000000  0  8G02G09G07G06G05G13G30G17
 108405404.14347  20628864.704    84471742.25547  20628858.0634         46.9004 
        47.1004 
 116493483.72246  22167974.034    90774136.50846  22167973.9244         41.6004 
        41.2004 
 125187772.98245  23822436.453    97548898.11945  23822434.9274         32.2004 
        32.1004 
 108765564.52848  20697400.378    84752374.30148  20697400.7204         49.0004 
        48.6004 
 113433672.42547  21585707.545    88389877.36847  21585704.4304         44.9004 
        44.4004 
 126199372.15044  24014938.440    98337172.06844  24014935.6134         25.3004 
        25.1004 
 127963738.47244  24350686.368    99712003.52644  24350687.1444         28.8004 
        29.3004 
 127068749.14744  24180389.351    99014586.77744  24180388.8964         26.3004 
        26.5004 
 15 12 31  1 10 30.0000000  0  8G02G09G07G06G05G13G30G17
 108332132.40147  20614921.160    84414647.36747  20614914.9094         47.2004 
        46.8004 
 116543932.68546  22177574.170    90813447.35346  22177574.1334         41.5004 
        41.3004 
 125108580.21745  23807366.673    97487189.43145  23807364.8214         32.6004 
        32.7004 
 108771251.41147  20698482.394    84756805.59947  20698482.9414         47.9004 
        47.8004 
 113360925.89547  21571863.964    88333191.73547  21571861.0914         44.9004 
        44.8004 
 126061463.23844  23988695.550    98229710.69844  23988692.9414         26.3004 
        26.1004 
 127859714.22844  24330890.158    99630945.70744  24330891.9214         26.8004 
        27.7004 
 127155636.20944  24196923.091    99082290.74544  24196923.4624         27.1004 
        27.6004 
 15 12 31  1 11  0.0000000  0  8G02G09G07G06G05G13G30G17
 108259115.24947  20601026.468    84357750.86647  20601020.4404         46.6004 
        46.5004 
 116594739.45046  22187242.522    90853036.99346  22187242.4564         41.8004 
        41.4004 
 125029668.20945  23792349.901    97425699.50645  23792348.9644         31.5004 
        31.5004 
 108777299.34348  20699633.434    84761518.23747  20699633.4764         48.0004 
        47.9004 
 113288403.79847  21558063.608    88276680.98947  21558060.6274         44.7004 
        44.8004 
 125923651.14244  23962470.199    98122324.75844  23962468.7634         28.6004 
        28.6004 
 127755716.00644  24311101.216    99549908.22244  24311102.5564         26.4004 
        26.2004 
 127242567.10844  24213465.411    99150028.87144  24213466.5124         28.7004 
        28.4004 
 15 12 31  1 11 30.0000000  0  8G02G09G07G06G05G13G30G17
 108186356.12747  20587181.527    84301055.42847  20587174.8704         47.8004 
        47.4004 
 116645902.88046  22196978.839    90892904.55446  22196977.9974         41.6004 
        41.2004 
 124951041.00745  23777387.762    97364431.53545  23777385.9024         32.1004 
        32.1004 
 108783710.15748  20700853.110    84766513.65147  20700853.5224         48.0004 
        47.7004 
 113216106.97547  21544306.218    88220345.77347  21544303.0624         45.5004 
        45.4004 
 125785939.81544  23936264.354    98015017.29644  23936262.5224         28.9004 
        28.8004 
 127651748.11144  24291316.810    99468894.36844  24291319.0194         28.7004 
        28.6004 
 127329539.86844  24230016.284    99217799.61644  24230016.2244         28.8004 
        28.7004 
 15 12 31  1 12  0.0000000  0  8G02G09G07G06G05G13G30G17
 108113858.67947  20573385.191    84244563.89147  20573378.9364         46.9004 
        47.0004 
 116697421.80446  22206782.830    90933049.12546  22206781.7634         41.2004 
        41.2004 
 124872702.47045  23762480.743    97303388.49745  23762479.1964         31.7004 
        31.7004 
 108790485.64048  20702142.620    84771793.21648  20702142.6484         48.6004 
        48.2004 
 113144036.70447  21530591.528    88164187.09547  21530588.7254         45.5004 
        45.6004 
 125648333.13444  23910078.445    97907791.37644  23910077.0254         28.5004 
        28.2004 
 127547814.88944  24271538.722    99387907.54544  24271540.3084         29.5004 
        29.5004 
 127416553.12944  24246575.065    99285601.90944  24246574.4874         29.2004 
        29.1004 
 15 12 31  1 12 30.0000000  0  8G02G09G07G06G05G13G30G17
 108041619.52647  20559638.459    84188273.62247  20559632.3124         47.3004 
        47.4004 
 116749288.91546  22216652.558    90973465.00846  22216651.5994         40.9004 
        40.8004 
 124794650.59545  23747627.430    97242568.84645  23747626.6314         33.0004 
        32.9004 
 108797621.48748  20703500.732    84777353.58448  20703500.3734         48.6004 
        48.4004 
 113072188.08447  21516919.142    88108201.13447  21516916.3504         45.3004 
        45.6004 
 125510828.84744  23883912.069    97800645.21844  23883910.6584         27.7004 
        27.8004 
 127443914.50545  24251765.776    99306946.30845  24251769.2234         30.0004 
        30.0004 
 127503599.69044  24263139.911    99353430.17044  24263139.2904         29.6004 
        29.6004 
 15 12 31  1 13  0.0000000  0  8G02G09G07G06G05G13G30G17
 107969642.08347  20545941.736    84132187.27547  20545935.6284         47.1004 
        46.9004 
 116801502.89546  22226589.054    91014151.17246  22226587.7194         40.9004 
        40.8004 
 124716889.21945  23732829.545    97181975.53345  23732829.0984         31.9004 
        31.9004 
 108805119.31348  20704927.725    84783196.00748  20704927.3064         49.0004 
        48.3004 
 113000561.99047  21503289.440    88052388.57647  21503286.4004         45.1004 
        45.0004 
 125373430.23144  23857765.994    97693581.40944  23857763.8704         27.5004 
        27.6004 
 127340051.14244  24232000.106    99226013.90944  24232003.0874         29.2004 
        29.5004 
 127590678.20145  24279710.372    99421283.32745  24279710.3384         30.1004 
        30.1004 
 15 12 31  1 13 30.0000000  0  8G02G09G07G06G05G13G30G17
 107897931.34747  20532295.706    84076308.74747  20532289.4504         47.7004 
        47.0004 
 116854064.20346  22236591.277    91055107.98646  22236590.2274         40.9004 
        40.8004 
 124639424.03745  23718089.819    97121613.02445  23718087.9364         32.9004 
        32.8004 
 108812982.56848  20706424.245    84789323.17948  20706423.8244         48.4004 
        48.6004 
 112929161.43447  21489702.048    87996751.75347  21489699.5314         45.2004 
        45.2004 
 125236142.97344  23831641.398    97586604.36544  23831638.2764         27.1004 
        27.2004 
 127236230.71844  24212244.940    99145114.99744  24212246.6124         28.7004 
        28.8004 
 127677788.77145  24296287.762    99489161.46645  24296288.3894         30.2004 
        30.1004 
 15 12 31  1 14  0.0000000  0  8G02G09G07G06G05G13G30G17
 107826489.52847  20518700.748    84020639.76947  20518694.6734         47.3004 
        46.8004 
 116906970.53346  22246658.883    91096333.64846  22246658.2184         40.5004 
        40.2004 
 124562257.89745  23703404.320    97061483.54345  23703403.0714         32.1004 
        32.1004 
 108821211.88848  20707990.443    84795735.59548  20707989.6624         49.1004 
        48.2004 
 112857986.21747  21476158.255    87941290.52947  21476155.4974         45.4004 
        44.9004 
 125098969.68944  23805538.946    97479716.13244  23805535.8574         27.2004 
        27.2004 
 127132456.49944  24192497.797    99064252.12544  24192499.7034         28.4004 
        28.2004 
 127764928.93945  24312870.079    99557062.69545  24312870.8354         30.1004 
        30.2004 
 15 12 31  1 14 30.0000000  0  8G02G09G07G06G05G13G30G17
 107755316.34647  20505157.675    83965180.12247  20505151.1454         47.8004 
        47.3004 
 116960217.01346  22256791.301    91137824.37146  22256790.8874         40.1004 
        40.3004 
 124485390.98345  23688777.056    97001587.21245  23688776.0074         31.4004 
        31.4004 
 108829805.31548  20709625.563    84802431.73648  20709625.0414         48.9004 
        48.4004 
 112787033.80947  21462655.988    87886002.92947  21462653.6274         45.3004 
        45.2004 
 124961910.82444  23779457.152    97372917.03644  23779454.2594         28.2004 
        28.3004 
 127028729.12444  24172758.585    98983425.69544  24172760.7514         28.5004 
        28.4004 
 127852093.57344  24329456.791    99624982.99744  24329457.0554         29.3004 
        29.3004 
 15 12 31  1 15  0.0000000  0  8G02G09G07G06G05G13G30G17
 107684417.30347  20491665.403    83909934.08747  20491659.0354         47.4004 
        47.7004 
 117013804.67546  22266989.083    91179580.94346  22266988.0624         40.3004 
        40.2004 
 124408829.63845  23674208.132    96941929.02245  23674205.3154         31.5004 
        31.0004 
 108838766.83748  20711330.858    84809414.69948  20711330.3784         48.1004 
        48.0004 
 112716307.40347  21449197.436    87830891.43147  21449194.4614         45.8004 
        45.4004 
 124824972.04144  23753398.923    97266211.49544  23753397.0124         29.6004 
        29.5004 
 126925055.13644  24153029.668    98902640.80844  24153032.1784         27.9004 
        27.8004 
 127939284.16944  24346049.016    99692923.55544  24346048.1244         28.8004 
        28.8004 
 15 12 31  1 15 30.0000000  0  8G02G09G07G06G05G13G30G17
 107613792.29347  20478225.911    83854901.58747  20478219.5884         47.7004 
        47.3004 
 117067728.78246  22277250.345    91221599.66746  22277249.5164         40.3004 
        40.2004 
 124332574.13144  23659697.057    96882509.11344  23659694.2224         29.5004 
        29.7004 
 108848094.63948  20713105.514    84816683.08348  20713105.3744         48.4004 
        48.2004 
 112645804.60447  21435781.055    87775954.17047  21435778.0054         46.0004 
        46.0004 
 124688153.63944  23727363.596    97159599.75244  23727360.4944         29.2004 
        29.0004 
 126821435.28744  24133311.041    98821898.15544  24133314.6584         27.1004 
        27.1004 
 128026495.33344  24362644.588    99760880.11644  24362643.3484         28.4004 
        28.3004 
 15 12 31  1 16  0.0000000  0  8G02G09G07G06G05G13G30G17
 107543443.60447  20464838.953    83800084.40247  20464832.6764         47.4004 
        46.8004 
 117121987.07746  22287575.244    91263878.78946  22287574.4174         39.7004 
        39.5004 
 124256627.54545  23645245.544    96823329.90145  23645242.6394         31.4004 
        31.5004 
 108857789.39248  20714950.341    84824237.39947  20714950.5194         48.2004 
        47.7004 
 112575525.68047  21422407.711    87721191.36147  21422404.2754         46.4004 
        45.9004 
 124551458.37844  23701351.168    97053083.93744  23701347.4474         28.6004 
        28.7004 
 126717872.98344  24113604.653    98741200.32244  24113606.9264         29.3004 
        28.3004 
 128113724.90944  24379243.480    99828851.02744  24379243.0944         27.8004 
        27.6004 
 15 12 31  1 16 30.0000000  0  9G02G09G07G06G05G13G30G17G29
 107473374.88347  20451505.386    83745485.37247  20451499.2234         47.3004 
        47.2004 
 117176578.72946  22297963.181    91306417.66346  22297962.0044         38.6004 
        38.6004 
 124180993.97445  23630852.872    96764394.61245  23630850.9984         32.9004 
        33.3004 
 108867853.17548  20716865.598    84832079.27147  20716865.5524         48.2004 
        47.4004 
 112505471.94947  21409076.753    87666604.04147  21409073.8324         45.9004 
        45.4004 
 124414890.53544  23675362.745    96946667.39244  23675359.7194         28.8004 
        28.7004 
 126614372.82845  24093909.635    98660550.92644  24093911.1184         30.0004 
        29.9004 
 128200971.83644  24395846.492    99896835.46144  24395844.9704         27.0004 
        26.6004 
 130782929.04943  24887165.155   101908780.10343  24887160.8934         23.6004 
        23.2004 
 15 12 31  1 17  0.0000000  0  9G02G09G07G06G05G13G30G17G29
 107403585.55747  20438224.699    83691104.05247  20438218.6484         47.5004 
        46.8004 
 117231498.55046  22308414.448    91349212.25546  22308413.0114         38.2004 
        38.2004 
 124105673.45945  23616519.604    96705703.28045  23616518.1584         34.2004 
        34.3004 
 108878283.70748  20718850.723    84840206.91848  20718850.5104         49.1004 
        48.8004 
 112435640.42947  21395788.448    87612189.87047  21395785.6684         45.4004 
        45.5004 
 124278450.04844  23649398.762    96840350.12344  23649395.8404         29.1004 
        29.0004 
 126510935.26045  24074226.252    98579950.29445  24074227.7704         30.4004 
        30.2004 
 128288230.83644  24412451.250    99964829.27544  24412450.8184         25.6004 
        24.6004 
 130661663.31143  24864087.746   101814287.29043  24864084.7984         23.3004 
        23.3004 
 15 12 31  1 17 30.0000000  0  9G02G09G07G06G05G13G30G17G29
 107334078.22747  20424997.839    83636942.47247  20424991.9234         47.5004 
        47.3004 
 117286744.53046  22318926.938    91392261.00646  22318926.3204         38.1004 
        38.1004 
 124030669.13545  23602248.390    96647258.33045  23602245.0594         34.9004 
        34.9004 
 108889081.87648  20720905.788    84848621.03148  20720905.3644         48.9004 
        48.6004 
 112366031.29447  21382542.060    87557948.99047  21382539.4734         45.3004 
        44.9004 
 124142139.80244  23623459.819    96734134.33144  23623457.1844         29.3004 
        29.2004 
 126407563.80945  24054553.920    98499401.18245  24054556.9414         30.7004 
        30.6004 
 128375499.87043  24429058.435   100032830.94444  24429057.6394         23.8004 
        24.6004 
 130540633.21443  24841056.469   101719978.12843  24841053.6944         23.3004 
        23.3004 
 15 12 31  1 18  0.0000000  0  9G02G09G07G06G05G13G30G17G29
 107264854.31447  20411825.077    83583001.74447  20411819.2494         46.8004 
        46.8004 
 117342313.66546  22329501.644    91435561.56546  22329501.2974         38.9004 
        38.8004 
 123955982.98145  23588035.224    96589061.32645  23588032.3904         33.9004 
        34.0004 
 108900247.57748  20723030.325    84857321.52748  20723030.1304         48.9004 
        48.2004 
 112296644.13747  21369338.355    87503881.07947  21369335.2644         45.6004 
        45.1004 
 124005961.68344  23597545.335    96628021.47144  23597543.9444         29.7004 
        29.5004 
 126304261.08245  24034896.794    98418905.61845  24034899.4234         30.6004 
        30.5004 
 128462775.69443  24445667.196   100100837.89543  24445667.4194         22.6004 
        22.9004 
 130419840.64443  24818070.048   101625854.02743  24818068.1264         23.3004 
        23.3004 
 15 12 31  1 18 30.0000000  0  9G02G09G07G06G05G13G30G17G29
 107195918.09947  20398707.069    83529285.18447  20398701.0984         47.4004 
        46.4004 
 117398205.85746  22340137.775    91479113.85146  22340137.9604         39.4004 
        39.1004 
 123881620.25645  23573884.318    96531116.29145  23573882.6264         33.2004 
        33.2004 
 108911783.53948  20725225.495    84866310.54847  20725225.6204         48.0004 
        47.5004 
 112227480.82747  21356177.052    87449987.59547  21356173.7414         45.3004 
        45.4004 
 123869920.44244  23571657.824    96522015.25244  23571656.2474         29.8004 
        29.8004 
 126201032.51345  24015251.472    98338467.84944  24015254.5294         30.1004 
        29.8004 
 128550058.61843  24462276.462   100168850.36343  24462277.2924         22.6004 
        22.2004 
 130299290.57844  24795131.053   101531918.89044  24795128.8284         24.7004 
        24.5004 
 15 12 31  1 19  0.0000000  0  9G02G09G07G06G05G13G30G17G29
 108702689.91347  20685436.339    84703393.06847  20685430.2014         47.2004 
        47.0004 
 119029832.26446  22650626.280    92750510.97846  22650626.7734         39.7004 
        39.7004 
 125383001.29145  23859587.595    97701023.58645  23859586.3364         33.3004 
        33.2004 
 110499105.30248  21027282.551    86103184.61047  21027282.8094         48.2004 
        47.7004 
 113733959.43747  21642850.270    88623867.03847  21642846.9214         45.2004 
        45.0004 
 125309438.82245  23845589.208    97643717.83545  23845588.0984         30.1004 
        30.0004 
 127673300.16744  24295416.097    99485689.49144  24295418.4514         29.1004 
        29.1004 
 130212758.07243  24778677.924   101464460.08743  24778678.0804         22.0004 
        22.2004 
 131754405.05244  25072028.316   102665774.29844  25072027.2294         24.6004 
        24.3004 
 15 12 31  1 19 30.0000000  0  9G02G09G07G06G05G13G30G17G29
 108634331.79747  20672428.458    84650126.98947  20672422.0234         47.3004 
        47.5004 
 119086358.92346  22661383.544    92794557.66846  22661383.1984         40.1004 
        39.8004 
 125309288.65545  23845560.274    97643585.11945  23845559.4484         33.3004 
        33.2004 
 110511378.78448  21029618.145    86112748.32147  21029618.3204         48.2004 
        47.4004 
 113665239.94847  21629773.213    88570319.38147  21629770.3284         44.6004 
        44.2004 
 125173675.24444  23819754.176    97537927.99944  23819752.6964         29.6004 
        29.6004 
 127570225.06644  24275801.877    99405371.27444  24275802.4844         29.6004 
        29.4004 
 130300042.38843  24795287.587   101532473.59643  24795287.1164         20.1004 
        20.4004 
 131634344.02943  25049179.466   102572220.23044  25049179.9944         23.3004 
        24.3004 
 15 12 31  1 20  0.0000000  0  9G02G09G07G06G05G13G30G17G29
 108566264.88947  20659475.776    84597087.82247  20659469.3224         47.1004 
        47.0004 
 119143198.41346  22672199.677    92838848.11646  22672199.4034         39.9004 
        39.8004 
 125235904.46045  23831596.025    97586402.59445  23831595.0494         33.7004 
        33.9004 
 110524020.91848  21032023.742    86122599.29447  21032024.2774         48.8004 
        47.8004 
 113596741.19647  21616738.590    88516943.73147  21616735.7114         45.4004 
        45.1004 
 125038053.55944  23793946.117    97432248.73844  23793944.6264         29.1004 
        29.2004 
 127467230.66044  24256202.228    99325115.93744  24256203.4434         28.4004 
        28.6004 
 130387322.63743  24811895.875   101600483.89643  24811896.8154         20.1004 
        20.4004 
 131514531.34843  25026380.864   102478859.68043  25026379.9524         23.3004 
        22.6004 
 15 12 31  1 20 30.0000000  0  9G02G09G07G06G05G13G30G17G29
 108498490.85147  20646578.629    84544276.87347  20646572.3594         46.9004 
        46.5004 
 119200347.53646  22683075.045    92883379.83846  22683074.1104         39.6004 
        39.4004 
 125162850.52545  23817694.721    97529477.40445  23817693.4164         33.3004 
        33.4004 
 110537031.32647  21034499.686    86132737.21847  21034500.2294         47.9004 
        47.8004 
 113528462.30947  21603745.265    88463739.40847  21603742.7934         44.9004 
        44.6004 
 124902575.68844  23768165.752    97326681.54144  23768164.5644         29.7004 
        29.4004 
 127364319.31144  24236618.909    99244925.29744  24236620.0984         28.4004 
        28.4004 
 130474595.95142  24828503.594   101668488.78742  24828503.6564         15.3004 
        15.4004 
 131394968.84743  25003630.405   102385694.07043  25003626.9694         21.8004 
        21.8004 
 15 12 31  1 21  0.0000000  0  9G02G09G07G06G05G13G30G17G29
 108431011.65347  20633738.006    84491695.66547  20633731.5614         46.4004 
        46.6004 
 119257803.91546  22694008.069    92928150.98246  22694007.4574         39.1004 
        39.0004 
 125090129.37345  23803855.649    97472811.52645  23803854.7354         33.5004 
        33.6004 
 110550410.47348  21037046.079    86143162.47047  21037046.1144         48.6004 
        47.7004 
 113460403.10047  21590794.222    88410706.25347  21590791.4704         45.0004 
        44.4004 
 124767244.21444  23742413.184    97221228.44744  23742411.1944         29.8004 
        29.8004 
 127261494.26544  24217051.546    99164801.92544  24217053.6794         28.2004 
        28.3004 
 130561859.96542  24845110.418   101736486.40942  24845111.5674         15.3004 
        15.4004 
 131275659.36543  24980927.267   102292725.62943  24980924.0554         21.8004 
        21.8004 
 15 12 31  1 21 30.0000000  0  9G02G09G07G06G05G13G30G17G29
 108363830.48147  20620953.709    84439346.69747  20620947.5754         46.9004 
        47.6004 
 119315566.06946  22704999.700    92973160.38246  22704998.9114         38.7004 
        38.6004 
 125017744.58645  23790081.452    97416407.74445  23790079.9374         32.8004 
        32.9004 
 110564159.70648  21039662.694    86153876.10547  21039662.7304         48.2004 
        47.6004 
 113392564.66147  21577884.622    88357845.12647  21577881.8444         43.7004 
        43.6004 
 124632062.35844  23716689.484    97115891.94844  23716687.3224         29.5004 
        29.5004 
 127158759.66344  24197501.704    99084749.04244  24197503.4414         28.8004 
        29.0004 
 130649112.91041  24861715.468   101804475.37441  24861714.5064         10.1004 
         9.2004 
 131156606.69143  24958273.294   102199957.28743  24958269.4664         23.2004 
        22.3004 
 15 12 31  1 22  0.0000000  0  9G02G09G07G06G05G13G30G17G29
 108296951.55447  20608226.864    84387233.24447  20608220.5644         47.4004 
        47.3004 
 119373633.70846  22716049.920    93018407.83246  22716049.2644         38.7004 
        38.5004 
 124945701.03945  23776371.891    97360269.91045  23776370.6404         33.3004 
        33.4004 
 110578281.54247  21042349.911    86164880.08447  21042349.8594         47.9004 
        47.3004 
 113324948.90647  21565017.730    88305157.52447  21565015.1124         44.2004 
        43.7004 
 124497035.15645  23690994.668    97010675.96145  23690991.9554         30.4004 
        30.2004 
 127056120.78944  24177970.032    99004770.74344  24177971.9974         29.4004 
        29.3004 
 130736354.55941  24878318.426   101872455.47341  24878320.8924         10.1004 
         9.2004 
 131037815.54243  24935667.043   102107392.73744  24935663.6894         23.2004 
        24.1004 
 15 12 31  1 22 30.0000000  0  9G02G09G07G06G05G13G30G17G29
 108230376.03747  20595557.879    84335356.21647  20595551.8254         47.2004 
        47.2004 
 119432003.14546  22727157.477    93063890.47046  22727156.8904         38.6004 
        38.3004 
 124873999.83045  23762726.960    97304398.80245  23762725.4394         32.4004 
        32.5004 
 110592775.06848  21045107.465    86176173.69147  21045107.7354         48.0004 
        47.3004 
 113257554.35447  21552193.092    88252642.27647  21552190.4014         44.4004 
        44.1004 
 124362163.99945  23665329.108    96905581.58545  23665327.4054         30.8004 
        30.8004 
 126953579.56844  24158457.115    98924868.54444  24158459.1754         29.2004 
        29.0004 
 130823580.673 6  24894918.006                                          36.700  
                
 130919287.33544  24913110.701   102015033.10444  24913109.0514         24.3004 
        24.1004 
 15 12 31  1 23  0.0000000  0  9G02G09G07G06G05G13G30G17G29
 108164100.87147  20582946.398    84283713.22747  20582940.1194         47.5004 
        46.7004 
 119490667.12946  22738320.439    93109602.61746  22738320.1734         38.2004 
        38.0004 
 124802639.23745  23749147.933    97248793.13045  23749146.1084         32.5004 
        32.4004 
 110607635.84148  21047935.212    86187753.46847  21047935.9314         48.5004 
        47.6004 
 113190376.21147  21539409.615    88200295.66547  21539407.2814         44.8004 
        44.2004 
 124227446.38445  23639693.068    96800606.83145  23639690.8884         30.8004 
        30.7004 
 126851134.37544  24138961.944    98845041.18844  24138963.5994         29.2004 
        29.0004 
 130910784.977 6  24911512.271                                          36.100  
                
 130801020.03544  24890605.623   101922876.74344  24890604.8694         25.0004 
        24.9004 
 15 12 31  1 23 30.0000000  0  9G02G09G07G06G05G13G30G17G29
 108098130.44147  20570392.561    84232307.69647  20570386.3794         47.7004 
        47.2004 
 119549625.26746  22749539.953    93155543.99146  22749539.7214         37.8004 
        37.7004 
 124731623.74245  23735633.499    97193456.36945  23735632.6314         32.0004 
        32.1004 
 110622866.29347  21050833.764    86199621.30147  21050834.4484         47.5004 
        47.8004 
 113123416.51747  21526668.067    88148119.26947  21526665.0134         45.3004 
        44.8004 
 124092887.08245  23614086.689    96695755.44145  23614085.3724         30.1004 
        30.0004 
 126748790.48844  24119487.530    98765292.74044  24119488.1204         29.5004 
        29.3004 
 130997966.532 5  24928101.816                                          34.000  
                
 130683019.04744  24868151.685   101830927.89644  24868149.9194         25.7004 
        25.5004 
 15 12 31  1 24  0.0000000  0  9G02G09G07G06G05G13G30G17G29
 108032470.91447  20557898.114    84181144.42147  20557891.8334         47.9004 
        47.6004 
 119608879.24746  22760815.233    93201715.88946  22760815.5894         37.4004 
        37.3004 
 124660959.81545  23722186.720    97138393.57745  23722186.1424         32.2004 
        31.8004 
 110638470.82847  21053803.445    86211780.63147  21053803.6474         47.9004 
        47.2004 
 113056679.00847  21513968.262    88096115.99147  21513965.0814         44.8004 
        44.8004 
 123958492.64345  23588513.383    96591032.56545  23588511.1364         30.9004 
        30.4004 
 126646555.19745  24100032.802    98685628.88344  24100033.8554         30.1004 
        29.8004 
 131085126.972 5  24944684.792                                          31.200  
                
 130565291.38444  24845749.395   101739192.03344  24845746.6844         26.3004 
        26.4004 
 15 12 31  1 24 30.0000000  0  9G02G09G07G06G05G13G30G17G29
 107967117.13648  20545461.753    84130219.39247  20545455.3784         48.5004 
        47.4004 
 119668419.18646  22772144.816    93248110.61446  22772145.1834         37.1004 
        37.0004 
 124590642.61545  23708806.223    97083600.93145  23708805.2374         33.2004 
        33.0004 
 110654442.35948  21056842.807    86224225.92847  21056843.1254         48.2004 
        47.8004 
 112990156.18747  21501309.334    88044280.00447  21501306.2194         45.2004 
        45.2004 
 123824258.20445  23562968.632    96486434.34445  23562967.1514         31.2004 
        31.2004 
 126544424.24245  24080597.017    98606046.32945  24080599.6074         30.1004 
        30.1004 
 131172256.6224   24961266.194   102212216.7904   24961271.2674          1.0004 
         1.0004 
 130447832.02844  24823396.810   101647665.26644  24823392.9754         26.1004 
        25.8004 
 15 12 31  1 25  0.0000000  0  8G02G09G07G06G05G13G30G29
 107902070.62248  20533083.565    84079533.80147  20533077.5234         48.0004 
        47.8004 
 119728242.25846  22783529.374    93294725.96946  22783529.1794         37.2004 
        37.0004 
 124520674.42445  23695491.415    97029080.25145  23695490.5414         33.5004 
        33.5004 
 110670780.75947  21059952.029    86236957.10347  21059952.2974         47.9004 
        47.6004 
 112923847.68047  21488691.035    87992611.01747  21488687.9814         45.1004 
        44.7004 
 123690186.08745  23537455.842    96381962.60145  23537453.2094         30.7004 
        30.7004 
 126442400.38444  24061181.715    98526547.23444  24061185.0174         29.4004 
        29.6004 
 130330643.11144  24801097.771   101556349.22444  24801094.1734         25.0004 
        24.7004 
 15 12 31  1 25 30.0000000  0  9G02G09G07G06G05G13G30G17G29
 107837335.16148  20520764.644    84029090.58047  20520758.7444         48.0004 
        47.3004 
 119788347.42146  22794967.690    93341561.12146  22794966.7474         37.1004 
        37.1004 
 124451059.16845  23682245.090    96974834.60645  23682244.0074         34.0004 
        33.9004 
 110687487.76148  21063131.673    86249975.49647  21063131.5674         48.0004 
        47.8004 
 112857754.55147  21476114.116    87941109.86247  21476110.7894         45.0004 
        45.0004 
 123556280.26245  23511974.849    96277620.43145  23511971.6684         31.7004 
        31.7004 
 126340488.20844  24041788.209    98447135.18244  24041790.8334         28.8004 
        28.7004 
 131346411.4964   24994409.259   102347921.3324   24994410.0314          1.0004 
         1.0004 
 130213729.16344  24778847.808   101465247.42644  24778846.6274         24.7004 
        24.7004 
 15 12 31  1 26  0.0000000  0  9G02G09G07G06G05G13G30G17G29
 107772913.83847  20508505.841    83978892.13847  20508499.7004         47.1004 
        46.9004 
 119848733.61046  22806458.799    93388615.24546  22806457.6954         37.0004 
        37.0004 
 124381800.34845  23669065.761    96920866.70045  23669064.8024         34.1004 
        34.2004 
 110704565.02547  21066381.278    86263282.40247  21066381.1374         47.6004 
        47.8004 
 112791877.94547  21463578.610    87889777.41547  21463575.2204         45.5004 
        45.5004 
 123422544.40045  23486524.798    96173410.71145  23486521.8574         31.0004 
        31.5004 
 126238692.28444  24022417.689    98367813.73144  24022419.6504         29.3004 
        28.9004 
 131433436.100 4  25010968.171                                          27.000  
                
 130097094.23844  24756652.947   101374363.08444  24756652.4014         25.2004 
        25.0004 
 15 12 31  1 26 30.0000000  0  8G02G09G07G06G05G13G30G29
 107708808.58247  20496306.927    83928939.97847  20496300.8734         47.6004 
        46.7004 
 119909397.81746  22818003.080    93435886.00446  22818001.7914         36.8004 
        36.8004 
 124312900.14145  23655954.133    96867178.24145  23655952.3464         33.5004 
        33.5004 
 110722012.25448  21069701.476    86276877.59448  21069701.6724         48.7004 
        48.6004 
 112726217.36047  21451083.578    87838613.30147  21451080.5684         45.5004 
        45.6004 
 123288980.58145  23461108.936    96069335.03345  23461104.7064         30.3004 
        30.1004 
 126137015.26345  24003070.943    98288584.94745  24003072.0194         31.4004 
        31.3004 
 129980740.24944  24734511.299   101283697.61444  24734510.0484         25.6004 
        25.2004 
 15 12 31  1 27  0.0000000  0  8G02G09G07G06G05G13G30G29
 107645021.40548  20484168.829    83879235.67047  20484162.6914         48.7004 
        47.3004 
 119970337.29446  22829598.939    93483371.26046  22829598.7164         36.7004 
        36.8004 
 124244360.85545  23642911.097    96813771.01345  23642910.0634         33.3004 
        33.2004 
 110739829.36448  21073091.665    86290761.00048  21073091.7844         48.5004 
        48.4004 
 112660772.53147  21438629.635    87787617.31847  21438626.7594         45.6004 
        46.0004 
 123155591.25345  23435726.260    95965395.32545  23435723.4604         31.9004 
        31.9004 
 126035459.98845  23983745.368    98209450.99445  23983747.4554         32.1004 
        31.9004 
 129864670.26944  24712425.018   101193253.45744  24712423.7094         25.8004 
        25.7004 
 15 12 31  1 27 30.0000000  0  8G02G09G07G06G05G13G30G29
 107581558.72947  20472092.268    83829784.22047  20472086.1674         47.8004 
        47.5004 
 120031554.60946  22841248.921    93531073.01846  22841248.3584         37.2004 
        37.1004 
 124176190.16945  23629938.901    96760650.99645  23629937.5984         33.0004 
        33.1004 
 110758021.61048  21076553.964    86304936.74047  21076553.7334         48.3004 
        47.8004 
 112595547.95047  21426218.225    87736792.95347  21426214.7204         45.8004 
        45.9004 
 123022383.90545  23410377.232    95861597.42945  23410374.8864         31.7004 
        31.8004 
 125934034.73545  23964444.702    98130418.33445  23964447.4464         33.0004 
        32.7004 
 129748891.73244  24690393.025   101103036.37944  24690391.3324         26.3004 
        26.2004 
 15 12 31  1 28  0.0000000  0  8G02G09G07G06G05G13G30G29
 107518416.88347  20460076.602    83780582.77747  20460070.7594         47.9004 
        47.7004 
 120093040.96146  22852949.224    93578984.42846  22852948.9434         37.4004 
        37.3004 
 124108383.98645  23617035.997    96707815.03045  23617034.9674         34.1004 
        34.1004 
 110776582.92547  21080085.304    86319400.05447  21080085.9424         47.4004 
        47.3004 
 112530537.21347  21413846.860    87686135.21747  21413843.4554         46.2004 
        45.8004 
 122889354.45845  23385063.223    95757938.11545  23385060.1474         31.9004 
        31.9004 
 125832736.22545  23945168.047    98051484.44345  23945170.9594         32.1004 
        32.0004 
 129633401.35744  24668415.341   101013043.86544  24668413.4884         26.6004 
        26.6004 
 15 12 31  1 28 30.0000000  0  8G02G09G07G06G05G13G30G29
 107455602.12348  20448123.359    83731636.19148  20448117.5064         48.5004 
        48.1004 
 120154798.81346  22864700.703    93627107.39446  22864701.5884         37.3004 
        37.3004 
 124040949.37545  23604203.290    96655268.58645  23604201.8474         34.3004 
        34.2004 
 110795518.34547  21083688.677    86334154.88247  21083689.0584         47.7004 
        47.3004 
 112465745.41347  21401517.425    87635648.08347  21401514.4764         46.4004 
        46.3004 
 122756510.53245  23359782.650    95654423.36945  23359781.2514         31.8004 
        31.9004 
 125731572.58945  23925917.048    97972655.65945  23925918.7964         31.7004 
        31.4004 
 129518206.34844  24646495.107   100923281.50444  24646492.8304         26.7004 
        26.7004 
 15 12 31  1 29  0.0000000  0  8G02G09G07G06G05G13G30G29
 107393115.04648  20436232.855    83682944.94147  20436226.4884         48.3004 
        47.6004 
 120216823.29546  22876503.836    93675438.11946  22876504.1764         36.9004 
        36.8004 
 123973886.58045  23591442.296    96603011.87745  23591440.6534         34.4004 
        34.4004 
 110814825.71847  21087363.261    86349199.56347  21087363.1484         47.4004 
        47.3004 
 112401169.63447  21389228.944    87585329.28247  21389226.0024         46.6004 
        46.1004 
 122623852.12745  23334539.140    95551053.20545  23334537.2484         31.9004 
        31.8004 
 125630544.60045  23906692.020    97893932.58145  23906692.8854         30.2004 
        30.1004 
 129403307.12344  24624630.550   100833749.62144  24624627.6844         26.7004 
        26.5004 
 15 12 31  1 29 30.0000000  0  8G02G09G07G06G05G13G30G29
 107330956.30148  20424404.280    83634509.52948  20424398.0404         48.5004 
        49.2004 
 120279110.74846  22888356.020    93723973.75946  22888356.4684         36.2004 
        36.0004 
 123907196.69445  23578750.997    96551045.74645  23578749.9664         34.1004 
        34.0004 
 110834503.94647  21091107.924    86364533.20347  21091107.8394         47.5004 
        47.2004 
 112336808.41247  21376981.748    87535177.67247  21376978.4814         46.9004 
        46.5004 
 122491380.57745  23309330.494    95447828.59245  23309328.1284         32.1004 
        32.3004 
 125529654.19544  23887492.335    97815316.70144  23887493.9334         29.2004 
        29.4004 
 129288705.09344  24602822.468   100744449.36044  24602820.3754         26.2004 
        26.2004 
 15 12 31  1 30  0.0000000  0  8G02G09G07G06G05G13G30G29
 107269125.25448  20412638.327    83586329.47147  20412632.2584         48.4004 
        47.8004 
 120341656.29245  22900258.552    93772710.50845  22900257.8864         35.2004 
        35.1004 
 123840879.91845  23566131.784    96499370.34045  23566129.0014         33.3004 
        33.8004 
 110854550.87247  21094922.499    86380154.13347  21094922.3464         47.2004 
        46.6004 
 112272659.57547  21364774.315    87485191.55547  21364771.2124         46.8004 
        46.9004 
 122359095.98245  23284157.044    95344749.68145  23284155.1634         32.1004 
        32.1004 
 125428902.18744  23868320.423    97736808.64044  23868321.6974         29.6004 
        29.8004 
 129174401.33444  24581073.179   100655381.45844  24581069.0664         26.6004 
        26.9004 
 15 12 31  1 30 30.0000000  0  8G02G09G07G06G05G13G30G29
 107207626.38948  20400935.634    83538408.25247  20400929.4604         48.4004 
        47.7004 
 120404459.65045  22912210.174    93821648.13445  22912208.3304         34.8004 
        34.8004 
 123774940.76345  23553583.609    96447989.19645  23553581.3574         32.8004 
        33.0004 
 110874968.76347  21098808.285    86396064.12247  21098808.1254         47.1004 
        47.5004 
 112208725.08247  21352608.290    87435372.46447  21352605.2014         47.3004 
        46.8004 
 122227003.08145  23259020.786    95241820.11645  23259018.4534         32.2004 
        31.9004 
 125328293.89345  23849175.807    97658412.55245  23849177.0354         32.1004 
        31.8004 
 129060399.61844  24559379.555   100566548.91244  24559376.1484         27.3004 
        27.7004 
 15 12 31  1 31  0.0000000  0  8G02G09G07G06G05G13G30G29
 107146463.17548  20389296.651    83490748.58247  20389290.4664         48.4004 
        47.7004 
 120467519.70845  22924209.505    93870785.80245  22924208.8704         35.0004 
        34.9004 
 123709382.81245  23541107.975    96396905.08145  23541106.9314         32.4004 
        32.5004 
 110895759.10047  21102764.438    86412264.32947  21102764.5434         47.4004 
        46.9004 
 112145005.73647  21340482.532    87385721.02447  21340479.5754         47.5004 
        46.7004 
 122095105.58245  23233920.877    95139042.83145  23233918.8994         31.2004 
        31.1004 
 125227833.83745  23830059.224    97580131.98545  23830060.9914         33.3004 
        33.3004 
 128946704.79344  24537742.312   100477955.54344  24537740.0314         27.1004 
        27.2004 
 15 12 31  1 31 30.0000000  0  8G02G09G07G06G05G13G30G29
 107085631.02048  20377720.475    83443346.87848  20377714.2504         48.3004 
        48.0004 
 120530827.54945  22936256.971    93920116.53245  22936256.3754         34.9004 
        34.7004 
 123644201.76445  23528704.318    96346114.68945  23528703.7294         32.7004 
        32.7004 
 110916915.53647  21106790.461    86428749.81947  21106790.5254         47.5004 
        47.1004 
 112081495.45847  21328396.768    87336232.50447  21328393.8994         46.9004 
        46.8004 
 121963399.52445  23208859.558    95036414.71845  23208857.2404         32.7004 
        33.0004 
 125127518.71345  23810969.777    97501964.33345  23810970.4664         32.9004 
        33.3004 
 128833313.23744  24516164.267   100389598.45644  24516161.8334         26.3004 
        26.4004 
 15 12 31  1 32  0.0000000  0  8G02G09G07G06G05G13G30G29
 107025136.15348  20366208.832    83396207.99447  20366202.5374         48.3004 
        47.9004 
 120594384.59345  22948351.487    93969641.44945  22948351.8664         35.5004 
        35.4004 
 123579404.37545  23516373.937    96295623.23245  23516372.7974         33.3004 
        33.3004 
 110938442.11847  21110887.068    86445523.73247  21110887.2384         47.1004 
        46.6004 
 112018197.47947  21316351.801    87286909.40847  21316348.8654         46.8004 
        46.5004 
 121831891.47345  23183835.198    94933940.87645  23183831.8584         33.5004 
        33.6004 
 125027355.62145  23791908.900    97423915.13845  23791910.0754         31.9004 
        32.1004 
 128720230.94844  24494645.070   100301482.36044  24494643.0104         25.5004 
        26.4004 
 15 12 31  1 32 30.0000000  0  8G02G09G07G06G05G13G30G29
 106964978.01147  20354761.204    83349331.49247  20354754.7604         47.6004 
        47.3004 
 120658186.42445  22960492.914    94019357.10945  22960493.2074         35.7004 
        35.4004 
 123514990.36545  23504115.946    96245430.51345  23504115.7214         34.4004 
        34.3004 
 110960336.87847  21115053.474    86462584.53747  21115053.7734         47.8004 
        47.2004 
 111955109.76747  21304346.020    87237750.15547  21304343.5874         46.5004 
        46.5004 
 121700581.89645  23158846.783    94831621.69645  23158844.8164         33.3004 
        33.2004 
 124927345.66145  23772878.047    97345985.26745  23772879.2234         31.7004 
        31.7004 
 128607458.92444  24473185.579   100213608.03144  24473180.9994         25.5004 
        25.5004 
 15 12 31  1 33  0.0000000  0  8G02G09G07G06G05G13G30G29
 106905161.29147  20343378.404    83302721.02847  20343372.1314         47.6004 
        47.3004 
 120722232.69645  22972680.218    94069263.24945  22972681.1404         35.8004 
        35.4004 
 123450964.61045  23491932.001    96195540.34245  23491931.6804         34.2004 
        34.1004 
 110982602.09847  21119289.807    86479934.01347  21119290.5294         47.4004 
        46.8004 
 111892234.58347  21292381.563    87188756.51747  21292378.6254         46.8004 
        46.4004 
 121569475.15145  23133897.573    94729460.59845  23133896.3674         32.9004 
        32.8004 
 124827494.22345  23753876.284    97268178.90745  23753877.5624         31.2004 
        31.7004 
 128495002.25543  24451786.638   100125979.43643  24451782.3804         23.7004 
        23.6004 
 15 12 31  1 33 30.0000000  0  8G02G09G07G06G05G13G30G29
 106845685.07947  20332060.240    83256375.89847  20332054.1664         47.3004 
        47.1004 
 120786518.09845  22984914.018    94119355.72945  22984913.4834         35.2004 
        35.0004 
 123387326.65845  23479821.512    96145952.35745  23479821.8804         33.7004 
        33.6004 
 111005234.94447  21123597.519    86497569.95647  21123597.6574         47.4004 
        47.0004 
 111829568.58547  21280457.250    87139925.88047  21280453.7804         46.6004 
        46.2004 
 121438570.99645  23108987.438    94627457.31945  23108985.3994         33.3004 
        33.4004 
 124727801.52745  23734905.035    97190496.23945  23734906.3404         30.5004 
        30.2004 
 128382860.54644  24430445.876   100038596.25644  24430443.7224         24.3004 
        24.7004 
 15 12 31  1 34  0.0000000  0  9G02G09G07G06G20G05G13G30G29
 106786557.12848  20320808.413    83210302.13147  20320802.4384         48.0004 
        47.4004 
 120851045.67145  22997192.515    94169636.89845  22997192.0954         34.7004 
        34.5004 
 123324083.80845  23467787.622    96096672.26345  23467786.3504         33.7004 
        33.6004 
 111028241.01247  21127974.501    86515496.71647  21127975.5554         46.8004 
        46.9004 
 131266481.44841  24979182.206   102285574.77041  24979178.7384          6.7004 
         7.2004 
 111767116.87447  21268572.369    87091262.20747  21268569.7404         46.3004 
        46.1004 
 121307877.48345  23084117.458    94525618.18045  23084115.3254         33.5004 
        33.4004 
 124628276.31345  23715966.171    97112944.07145  23715969.0914         30.3004 
        30.6004 
 128271041.79944  24409167.730    99951464.74944  24409165.5314         25.7004 
        26.0004 
 15 12 31  1 34 30.0000000  0  9G02G09G07G06G20G05G13G30G29
 106727771.66747  20309622.322    83164495.24447  20309616.0214         47.7004 
        47.3004 
 120915805.53845  23009515.946    94220099.07245  23009516.1364         34.7004 
        34.4004 
 123261231.09245  23455827.576    96047696.15345  23455826.2514         33.2004 
        33.3004 
 111051612.87347  21132422.262    86533708.50847  21132423.2084         46.8004 
        46.4004 
 131159846.92141  24958893.814   102202482.89141  24958888.5354          7.8004 
         8.2004 
 111704872.38547  21256727.881    87042760.00647  21256725.0544         46.3004 
        45.6004 
 121177389.58945  23059286.120    94423939.28545  23059284.8824         33.8004 
        33.7004 
 124528914.28345  23697059.466    97035519.07845  23697061.0794         32.5004 
        32.3004 
 128159541.43844  24387949.947    99864581.31844  24387948.2744         26.4004 
        27.1004 
 15 12 31  1 35  0.0000000  0  9G02G09G07G06G20G05G13G30G29
 106669336.17147  20298502.190    83118961.05547  20298496.2944         47.6004 
        47.0004 
 120980800.43545  23021884.800    94270744.40145  23021884.6974         35.2004 
        34.9004 
 123198775.84145  23443942.595    95999029.76445  23443941.3264         34.0004 
        33.9004 
 111075355.76947  21136941.087    86552209.41347  21136941.1014         47.7004 
        47.3004 
 131053253.55341  24938604.996   102119423.07741  24938603.4484          7.8004 
         8.3004 
 111642839.91147  21244924.009    86994423.01947  21244920.6774         46.8004 
        45.6004 
 121047114.98445  23034496.281    94322426.59845  23034494.7194         33.1004 
        33.4004 
 124429723.80745  23678182.585    96958227.73145  23678185.5204         32.4004 
        32.4004 
 128048366.88944  24366794.261    99777951.77744  24366791.3734         27.5004 
        27.6004 
 15 12 31  1 35 30.0000000  0  9G02G09G07G06G20G05G13G30G29
 106611249.55447  20287448.575    83073698.72447  20287442.8264         47.4004 
        46.2004 
 121046024.82145  23034296.360    94321568.54845  23034296.3584         35.8004 
        35.5004 
 123136717.36245  23432133.485    95950672.56045  23432132.3344         34.7004 
        34.8004 
 111099466.61047  21141529.085    86570997.02647  21141529.4264         47.2004 
        47.0004 
 130946698.44241  24918329.407   102036393.12041  24918329.0354          8.6004 
         8.3004 
 111581016.02547  21233158.606    86946248.57247  21233155.7584         45.7004 
        45.6004 
 120917052.64645  23009745.736    94221079.30645  23009744.7634         33.9004 
        33.8004 
 124330704.95545  23659341.783    96881070.11645  23659343.0384         33.0004 
        33.0004 
 127937518.50244  24345699.619    99691576.38344  24345699.0184         27.6004 
        27.4004 
 15 12 31  1 36  0.0000000  0  9G02G09G07G06G20G05G13G30G29
 106553518.79647  20276463.193    83028713.69547  20276457.2214         47.9004 
        47.1004 
 121111481.12546  23046752.412    94372573.39946  23046753.0194         36.1004 
        36.0004 
 123075062.63645  23420400.857    95902629.96745  23420400.2294         35.9004 
        35.9004 
 111123950.26847  21146188.374    86590075.15647  21146188.3244         46.7004 
        46.7004 
 130840186.49041  24898062.475   101953396.74541  24898060.3204          8.6004 
         9.1004 
 111519405.52147  21221434.338    86898240.38647  21221431.8174         46.3004 
        46.5004 
 120787210.39445  22985037.617    94119903.52545  22985036.2354         34.2004 
        34.1004 
 124231865.75145  23640533.020    96804052.49445  23640534.1444         33.2004 
        33.2004 
 127827002.97444  24324669.964    99605460.36344  24324668.1844         27.8004 
        27.8004 
 15 12 31  1 36 30.0000000  0  9G02G09G07G06G20G05G13G30G29
 106496139.33847  20265543.868    82984002.40547  20265538.1094         47.4004 
        47.3004 
 121177160.47645  23059251.139    94423752.05545  23059251.3194         35.6004 
        35.4004 
 123013807.34445  23408745.189    95854898.61545  23408743.3324         35.7004 
        35.6004 
 111148800.35647  21150917.082    86609438.80447  21150917.3364         47.0004 
        46.8004 
 130733711.39842  24877801.274   101870429.05741  24877799.1094         14.1004 
         9.1004 
 111458002.00947  21209750.380    86850393.49747  21209747.0084         45.9004 
        45.5004 
 120657584.18545  22960370.749    94018896.06445  22960368.4354         33.8004 
        33.9004 
 124133202.93745  23621758.410    96727172.34745  23621759.7764         33.4004 
        33.3004 
 127716817.27444  24303702.860    99519601.35044  24303700.0394         28.1004 
        28.1004 
 15 12 31  1 37  0.0000000  0  9G02G09G07G06G20G05G13G30G29
 106439114.21347  20254692.571    82939567.22247  20254686.5364         46.8004 
        46.8004 
 121243061.34445  23071790.766    94475103.32445  23071791.7484         34.8004 
        34.5004 
 122952954.87845  23397165.196    95807481.16545  23397163.4214         35.0004 
        35.0004 
 111174017.67047  21155715.701    86629088.61347  21155716.1844         46.7004 
        46.5004 
 130627273.95742  24857546.150   101787490.72542  24857544.0174         14.1004 
        15.0004 
 111396806.12747  21198104.677    86802708.40247  21198101.9184         45.7004 
        45.5004 
 120528177.08145  22935746.180    93918059.36645  22935743.9774         35.0004 
        34.9004 
 124034720.48845  23603018.007    96650432.78645  23603018.8254         33.2004 
        33.3004 
 127606964.69444  24282797.773    99434001.93144  24282796.1404         28.6004 
        28.6004 
 15 12 31  1 37 30.0000000  0  9G02G09G07G06G20G05G13G30G29
 106382445.78747  20243908.545    82895409.99047  20243903.0034         46.6004 
        46.3004 
 121309181.87245  23084373.846    94526625.77145  23084373.7134         34.7004 
        34.5004 
 122892507.63445  23385662.305    95760379.46145  23385660.0654         34.6004 
        34.6004 
 111199602.78147  21160584.416    86649025.00747  21160584.6644         46.5004 
        46.5004 
 130520875.66042  24837298.829   101704582.87842  24837297.4794         13.3004 
        15.0004 
 111335818.11147  21186499.046    86755185.27547  21186496.4524         46.3004 
        46.0004 
 120398992.32545  22911162.466    93817395.90545  22911160.2664         35.4004 
        35.3004 
 123936422.26145  23584311.393    96573836.76245  23584313.9014         32.9004 
        32.7004 
 127497448.24944  24261958.308    99348664.41344  24261957.0054         28.4004 
        28.4004 
 15 12 31  1 38  0.0000000  0  9G02G09G07G06G20G05G13G30G29
 106326139.52947  20233194.051    82851534.96847  20233188.2084         47.8004 
        47.1004 
 121375522.95445  23096998.404    94578320.08345  23096997.8104         34.4004 
        34.2004 
 122832471.21045  23374237.170    95713597.87845  23374235.1874         33.4004 
        33.6004 
 111225558.98347  21165523.563    86669250.57547  21165524.1774         46.3004 
        46.0004 
 130414519.52742  24817059.868   101621707.87141  24817058.9014         13.3004 
        11.2004 
 111275041.32847  21174933.643    86707826.74147  21174930.8634         46.5004 
        46.2004 
 120270035.28845  22886623.197    93716909.89345  22886621.0504         34.4004 
        34.4004 
 123838314.71445  23565642.371    96497389.28445  23565644.8484         32.7004 
        32.5004 
 127388273.98844  24241183.394    99263593.54944  24241180.7254         28.5004 
        28.6004 
 15 12 31  1 38 30.0000000  0  9G02G09G07G06G20G05G13G30G29
 106270194.16847  20222548.400    82807941.16548  20222542.2434         47.7004 
        48.4004 
 121442078.90545  23109663.593    94630181.81645  23109662.4504         34.4004 
        34.1004 
 122772844.43445  23362890.764    95667135.48545  23362888.7834         34.2004 
        34.2004 
 111251882.99947  21170533.270    86689762.75347  21170533.5804         46.7004 
        46.0004 
 130308202.40241  24796827.350   101538863.22341  24796826.2084         11.1004 
        11.2004 
 111214472.11047  21163408.024    86660629.95347  21163404.9214         46.8004 
        46.2004 
 120141305.76745  22862126.094    93616601.16845  22862125.1114         34.8004 
        34.8004 
 123740397.71745  23547010.720    96421090.30245  23547012.0204         34.0004 
        33.9004 
 127279441.75144  24220473.444    99178789.19344  24220469.8544         28.4004 
        28.7004 
 15 12 31  1 39  0.0000000  0  9G02G09G07G06G20G05G13G30G29
 106214613.78348  20211971.886    82764631.75847  20211965.7614         48.9004 
        47.4004 
 121508849.27245  23122369.814    94682210.63345  23122368.5144         33.9004 
        33.7004 
 122713631.34445  23351622.856    95620995.44645  23351621.3764         34.4004 
        34.4004 
 111278576.71447  21175612.549    86710562.99947  21175613.3054         46.4004 
        46.0004 
 130201926.60941  24776604.363   101456050.80541  24776603.4624         11.1004 
         9.5004 
 111154112.36447  21151921.379    86613596.39447  21151918.6844         46.2004 
        45.7004 
 120012807.62045  22837674.048    93516472.72845  22837671.4564         34.8004 
        34.9004 
 123642676.42645  23528414.217    96344943.84045  23528415.7774         33.9004 
        33.9004 
 127170955.58544  24199827.499    99094254.50844  24199825.1074         28.1004 
        28.2004 
 15 12 31  1 39 30.0000000  0  9G02G09G07G06G20G05G13G30G29
 106159399.20547  20201464.963    82721607.39547  20201458.8374         47.8004 
        47.3004 
 121575830.59045  23135115.371    94734403.82645  23135115.0974         33.8004 
        33.5004 
 122654832.97445  23340433.339    95575178.52545  23340432.7014         35.1004 
        35.0004 
 111305638.93247  21180762.743    86731650.39947  21180763.3294         46.7004 
        46.6004 
 130095691.1884   24756390.439   101373269.86641  24756386.7144          5.9004 
         9.5004 
 111093961.02147  21140475.321    86566725.21447  21140472.2464         46.3004 
        45.9004 
 119884542.12045  22813265.090    93416525.57145  22813264.0414         34.0004 
        34.1004 
 123545152.88145  23509855.220    96268951.48045  23509856.7104         33.3004 
        33.2004 
 127062817.02844  24179250.482    99009990.67744  24179247.1574         27.7004 
        27.8004 
 15 12 31  1 40  0.0000000  0  8G02G09G07G06G05G13G30G29
 106104551.46348  20191027.514    82678868.87947  20191021.6324         48.2004 
        47.6004 
 121643019.59345  23147901.051    94786758.86845  23147901.0014         34.0004 
        33.7004 
 122596450.84045  23329323.730    95529685.96745  23329322.9354         34.9004 
        34.9004 
 111333068.81847  21185982.142    86753024.28547  21185983.1544         47.3004 
        46.8004 
 111034017.16947  21129069.104    86520015.71147  21129065.6924         46.7004 
        46.7004 
 119756511.31445  22788902.179    93316761.28945  22788899.2134         34.4004 
        34.2004 
 123447829.47445  23491335.074    96193115.05445  23491336.7234         32.2004 
        32.1004 
 126955028.05444  24158738.886    98925999.26844  24158736.6984         28.1004 
        28.2004 
 15 12 31  1 40 30.0000000  0  8G02G09G07G06G05G13G30G29
 106050071.17048  20180660.300    82636416.68947  20180654.3804         48.0004 
        47.5004 
 121710412.58245  23160724.767    94839272.85745  23160725.7584         34.2004 
        34.0004 
 122538485.59045  23318293.704    95484518.24845  23318292.4824         35.5004 
        35.5004 
 111360864.92547  21191272.128    86774683.53947  21191272.4964         47.3004 
        47.0004 
 110974279.12447  21117701.128    86473466.57547  21117697.9174         47.6004 
        47.4004 
 119628716.09245  22764583.232    93217180.57945  22764581.6694         34.0004 
        34.2004 
 123350708.03645  23472853.499    96117436.02045  23472856.0034         32.4004 
        32.5004 
 126847590.15644  24138293.800    98842281.41244  24138291.6584         28.0004 
        28.1004 
 15 12 31  1 41  0.0000000  0  8G02G09G07G06G05G13G30G29
 105995967.13148  20170364.748    82594257.68747  20170358.6394         48.4004 
        47.4004 
 121778013.51645  23173589.036    94891948.90345  23173590.3724         34.4004 
        34.0004 
 122480945.81145  23307344.013    95439682.06745  23307343.2294         35.0004 
        35.1004 
 111389033.50147  21196632.229    86796633.03847  21196632.8724         47.4004 
        46.6004 
 110914753.11847  21106373.272    86427082.66647  21106370.5034         46.3004 
        46.4004 
 119501165.19445  22740312.221    93117790.24545  22740309.5964         35.5004 
        35.6004 
 123253798.08145  23454412.864    96041921.75545  23454414.4214         33.8004 
        33.7004 
 126740512.34044  24117918.368    98758844.14444  24117914.8274         28.1004 
        28.4004 
 15 12 31  1 41 30.0000000  0  9G02G09G07G06G20G05G13G30G29
 105942234.43748  20160139.908    82552388.04747  20160133.6864         48.5004 
        47.5004 
 121845813.33545  23186490.904    94944779.91445  23186491.8604         34.2004 
        34.0004 
 122423826.64445  23296474.452    95395173.65045  23296473.4304         35.2004 
        35.2004 
 111417567.81747  21202062.145    86818867.51847  21202062.7334         46.9004 
        46.7004 
 129671177.500 5  24675602.860                                          34.200  
                
 110855432.35547  21095084.704    86380858.67547  21095081.5694         46.4004 
        46.7004 
 119373854.32345  22716085.569    93018586.96545  22716083.1164         35.0004 
        35.0004 
 123157096.04345  23436010.409    95966569.53145  23436012.1074         33.4004 
        33.4004 
 126633790.35644  24097609.101    98675684.16744  24097605.3644         28.3004 
        28.2004 
 15 12 31  1 42  0.0000000  0  9G02G09G07G06G20G05G13G30G29
 105888875.12048  20149985.682    82510809.35548  20149979.6764         48.6004 
        48.3004 
 121913809.85245  23199430.548    94997764.17745  23199430.8614         34.1004 
        33.9004 
 122367130.35245  23285685.478    95350994.74845  23285684.6514         35.3004 
        35.3004 
 111446467.86447  21207561.872    86841386.98147  21207561.9644         46.6004 
        46.5004 
 129565143.109 5  24655425.263                                          34.400  
                
 110796317.09747  21083835.834    86334794.82447  21083832.7684         46.8004 
        46.9004 
 119246786.16745  22691905.394    92919572.79245  22691903.6154         35.8004 
        35.9004 
 123060605.31845  23417648.495    95891381.96645  23417650.3654         33.0004 
        32.9004 
 126527426.69044  24077368.917    98592803.39544  24077365.0514         28.0004 
        27.9004 
 15 12 31  1 42 30.0000000  0  9G02G09G07G06G20G05G13G30G29
 105835891.43648  20139903.410    82469523.35947  20139897.1304         48.3004 
        47.8004 
 121982000.74545  23212407.000    95050899.90545  23212406.6694         34.4004 
        34.3004 
 122310859.06845  23274977.811    95307147.02945  23274975.9334         35.0004 
        35.2004 
 111475733.61947  21213131.014    86864191.40647  21213131.1394         46.5004 
        46.4004 
 129459148.495 6  24635256.842                                          39.300  
                
 110737407.15847  21072625.789    86288890.95547  21072622.4024         46.8004 
        46.8004 
 119119963.23245  22667771.711    92820749.72245  22667768.7824         35.2004 
        35.3004 
 122964329.13145  23399328.559    95816361.55745  23399330.5124         33.0004 
        32.9004 
 126421423.95644  24057197.121    98510203.87844  24057194.9554         27.8004 
        27.7004 
 15 12 31  1 43  0.0000000  0  9G02G09G07G06G20G05G13G30G29
 105783289.23748  20129893.606    82428534.62347  20129887.3544         48.2004 
        47.8004 
 122050387.79145  23225420.634    95104188.49245  23225420.5284         34.5004 
        34.4004 
 122255018.92745  23264351.785    95263635.26845  23264350.0094         34.8004 
        34.9004 
 111505369.05247  21218770.542    86887283.88847  21218770.6204         46.5004 
        46.5004 
 129353197.496 6  24615092.653                                          37.700  
                
 110678706.21647  21061455.355    86243149.93547  21061451.8604         46.5004 
        46.6004 
 118993391.90945  22643686.058    92722122.69845  22643683.5474         35.3004 
        35.2004 
 122868274.79745  23381049.662    95741514.03345  23381051.9194         33.9004 
        33.9004 
 126315789.57544  24037096.083    98427891.39744  24037092.5374         28.2004 
        28.2004 
 15 12 31  1 43 30.0000000  0  9G02G09G07G06G20G05G13G30G29
 105731066.44748  20119956.023    82387841.52847  20119949.7244         48.2004 
        47.6004 
 122118964.41745  23238470.648    95157624.80145  23238470.6444         34.7004 
        34.6004 
 122199607.68245  23253807.914    95220457.71945  23253805.6314         35.2004 
        35.3004 
 111535369.79347  21224479.021    86910661.03447  21224479.8134         46.6004 
        46.1004 
 129247285.823 6  24594938.842                                          38.100  
                
 110620210.50747  21050323.781    86197568.84447  21050320.6834         46.2004 
        46.1004 
 118867070.34345  22619647.752    92623690.30345  22619645.3114         35.7004 
        35.7004 
 122772441.26945  23362814.216    95666838.54545  23362816.0404         35.1004 
        34.8004 
 126210521.31544  24017063.932    98345864.19944  24017061.1064         28.8004 
        28.5004 
 15 12 31  1 44  0.0000000  0  9G02G09G07G06G20G05G13G30G29
 105679225.87048  20110091.038    82347446.26348  20110084.9654         49.1004 
        48.6004 
 122187729.12945  23251555.126    95211207.67245  23251556.3474         34.6004 
        34.5004 
 122144628.46745  23243345.667    95177616.83845  23243343.6704         35.9004 
        35.8004 
 111565736.55747  21230258.145    86934323.38547  21230258.2394         45.9004 
        45.7004 
 129141415.17842  24574792.678   100629669.26741  24574788.3694         14.9004 
         9.4004 
 110561920.45447  21039231.740    86152148.00047  21039228.8144         45.8004 
        46.1004 
 118741001.84145  22595657.145    92525455.10145  22595655.8274         35.5004 
        35.4004 
 122676832.49845  23344619.884    95592338.20545  23344621.3734         34.6004 
        34.5004 
 126105622.67544  23997101.156    98264125.01444  23997099.3474         29.0004 
        29.1004 
 15 12 31  1 44 30.0000000  0  9G02G09G07G06G20G05G13G30G29
 105627767.04848  20100298.706    82307348.47948  20100292.7664         48.6004 
        48.0004 
 122256677.38445  23264675.547    95264933.56145  23264676.3084         34.3004 
        34.1004 
 122090080.53645  23232965.158    95135112.02846  23232963.3674         35.9004 
        36.0004 
 111596466.94547  21236105.582    86958269.09347  21236105.9214         45.7004 
        45.6004 
 129035582.80942  24554652.743   100547202.38941  24554647.8364         13.3004 
        10.1004 
 110503833.54047  21028178.040    86106885.44047  21028174.7754         46.4004 
        46.2004 
 118615186.71646  22571715.276    92427417.34346  22571713.8504         36.2004 
        36.0004 
 122581449.51545  23326469.594    95518013.80945  23326470.7044         34.2004 
        34.4004 
 126001094.50944  23977210.070    98182674.52444  23977208.6484         29.2004 
        29.2004 
 15 12 31  1 45  0.0000000  0  9G02G09G07G06G20G05G13G30G29
 105576697.11148  20090580.504    82267553.71948  20090574.4724         48.7004 
        48.2004 
 122325811.77945  23277832.461    95318804.51445  23277832.3954         34.4004 
        34.3004 
 122035970.91745  23222668.394    95092948.74645  23222666.1274         35.7004 
        35.6004 
 111627565.70547  21242023.470    86982501.83247  21242024.4564         46.0004 
        45.8004 
 128929794.24342  24534519.653   100464769.67841  24534516.1554         13.2004 
         9.7004 
 110445954.76947  21017164.138    86061785.07147  21017160.7814         46.2004 
        46.2004 
 118489632.22646  22547823.815    92329582.65646  22547821.5354         36.8004 
        36.8004 
 122486300.37545  23308362.883    95443871.65245  23308363.8734         33.4004 
        33.5004 
 125896944.07144  23957391.724    98101518.34944  23957390.7584         29.1004 
        29.2004 
 15 12 31  1 45 30.0000000  0  9G02G09G07G06G20G05G13G30G29
 105526017.77548  20080936.532    82228063.32548  20080930.3794         48.8004 
        48.5004 
 122395129.58445  23291023.955    95372818.37945  23291022.6844         35.0004 
        34.9004 
 121982301.43245  23212454.992    95051128.43745  23212453.5824         35.1004 
        35.0004 
 111659032.27647  21248011.251    87007021.18947  21248012.3334         45.7004 
        45.3004 
 128824049.40441  24514399.743   100382369.02841  24514396.5574          8.1004 
         9.7004 
 110388283.69747  21006189.729    86016846.55047  21006186.4454         46.2004 
        46.1004 
 118364340.22846  22523982.082    92231952.53046  22523979.9774         38.2004 
        38.1004 
 122391387.89445  23290301.290    95369913.91145  23290302.1984         32.9004 
        32.8004 
 125793173.36644  23937644.975    98020658.08844  23937643.2844         29.3004 
        29.3004 
 15 12 31  1 46  0.0000000  0  9G02G09G07G06G20G05G13G30G29
 105475726.50048  20071366.313    82188875.32248  20071360.1804         48.2004 
        48.0004 
 122464624.28545  23304247.559    95426970.08445  23304246.3634         34.7004 
        34.5004 
 121929069.88045  23202324.389    95009649.36345  23202323.8644         34.3004 
        34.5004 
 111690862.25147  21254068.161    87031823.72747  21254069.3014         45.7004 
        45.4004 
 128718344.15541  24494284.658   100300001.23241  24494283.8504          8.1004 
         9.4004 
 110330816.07947  20995253.783    85972066.57447  20995251.0344         46.1004 
        46.0004 
 118239309.05146  22500188.478    92134525.64046  22500187.1474         37.9004 
        38.2004 
 122296711.05245  23272285.271    95296139.77645  23272287.0934         34.9004 
        34.3004 
 125689780.58444  23917970.362    97940092.30644  23917967.6164         29.2004 
        29.2004 
 15 12 31  1 46 30.0000000  0  9G02G09G07G06G20G05G13G30G29
 105425826.41948  20061870.464    82149992.13448  20061864.5124         48.8004 
        48.3004 
 122534294.72745  23317505.192    95481258.72945  23317504.0834         34.3004 
        34.2004 
 121876278.85845  23192278.902    94968513.56045  23192277.4964         34.1004 
        34.1004 
 111723056.58047  21260195.384    87056910.16547  21260196.0084         45.8004 
        45.8004 
 128612679.75642  24474177.513   100217665.30341  24474176.0834         16.9004 
         9.4004 
 110273552.93147  20984356.554    85927445.92447  20984354.2454         46.3004 
        46.0004 
 118114542.20846  22476446.879    92037304.73046  22476444.8494         38.4004 
        38.3004 
 122202274.06445  23254314.539    95222552.56845  23254316.4444         35.3004 
        35.2004 
 125586769.77245  23898368.110    97859824.15745  23898366.0004         30.0004 
        30.0004 
 15 12 31  1 47  0.0000000  0  9G02G09G07G06G20G05G13G30G29
 105376320.96048  20052449.781    82111416.44548  20052443.9454         49.0004 
        48.5004 
 122604140.09745  23330796.662    95535683.67845  23330796.1304         33.9004 
        33.9004 
 121823932.01745  23182316.790    94927723.87345  23182315.7724         33.9004 
        33.8004 
 111755616.50847  21266391.438    87082281.48647  21266391.8864         46.6004 
        46.9004 
 128507058.16543  24454079.047   100135362.75043  24454077.9954         22.1004 
        18.8004 
 110216495.50147  20973499.500    85882985.57247  20973496.5604         46.0004 
        45.9004 
 117990043.75846  22452754.535    91940292.96346  22452753.5164         37.2004 
        37.2004 
 122108081.66645  23236389.861    95149155.95745  23236391.6004         34.9004 
        34.8004 
 125484144.85644  23878838.905    97779856.72245  23878836.3004         29.8004 
        30.0004 
 15 12 31  1 47 30.0000000  0  9G02G09G07G06G20G05G13G30G29
 105327207.40348  20043104.104    82073146.13748  20043098.0634         48.7004 
        48.2004 
 122674153.32045  23344119.634    95590239.42245  23344119.3864         34.0004 
        33.8004 
 121772026.45945  23172439.548    94887278.05145  23172438.2384         33.7004 
        33.8004 
 111788537.08047  21272656.302    87107933.82847  21272656.6454         46.6004 
        46.3004 
 128401474.75443  24433986.590   100053089.98143  24433984.8414         22.1004 
        23.6004 
 110159638.95347  20962680.104    85838681.75647  20962677.1694         46.5004 
        46.4004 
 117865810.81746  22429113.418    91843488.07146  22429112.4394         36.0004 
        36.1004 
 122014132.24345  23218511.284    95075948.68445  23218512.3794         33.6004 
        33.6004 
 125381903.53044  23859383.600    97700188.18644  23859381.3014         29.7004 
        29.8004 
 15 12 31  1 48  0.0000000  0  9G02G09G07G06G20G05G13G30G29
 105278490.21248  20033833.226    82035184.68247  20033827.4894         48.4004 
        47.6004 
 122744334.85045  23357474.710    95644926.32145  23357474.5454         34.1004 
        34.1004 
 121720566.83745  23162647.711    94847179.71245  23162645.8954         33.5004 
        33.7004 
 111821820.75847  21278989.633    87133869.10347  21278990.4914         46.5004 
        46.6004 
 128295932.33444  24413902.036    99970849.14544  24413900.6324         24.6004 
        24.4004 
 110102986.11647  20951899.704    85794536.67647  20951896.2904         47.1004 
        46.9004 
 117741848.66246  22405525.199    91746894.20445  22405522.8524         36.1004 
        35.9004 
 121920431.70945  23200680.283    95002935.34345  23200681.2194         32.7004 
        32.8004 
 125280050.92545  23840001.177    97620822.55545  23839999.0874         30.2004 
        30.1004 
 15 12 31  1 48 30.0000000  0  9G02G09G07G06G20G05G13G30G29
 105230171.82448  20024638.407    81997533.98947  20024632.8074         48.2004 
        47.2004 
 122814682.76445  23370861.251    95699742.89745  23370861.8714         34.7004 
        34.6004 
 121669555.23545  23152940.478    94807430.45645  23152938.1394         33.5004 
        33.6004 
 111855467.69047  21285392.175    87160087.44347  21285392.9794         45.9004 
        45.9004 
 128190431.80843  24393824.910    99888640.99144  24393825.5804         23.5004 
        24.4004 
 110046537.27947  20941157.515    85750550.56847  20941154.4754         47.0004 
        46.8004 
 117618159.99946  22381987.652    91650513.46146  22381984.7584         36.0004 
        36.0004 
 121826983.49445  23182898.603    94930118.64945  23182898.9644         32.9004 
        33.0004 
 125178590.43845  23820693.388    97541762.46045  23820691.5364         30.2004 
        30.1004 
 15 12 31  1 49  0.0000000  0  9G02G09G07G06G20G05G13G30G29
 106757672.91748  20315312.311    83187794.57447  20315306.5844         48.6004 
        47.6004 
 124460609.48745  23684070.188    96982283.19545  23684071.3824         34.6004 
        34.5004 
 123194412.42545  23443110.601    95995630.91345  23443108.7384         33.1004 
        33.2004 
 113464893.49747  21591655.854    88414185.42247  21591656.4694         45.6004 
        45.2004 
 129660393.67243  24673549.804   101034065.89543  24673549.0554         19.4004 
        20.7004 
 111565711.08147  21230246.624    86934322.36047  21230243.5264         46.0004 
        46.3004 
 119070168.68346  22658295.557    92781948.82546  22658292.6374         36.5004 
        36.5004 
 123309210.96545  23464957.848    96085101.20145  23464958.0184         34.9004 
        34.9004 
 126652944.53345  24101254.456    98690609.80845  24101252.1704         30.8004 
        30.8004 
 15 12 31  1 49 30.0000000  0  9G02G09G07G06G20G05G13G30G29
 106710153.09648  20306269.678    83150766.12848  20306263.8884         48.8004 
        48.3004 
 124531278.65745  23697518.036    97037350.06745  23697518.3444         33.8004 
        33.8004 
 123144297.84445  23433574.953    95956580.63345  23433572.3934         34.2004 
        34.2004 
 113499261.36647  21598196.197    88440965.53547  21598196.6864         45.8004 
        45.4004 
 129554972.34243  24653488.619   100951919.43443  24653485.8534         19.4004 
        20.7004 
 111509664.96447  21219581.675    86890650.05247  21219578.4744         47.1004 
        46.8004 
 118947029.58746  22634863.737    92685996.30246  22634860.3654         37.3004 
        37.4004 
 123216272.21645  23447271.884    96012681.48945  23447272.6014         34.9004 
        35.0004 
 126552270.45145  24082096.070    98612162.48245  24082094.9614         30.7004 
        30.7004 
 15 12 31  1 50  0.0000000  0  9G02G09G07G06G20G05G13G30G29
 106663035.41748  20297303.651    83114051.04948  20297297.7254         49.0004 
        48.6004 
 124602105.12945  23710995.740    97092539.51645  23710996.5624         33.1004 
        33.0004 
 123094634.42245  23424124.074    95917881.91245  23424122.2294         34.8004 
        34.9004 
 113533989.35447  21604804.623    88468026.26447  21604804.8954         45.2004 
        45.0004 
 129449591.24642  24633436.418   100869804.31942  24633433.7844         14.9004 
        15.7004 
 111453820.15747  21208954.462    86847134.61247  21208951.7734         47.3004 
        47.2004 
 118824168.87746  22611483.489    92590260.69346  22611482.2834         37.6004 
        37.6004 
 123123592.95945  23429635.643    95940463.98645  23429635.9524         35.2004 
        35.2004 
 126451993.26545  24063013.249    98534024.42945  24063012.6214         30.7004 
        30.6004 
 15 12 31  1 50 30.0000000  0  9G02G09G07G06G20G05G13G30G29
 106616320.48548  20288413.846    83077649.79348  20288408.1984         49.2004 
        48.8004 
 124673085.49245  23724503.371    97147848.87245  23724503.0674         33.1004 
        33.0004 
 123045422.75245  23414759.975    95879535.20545  23414757.4524         35.8004 
        35.7004 
 113569076.04147  21611480.499    88495366.49447  21611481.7584         45.2004 
        44.5004 
 129344249.41242  24613389.887   100787719.76342  24613388.8474         14.9004 
        15.7004 
 111398175.55347  21198365.871    86803775.18747  21198362.5914         46.7004 
        46.4004 
 118701587.76046  22588157.360    92494742.96646  22588154.8764         37.1004 
        37.1004 
 123031175.23745  23412048.488    95868450.26545  23412049.0134         34.6004 
        34.5004 
 126352114.64445  24044006.914    98456196.93945  24044005.5164         31.0004 
        30.8004 
 15 12 31  1 51  0.0000000  0  9G02G09G07G06G20G05G13G30G29
 106570012.87748  20279601.733    83041565.93647  20279596.1764         48.1004 
        47.5004 
 124744219.78345  23738039.730    97203278.17545  23738039.2194         32.7004 
        32.5004 
 122996667.01045  23405481.959    95841543.78245  23405479.8664         35.6004 
        35.6004 
 113604523.33947  21618226.270    88522987.72147  21618227.0574         44.5004 
        44.4004 
 129238949.10642  24593351.376   100705667.57842  24593349.8444         15.6004 
        15.5004 
 111342733.47647  21187815.412    86760573.56647  21187812.2454         47.1004 
        47.0004 
 118579290.66246  22564885.213    92399446.53446  22564882.8214         37.0004 
        37.1004 
 122939024.42045  23394512.855    95796644.54345  23394513.1414         35.2004 
        35.0004 
 126252639.30245  24025077.679    98378683.69845  24025075.7324         30.5004 
        30.4004 
 15 12 31  1 51 30.0000000  0  9G02G09G07G06G20G05G13G30G29
 106524115.68048  20270868.045    83005801.87147  20270862.2224         48.4004 
        47.8004 
 124815506.87845  23751604.838    97258826.53945  23751604.6344         32.5004 
        32.4004 
 122948370.29145  23396291.778    95803910.02145  23396289.2424         35.6004 
        35.7004 
 113640332.10847  21625040.606    88550890.61547  21625041.3514         45.5004 
        44.9004 
 129133691.89543  24573322.142   100623648.98043  24573320.6204         19.7004 
        19.9004 
 111287495.02147  21177304.283    86717530.61847  21177300.8774         47.6004 
        47.3004 
 118457281.14746  22541667.351    92304374.20746  22541664.3094         36.8004 
        36.8004 
 122847144.75045  23377028.820    95725050.11445  23377028.8114         34.7004 
        34.7004 
 126153570.57045  24006225.313    98301487.29145  24006224.2494         30.5004 
        30.4004 
 15 12 31  1 52  0.0000000  0  9G02G09G07G06G20G05G13G30G29
 106478629.89348  20262212.061    82970358.37847  20262206.6674         48.6004 
        47.8004 
 124886944.63645  23765199.394    97314492.29845  23765199.5614         32.2004 
        32.1004 
 122900534.36145  23387187.735    95766635.33945  23387185.9414         35.1004 
        35.0004 
 113676502.07547  21631923.778    88579074.97047  21631924.2544         45.3004 
        45.2004 
 129028477.75043  24553301.037   100541663.92743  24553298.7604         19.7004 
        19.9004 
 111232460.13747  21166831.394    86674646.29847  21166828.1644         47.2004 
        47.2004 
 118335561.42546  22518504.515    92209527.70346  22518502.6904         37.1004 
        37.0004 
 122755539.46445  23359596.660    95653669.46745  23359597.4284         35.1004 
        34.9004 
 126054910.93345  23987451.798    98224609.68245  23987449.9844         30.2004 
        30.2004 
 15 12 31  1 52 30.0000000  0  9G02G09G07G06G20G05G13G30G29
 106433553.24648  20253634.673    82935233.69448  20253628.8174         48.4004 
        48.1004 
 124958525.83645  23778821.048    97370269.84045  23778821.2524         32.6004 
        32.5004 
 122853155.80545  23378172.766    95729717.04545  23378170.8524         35.1004 
        35.1004 
 113713027.97347  21638874.986    88607536.66047  21638875.4854         45.5004 
        45.1004 
 128923302.42743  24533286.185   100459709.13843  24533285.4614         22.3004 
        22.6004 
 111177623.63247  21156395.831    86631916.55347  21156393.1554         46.7004 
        47.0004 
 118214129.14746  22495396.994    92114905.15646  22495393.9824         37.4004 
        37.5004 
 122664206.70745  23342215.691    95582501.19045  23342217.3814         35.6004 
        35.5004 
 125956657.90344  23968754.522    98148048.91845  23968751.2504         29.8004 
        30.0004 
 15 12 31  1 53  0.0000000  0  9G02G09G07G06G20G05G13G30G29
 106388892.41648  20245136.124    82900433.01948  20245130.0634         49.2004 
        48.7004 
 125030253.49045  23792470.141    97426161.48445  23792470.1884         32.8004 
        32.5004 
 122806241.21845  23369244.732    95693160.29845  23369243.2514         35.1004 
        35.3004 
 113749914.56347  21645893.876    88636279.42547  21645894.7044         45.3004 
        45.0004 
 128818171.11643  24513280.219   100377788.67043  24513279.0774         23.4004 
        23.6004 
 111122990.63047  21145999.746    86589345.38947  21145996.9384         46.7004 
        46.9004 
 118092991.67046  22472346.166    92020512.31946  22472343.1474         38.7004 
        38.6004 
 122573154.76845  23324889.861    95511551.70945  23324890.5074         35.2004 
        35.3004 
 125858819.32945  23950137.147    98071811.09544  23950134.3804         30.0004 
        29.8004 
 15 12 31  1 53 30.0000000  0  9G02G09G07G06G20G05G13G30G29
 106344645.11748  20236716.069    82865954.57947  20236710.1644         49.0004 
        47.7004 
 125102120.95245  23806146.045    97482162.08445  23806146.6814         32.6004 
        32.4004 
 122759788.44945  23360405.276    95656963.40345  23360403.2304         35.9004 
        35.9004 
 113787157.13347  21652981.326    88665299.55347  21652981.3474         45.1004 
        45.0004 
 128713079.67844  24493282.573   100295899.26343  24493280.9704         24.5004 
        23.6004 
 111068556.65047  21135641.208    86546929.31447  21135638.1524         46.5004 
        46.5004 
 117972146.82246  22449349.261    91926347.49946  22449347.5954         38.9004 
        38.7004 
 122482382.33445  23307615.822    95440820.03245  23307616.7134         34.2004 
        34.1004 
 125761393.24745  23931597.618    97995894.67945  23931594.6334         31.0004 
        31.0004 
 15 12 31  1 54  0.0000000  0  9G02G09G07G06G20G05G13G30G29
 106300813.97648  20228375.299    82831800.42348  20228369.3554         49.1004 
        48.0004 
 125174126.91745  23819848.145    97538270.60345  23819849.5094         32.5004 
        32.3004 
 122713799.63646  23351653.970    95621128.04846  23351651.6714         36.1004 
        36.0004 
 113824756.17047  21660135.753    88694597.46347  21660136.0594         44.7004 
        44.1004 
 128608029.31844  24473292.903   100214041.82544  24473290.5344         24.8004 
        24.8004 
 111014322.88847  21125320.823    86504669.24047  21125317.8754         46.5004 
        46.2004 
 117851597.77646  22426409.255    91832413.16746  22426408.2794         38.9004 
        38.9004 
 122391893.46245  23290396.437    95370309.29445  23290396.8934         34.2004 
        34.3004 
 125664382.76245  23913136.908    97920302.12245  23913134.1424         31.0004 
        31.0004 
 15 12 31  1 54 30.0000000  0  9G02G09G07G06G20G05G13G30G29
 106257399.12548  20220113.587    82797970.65148  20220107.8394         49.0004 
        48.4004 
 125246267.88445  23833576.511    97594484.30945  23833576.4234         31.9004 
        32.1004 
 122668275.03946  23342990.352    95585654.42646  23342988.7424         36.2004 
        36.1004 
 113862709.97447  21667357.697    88724171.81047  21667358.8764         44.9004 
        44.3004 
 128503019.02344  24453309.813   100132215.56844  24453307.1334         25.2004 
        25.1004 
 110960287.64747  21115038.218    86462563.85947  21115035.0764         46.0004 
        45.9004 
 117731345.61346  22403526.365    91738710.15946  22403524.4684         38.8004 
        38.7004 
 122301689.81645  23273231.072    95300020.83245  23273231.7304         33.8004 
        33.7004 
 125567789.11845  23894755.482    97845034.35145  23894754.0344         31.2004 
        31.2004 
 15 12 31  1 55  0.0000000  0  9G02G09G07G06G20G05G13G30G29
 106214401.72848  20211931.741    82764466.17048  20211925.6664         48.9004 
        48.6004 
 125318540.42045  23847329.374    97650800.53245  23847329.4004         31.5004 
        31.6004 
 122623215.18246  23334415.635    95550542.92946  23334413.9134         36.0004 
        36.0004 
 113901016.87047  21674647.388    88754021.30247  21674648.7364         45.2004 
        44.5004 
 128398047.63244  24433334.529   100050419.62944  24433331.8304         24.7004 
        24.9004 
 110906449.84247  21104793.250    86420612.32847  21104790.3014         45.7004 
        45.6004 
 117611391.11146  22380699.628    91645239.10046  22380697.4284         38.8004 
        38.7004 
 122211773.35545  23256120.632    95229956.12245  23256122.3624         35.6004 
        35.3004 
 125471613.40945  23876452.915    97770092.26045  23876450.7764         30.5004 
        30.7004 
 15 12 31  1 55 30.0000000  0  9G02G09G07G06G20G05G13G30G29
 106171823.24548  20203829.454    82731288.10848  20203823.2194         49.3004 
        49.1004 
 125390942.43245  23861107.052    97707217.64545  23861107.4074         31.9004 
        31.6004 
 122578621.94445  23325929.610    95515795.01045  23325928.3124         35.5004 
        35.4004 
 113939676.56947  21682004.481    88784145.72047  21682005.4874         45.0004 
        44.6004 
 128293115.58644  24413366.657    99968654.37644  24413363.7964         24.8004 
        24.9004 
 110852809.64547  21094585.875    86378814.78147  21094582.9284         45.7004 
        45.6004 
 117491736.85046  22357930.293    91552002.01446  22357928.3014         39.1004 
        38.9004 
 122122147.22045  23239065.095    95160117.64645  23239066.4284         35.5004 
        35.4004 
 125375858.12045  23858232.687    97695477.76345  23858229.3714         30.0004 
        30.0004 
 15 12 31  1 56  0.0000000  0  9G02G09G07G06G20G05G13G30G29
 106129668.31848  20195807.557    82698440.08948  20195801.2464         48.9004 
        48.0004 
 125463474.32045  23874909.802    97763735.97045  23874910.2714         32.3004 
        32.2004 
 122534499.22845  23317533.007    95481413.73645  23317531.8464         35.0004 
        34.9004 
 113978691.24247  21689428.963    88814546.72847  21689429.6554         45.0004 
        44.6004 
 128188225.86444  24393406.521    99886922.09244  24393403.2794         24.8004 
        24.9004 
 110799369.39647  21084416.528    86337173.04647  21084413.6564         45.7004 
        45.7004 
 117372387.61846  22335218.617    91459002.62446  22335216.5014         38.9004 
        38.9004 
 122032817.13046  23222066.358    95090509.78846  23222068.1374         36.5004 
        36.5004 
 125280527.96445  23840090.933    97621194.54745  23840088.0364         30.1004 
        30.2004 
 15 12 31  1 56 30.0000000  0  9G02G09G07G06G20G05G13G30G29
 106087936.88548  20187866.095    82665922.06747  20187860.1194         48.3004 
        47.3004 
 125536132.30745  23888736.304    97820352.55845  23888736.2344         32.4004 
        32.3004 
 122490846.94845  23309226.671    95447399.03545  23309224.6804         34.9004 
        35.1004 
 114018058.77047  21696920.557    88845222.69247  21696920.9474         45.5004 
        45.4004 
 128083376.72444  24373453.354    99805221.48844  24373451.9604         24.3004 
        24.4004 
 110746127.34647  21074285.641    86295685.76347  21074282.0874         46.1004 
        45.7004 
 117253343.91046  22312565.500    91366241.30946  22312563.8874         39.7004 
        39.5004 
 121943784.42046  23205123.907    95021133.67246  23205125.2114         36.2004 
        36.2004 
 125185623.34844  23822030.909    97547242.94244  23822027.9714         29.8004 
        29.8004 
 15 12 31  1 57  0.0000000  0  9G02G09G07G06G20G05G13G30G29
 106046627.10348  20180005.458    82633732.60548  20179999.1684         48.8004 
        48.5004 
 125608910.61745  23902585.882    97877062.89645  23902585.5794         32.4004 
        32.1004 
 122447663.32745  23301009.556    95413749.52545  23301006.6154         35.3004 
        35.2004 
 114057775.17947  21704478.599    88876170.49447  21704478.5634         44.8004 
        44.7004 
 127978565.16944  24353509.410    99723550.16644  24353505.6744         24.6004 
        24.7004 
 110693080.04547  21064190.983    86254350.22047  21064187.2924         46.1004 
        45.7004 
 117134604.49546  22289970.238    91273717.10146  22289968.1404         39.2004 
        39.2004 
 121855048.66646  23188238.030    94951988.93045  23188239.0814         36.0004 
        35.9004 
 125091143.86445  23804052.044    97473622.58145  23804050.0404         30.4004 
        30.6004 
 15 12 31  1 57 30.0000000  0  9G02G09G07G06G20G05G13G30G29
 106005743.21348  20172225.312    82601874.99948  20172219.1944         48.9004 
        48.4004 
 125681809.53245  23916457.846    97933867.21645  23916457.7674         31.9004 
        31.8004 
 122404952.11645  23292881.381    95380468.13245  23292879.0414         35.5004 
        35.7004 
 114097842.34747  21712102.675    88907391.60947  21712102.9434         44.5004 
        44.4004 
 127873793.74644  24333572.106    99641910.12244  24333569.9444         25.0004 
        25.0004 
 110640229.60047  21054133.015    86213168.07947  21054130.0704         45.3004 
        45.2004 
 117016174.06046  22267433.823    91181433.66246  22267431.2954         39.4004 
        39.3004 
 121766615.26646  23171409.321    94883079.80646  23171411.2724         36.1004 
        36.1004 
 124997094.26045  23786155.545    97400337.18745  23786154.5704         31.5004 
        31.8004 
 15 12 31  1 58  0.0000000  0  9G02G09G07G06G20G05G13G30G29
 105965285.34648  20164526.343    82570349.36948  20164520.5714         49.1004 
        48.3004 
 125754825.14545  23930352.575    97990762.46545  23930351.4164         31.3004 
        31.4004 
 122362712.88745  23284843.699    95347554.51945  23284841.5674         35.5004 
        35.8004 
 114138258.08847  21719793.536    88938884.36447  21719794.2654         43.9004 
        43.5004 
 127769060.69344  24313641.353    99560300.01544  24313640.1884         25.7004 
        26.8004 
 110587574.32747  21044112.852    86172138.01947  21044110.3624         46.1004 
        45.7004 
 116898052.87646  22244955.709    91089391.20146  22244953.7604         39.5004 
        39.7004 
 121678485.63745  23154639.142    94814407.35445  23154640.7784         35.9004 
        35.8004 
 124903474.77945  23768339.853    97327386.95845  23768338.6624         31.9004 
        31.9004 
 15 12 31  1 58 30.0000000  0  9G02G09G07G06G20G05G13G30G29
 105925262.98448  20156910.331    82539163.09548  20156904.7684         48.6004 
        48.7004 
 125827963.18145  23944269.808    98047753.10445  23944269.2284         30.8004 
        30.8004 
 122320955.31245  23276896.783    95315016.19945  23276895.5214         35.9004 
        35.9004 
 114179029.72747  21727551.507    88970654.43447  21727553.3684         44.0004 
        43.7004 
 127664374.59044  24293719.921    99478726.46044  24293717.6864         27.7004 
        27.2004 
 110535122.46947  21034131.741    86131266.47147  21034129.4044         46.4004 
        46.2004 
 116780251.29346  22222538.903    90997597.77446  22222536.5034         39.8004 
        39.8004 
 121590670.57246  23137929.517    94745980.06146  23137931.4874         38.0004 
        38.1004 
 124810295.51845  23750608.269    97254779.76245  23750607.4394         32.0004 
        31.9004 
 15 12 31  1 59  0.0000000  0  9G02G09G07G06G20G05G13G30G29
 105885676.40248  20149377.570    82508316.39248  20149371.5144         49.2004 
        48.2004 
 125901220.05545  23958209.813    98104836.33445  23958210.4034         30.5004 
        30.5004 
 122279679.14946  23269041.686    95282852.99246  23269041.2814         36.2004 
        36.1004 
 114220155.36447  21735377.491    89002700.35547  21735379.2444         43.9004 
        43.7004 
 127559734.19244  24273808.451    99397188.50044  24273804.6694         26.2004 
        24.3004 
 110482872.25947  21024189.117    86090552.03847  21024186.5984         46.8004 
        46.2004 
 116662769.85746  22200183.432    90906053.83346  22200180.7654         40.3004 
        40.1004 
 121503171.78346  23121278.278    94677799.20346  23121280.4004         37.3004 
        37.3004 
 124717557.31345  23732961.621    97182516.23545  23732959.6914         31.8004 
        31.7004 
 15 12 31  1 59 30.0000000  0  9G02G09G07G06G20G05G13G30G29
 105846524.34548  20141927.220    82477808.27948  20141921.0944         49.9004 
        49.1004 
 125974590.61845  23972172.304    98162008.17344  23972171.4614         30.0004 
        29.9004 
 122238882.91346  23261279.119    95251063.73346  23261277.7744         36.1004 
        36.2004 
 114261631.49847  21743270.575    89035019.37347  21743271.8534         44.1004 
        43.9004 
 127455136.69743  24253904.244    99315683.98144  24253901.6074         23.9004 
        24.3004 
 110430820.76747  21014284.501    86049992.46147  21014281.4044         46.8004 
        46.6004 
 116545607.83546  22177887.990    90814758.76646  22177885.9524         40.3004 
        40.3004 
 121415989.24246  23104687.942    94609864.79046  23104689.8374         37.0004 
        36.9004 
 124625258.93545  23715398.101    97110595.42445  23715395.8254         32.0004 
        31.8004 
 15 12 31  2  0  0.0000000  0  9G02G09G07G06G20G05G13G30G29
 105807805.90648  20134559.373    82447638.04948  20134553.3124         49.1004 
        48.7004 
 126048070.29545  23986154.361    98219265.03245  23986154.6754         30.1004 
        30.0004 
 122198565.62146  23253606.932    95219647.67546  23253605.8864         36.3004 
        36.3004 
 114303455.07947  21751229.879    89067609.13947  21751230.1254         43.7004 
        43.5004 
 127350579.69644  24234006.915    99234211.07544  24234003.8974         25.6004 
        25.5004 
 110378965.29247  21004416.492    86009585.61147  21004413.2874         47.6004 
        47.2004 
 116428765.08246  22155653.784    90723712.50446  22155650.9354         40.5004 
        40.4004 
 121329123.52846  23088157.159    94542177.27545  23088159.4684         36.1004 
        35.9004 
 124533401.39645  23697917.974    97039018.14045  23697915.6064         32.4004 
        32.4004 
 15 12 31  2  0 30.0000000  0  9G02G09G07G06G20G05G13G30G29
 105769524.32248  20127274.226    82417808.22848  20127268.4554         49.2004 
        49.1004 
 126121658.37544  24000158.197    98276606.35944  24000158.4244         29.8004 
        29.4004 
 122158729.90946  23246026.228    95188606.88445  23246025.3024         36.0004 
        35.7004 
 114345627.01047  21759254.879    89100470.34447  21759255.0234         43.7004 
        44.0004 
 127246064.86644  24214118.082    99152770.97044  24214115.2344         25.5004 
        25.5004 
 110327307.44747  20994586.115    85969332.76347  20994583.0544         47.8004 
        47.6004 
 116312244.92146  22133480.392    90632917.61946  22133478.3944         40.0004 
        39.8004 
 121242579.09345  23071688.589    94474740.09745  23071690.4274         35.7004 
        35.7004 
 124441987.35345  23680523.465    96967786.45945  23680520.6214         32.4004 
        32.4004 
 15 12 31  2  1  0.0000000  0  9G02G09G07G06G20G05G13G30G29
 105731683.07648  20120073.442    82388321.53048  20120067.4194         48.4004 
        48.3004 
 126195354.45044  24014181.596    98334031.83944  24014182.5514         29.2004 
        29.2004 
 122119379.02445  23238538.225    95157943.87645  23238536.7694         35.7004 
        35.7004 
 114388148.43947  21767346.252    89133603.88347  21767347.1974         44.2004 
        44.0004 
 127141594.18044  24194238.732    99071365.29044  24194236.8254         25.0004 
        25.3004 
 110275848.85047  20984793.696    85929235.16948  20984790.6984         47.9004 
        48.2004 
 116196051.17946  22111368.933    90542377.06946  22111366.7274         38.7004 
        38.7004 
 121156360.55645  23055281.632    94407556.92745  23055283.6664         35.7004 
        35.5004 
 124351021.23945  23663212.440    96896903.80045  23663208.8524         32.3004 
        32.3004 
 15 12 31  2  1 30.0000000  0 10G02G09G07G06G20G05G13G30G15G29
 105694282.94948  20112956.581    82359178.56347  20112950.4604         48.4004 
        47.5004 
 126269155.85044  24028225.659    98391539.36944  24028226.1874         29.0004 
        29.0004 
 122080513.67245  23231142.447    95127659.23745  23231140.7214         35.1004 
        35.2004 
 114431018.22147  21775503.920    89167008.85747  21775505.0894         44.3004 
        44.0004 
 127037167.50644  24174365.926    98989993.91744  24174364.7404         27.7004 
        27.7004 
 110224589.00348  20975039.757    85889292.44148  20975036.3104         49.1004 
        48.2004 
 116080185.61546  22089320.220    90452092.24546  22089318.4404         38.6004 
        38.5004 
 121070470.39546  23038937.350    94340629.62646  23038938.4244         36.3004 
        36.4004 
 131908053.808 5  25101268.254                                          35.400  
                
 124260504.58845  23645987.863    96826371.38345  23645984.7834         32.3004 
        32.3004 
 15 12 31  2  2  0.0000000  0 10G02G09G07G06G20G05G13G30G15G29
 105657324.05348  20105923.412    82330379.42048  20105917.4994         48.9004 
        48.8004 
 126343058.93944  24042288.559    98449126.14244  24042289.9644         28.8004 
        28.8004 
 122042133.71845  23223839.094    95097752.83645  23223837.0054         34.5004 
        34.5004 
 114474234.20747  21783727.672    89200683.60547  21783728.6564         44.3004 
        43.8004 
 126932783.60944  24154503.819    98908655.83544  24154501.5544         28.3004 
        27.8004 
 110173526.26247  20965322.831    85849503.30347  20965319.5234         47.5004 
        47.8004 
 115964648.71846  22067334.243    90362063.52346  22067332.6514         38.8004 
        38.5004 
 120984909.98546  23022655.652    94273959.29746  23022657.4494         37.1004 
        37.1004 
 131771928.334 6  25075363.863                                          36.100  
                
 124170437.88745  23628847.983    96756189.55845  23628845.6084         32.4004 
        32.5004 
 15 12 31  2  2 30.0000000  0 10G02G09G07G06G20G05G13G30G15G29
 105620805.59348  20098974.319    82301923.47448  20098968.2874         48.8004 
        48.2004 
 126417059.02244  24056371.602    98506788.49344  24056372.7274         29.0004 
        28.9004 
 122004237.93345  23216627.603    95068223.72545  23216625.9704         34.9004 
        35.1004 
 114517793.30447  21792016.763    89234625.71047  21792017.6384         43.5004 
        43.4004 
 126828440.08244  24134647.463    98827349.21644  24134645.4954         29.6004 
        29.5004 
 110122658.24247  20955643.086    85809865.89447  20955639.6634         47.5004 
        47.7004 
 115849439.88646  22045411.301    90272290.44446  22045409.0814         39.1004 
        39.0004 
 120899679.80645  23006436.276    94207546.26845  23006437.3294         35.7004 
        35.6004 
 131635892.393 6  25049478.027                                          37.700  
                
 124080820.78645  23611794.264    96686358.06345  23611792.8424         32.7004 
        32.8004 
 15 12 31  2  3  0.0000000  0 10G02G09G07G06G20G05G13G30G15G29
 105584732.99048  20092109.876    82273814.94947  20092103.9014         48.8004 
        47.9004 
 126491157.90844  24070471.464    98564527.83444  24070472.2824         29.5004 
        29.3004 
 121966831.36645  23209509.448    95039075.83045  23209507.3464         35.4004 
        35.5004 
 114561698.67347  21800371.636    89268837.63747  21800372.5934         43.3004 
        42.8004 
 126724140.95345  24114800.533    98746077.19945  24114797.7144         30.0004 
        30.0004 
 110071988.53747  20946000.644    85770383.02647  20945997.4914         47.8004 
        47.2004 
 115734565.37946  22023551.232    90182777.88046  22023548.3934         39.6004 
        39.6004 
 120814786.61046  22990282.661    94141395.85446  22990283.6124         36.1004 
        36.2004 
 131499951.899 6  25023609.390                                          37.000  
                
 123991659.13145  23594826.866    96616881.46445  23594825.5844         33.1004 
        32.9004 
 15 12 31  2  3 30.0000000  0 10G02G09G07G06G20G05G13G30G15G29
 105549107.23048  20085330.770    82246054.61448  20085324.5054         49.2004 
        48.3004 
 126565352.96544  24084591.547    98622342.11944  24084590.5844         29.1004 
        29.2004 
 121929914.83646  23202484.523    95010309.78846  23202482.2224         36.0004 
        36.2004 
 114605949.14547  21808792.154    89303318.47147  21808792.8754         42.7004 
        42.9004 
 126619885.94544  24094961.116    98664839.54444  24094958.9724         28.9004 
        28.9004 
 110021516.68447  20936396.025    85731054.32347  20936392.9564         47.4004 
        47.0004 
 115620026.65346  22001756.069    90093526.95446  22001753.1494         40.9004 
        40.7004 
 120730232.72946  22974192.445    94075509.83746  22974192.4084         36.0004 
        36.1004 
 131364108.224 6  24997760.091                                          40.600  
                
 123902954.86545  23577947.553    96547761.27145  23577945.1524         32.8004 
        32.7004 
 15 12 31  2  4  0.0000000  0 10G02G09G07G06G20G05G13G30G15G29
 105513927.48948  20078636.262    82218641.82648  20078630.0404         49.4004 
        48.1004 
 126639639.58644  24098727.669    98680227.75344  24098727.9714         28.7004 
        28.6004 
 121893486.67146  23195552.941    94981924.28946  23195550.2924         36.1004 
        36.1004 
 114650541.56447  21817278.225    89338065.75847  21817278.5534         43.4004 
        43.4004 
 126515672.79144  24075129.101    98583634.52444  24075127.3524         28.0004 
        27.8004 
 109971240.14647  20926828.614    85691877.81547  20926825.4534         47.5004 
        47.0004 
 115505823.27346  21980023.466    90004537.34546  21980020.1694         40.7004 
        40.8004 
 120646018.59846  22958166.951    94009888.53446  22958167.5404         36.7004 
        36.7004 
 131228360.962 6  24971928.736                                          41.800  
                
 123814707.53145  23561154.029    96478997.11245  23561152.8414         31.9004 
        32.2004 
 15 12 31  2  4 30.0000000  0 10G02G09G07G06G20G05G13G30G15G29
 105479193.18248  20072026.347    82191576.13548  20072020.0874         49.1004 
        48.6004 
 126714013.66044  24112880.089    98738181.55644  24112879.8774         28.7004 
        28.8004 
 121857546.19946  23188713.274    94953918.80546  23188710.8714         36.2004 
        36.1004 
 114695473.20647  21825828.990    89373077.37747  21825829.5434         44.4004 
        44.0004 
 126411499.84744  24055306.128    98502460.79444  24055304.1584         27.1004 
        27.1004 
 109921156.94847  20917297.901    85652851.96047  20917295.0914         46.2004 
        46.5004 
 115391955.22246  21958355.044    89915809.05046  21958352.3364         40.7004 
        40.9004 
 120562145.10346  22942206.023    93944532.65146  22942206.7454         36.7004 
        36.4004 
 131092710.004 6  24946114.617                                          41.100  
                
 123726917.06245  23544448.729    96410588.96745  23544445.8094         31.5004 
        31.7004 
 15 12 31  2  5  0.0000000  0 10G02G09G07G06G20G05G13G30G15G29
 105444907.74548  20065501.743    82164860.21348  20065495.8124         49.4004 
        48.6004 
 126788474.86444  24127049.962    98796203.25544  24127048.7594         28.8004 
        28.7004 
 121822096.73246  23181967.161    94926295.93546  23181965.0804         36.3004 
        36.3004 
 114740745.22847  21834443.075    89408354.23247  21834444.5964         43.5004 
        43.5004 
 126307369.13444  24035491.033    98421319.97844  24035488.9074         29.2004 
        28.3004 
 109871268.98347  20907804.568    85613978.23047  20907801.6844         45.8004 
        45.8004 
 115278426.45046  21936751.230    89827345.11146  21936748.3234         40.7004 
        40.7004 
 120478616.95146  22926311.289    93879445.85346  22926312.2484         36.9004 
        36.8004 
 130957159.050 7  24920319.864                                          42.400  
                
 123639587.50645  23527830.236    96342539.97545  23527828.2794         31.3004 
        31.3004 
 15 12 31  2  5 30.0000000  0 10G02G09G07G06G20G05G13G30G15G29
 105411075.17748  20059063.694    82138497.18248  20059057.9124         48.4004 
        48.1004 
 126863023.90244  24141236.029    98854293.38244  24141235.8334         29.1004 
        28.8004 
 121787141.97446  23175315.656    94899058.55246  23175313.7774         36.6004 
        36.6004 
 114786359.62447  21843123.490    89443897.87147  21843125.4244         44.0004 
        43.3004 
 126203283.27845  24015684.141    98340214.12245  24015682.2934         30.1004 
        30.3004 
 109821578.69347  20898348.929    85575258.52847  20898345.9844         46.0004 
        45.8004 
 115165241.41446  21915212.454    89739149.02846  21915210.2774         41.0004 
        40.9004 
 120395439.67246  22910482.991    93814632.46246  22910482.9844         36.8004 
        36.8004 
 130821712.787 7  24894545.445                                          42.600  
                
 123552723.38145  23511301.010    96274853.67345  23511298.1744         31.8004 
        31.6004 
 15 12 31  2  6  0.0000000  0 10G02G09G07G06G20G05G13G30G15G29
 105377698.73648  20052712.305    82112489.57848  20052706.6294         49.0004 
        48.9004 
 126937660.21044  24155439.064    98912451.54344  24155438.2814         29.2004 
        29.1004 
 121752684.31346  23168758.538    94872208.52146  23168756.0434         36.5004 
        36.5004 
 114832317.18147  21851867.930    89479708.91647  21851871.1464         43.7004 
        43.1004 
 126099244.36745  23995886.451    98259144.83745  23995884.4424         31.5004 
        31.5004 
 109772087.63647  20888930.928    85536694.07647  20888928.1014         45.6004 
        45.7004 
 115052404.06246  21893740.104    89651223.85646  21893738.0664         41.1004 
        41.1004 
 120312617.72746  22894722.251    93750095.92046  22894722.8134         36.6004 
        36.5004 
 130686374.535 7  24868790.951                                          42.200  
                
 123466328.17645  23494860.285    96207532.76545  23494857.4614         32.0004 
        32.3004 
 15 12 31  2  6 30.0000000  0 10G02G09G07G06G20G05G13G30G15G29
 105344777.42248  20046447.812    82086836.61148  20046441.9224         49.3004 
        48.3004 
 127012379.11344  24169656.493    98970674.05944  24169657.4754         29.5004 
        29.4004 
 121718722.27346  23162296.031    94845744.68046  23162292.8574         36.2004 
        36.1004 
 114878614.63047  21860678.559    89515784.79847  21860681.2164         43.6004 
        43.3004 
 125995250.03245  23976096.149    98178110.29445  23976094.5504         30.1004 
        30.9004 
 109722793.23947  20879550.593    85498282.86547  20879547.6444         46.3004 
        45.6004 
 114939913.36446  21872333.535    89563568.78346  21872331.5074         41.3004 
        41.2004 
 120230151.33545  22879028.614    93685836.44045  22879029.5084         35.8004 
        35.8004 
 130551143.787 7  24843057.252                                          42.000  
                
 123380401.45145  23478509.014    96140576.89745  23478507.1754         31.9004 
        32.0004 
 15 12 31  2  7  0.0000000  0 10G02G09G07G06G20G05G13G30G15G29
 105312306.74748  20040268.788    82061534.79548  20040262.9474         48.4004 
        48.7004 
 127087173.05244  24183889.607    99028955.06745  24183890.7264         29.9004 
        30.0004 
 121685251.45546  23155926.634    94819663.60346  23155923.3604         36.3004 
        36.3004 
 114925245.67747  21869552.581    89552120.62347  21869554.6614         43.5004 
        43.4004 
 125891294.98944  23956313.171    98097106.36344  23956313.5194         29.9004 
        29.8004 
 109673690.08647  20870206.832    85460020.68547  20870203.4584         46.2004 
        45.1004 
 114827766.04146  21850992.742    89476181.27546  21850990.4814         41.5004 
        41.8004 
 120148037.84746  22863404.039    93621851.94546  22863404.5184         36.9004 
        36.8004 
 130416017.094 6  24817343.410                                          41.400  
                
 123294939.87245  23462245.756    96073983.49145  23462244.5104         32.5004 
        32.5004 
 15 12 31  2  7 30.0000000  0 10G02G09G07G06G20G05G13G30G15G29
 105280292.17648  20034176.490    82036588.38247  20034170.7824         48.9004 
        47.8004 
 127162043.80045  24198137.679    99087295.92845  24198137.8824         30.1004 
        30.0004 
 121652277.11146  23149650.766    94793969.38246  23149648.7714         36.0004 
        36.0004 
 114972213.42547  21878490.136    89588718.81347  21878492.1834         43.4004 
        43.2004 
 125787382.97944  23936539.437    98016135.95944  23936538.0494         28.8004 
        29.3004 
 109624781.97947  20860899.591    85421910.48047  20860896.3374         45.9004 
        46.1004 
 114715967.73547  21829718.576    89389065.74047  21829716.4294         42.3004 
        42.5004 
 120066283.97746  22847846.876    93558147.65146  22847846.9494         37.2004 
        37.2004 
 130280999.906 6  24791651.096                                          40.400  
                
 123209949.23445  23446073.171    96007757.02845  23446071.0054         32.5004 
        32.6004 
 15 12 31  2  8  0.0000000  0 10G02G09G07G06G20G05G13G30G15G29
 105248737.30048  20028171.845    82012000.18348  20028166.0954         48.5004 
        48.0004 
 127236991.40045  24212400.578    99145696.67244  24212399.8134         30.1004 
        29.8004 
 121619802.00446  23143471.293    94768664.16146  23143469.1344         36.3004 
        36.2004 
 115019519.19147  21887492.687    89625580.40847  21887493.6054         43.6004 
        43.3004 
 125683516.67444  23916775.248    97935201.21144  23916773.4594         27.9004 
        28.0004 
 109576070.68047  20851630.404    85383953.63847  20851626.8924         46.3004 
        45.9004 
 114604522.75547  21808511.343    89302225.51347  21808508.8324         42.6004 
        42.2004 
 119984894.55546  22832358.755    93494727.35646  22832359.5054         36.7004 
        36.9004 
 130146096.469 6  24765981.140                                          41.000  
                
 123125433.72945  23429989.976    95941900.81345  23429988.8564         33.1004 
        33.1004 
 15 12 31  2  8 30.0000000  0 10G02G09G07G06G20G05G13G30G15G29
 105217640.24748  20022254.091    81987768.73148  20022248.3904         48.3004 
        48.3004 
 127312010.28144  24226674.737    99204152.95944  24226675.6384         29.2004 
        29.5004 
 121587823.74045  23137386.312    94743746.08745  23137383.4754         35.7004 
        35.7004 
 115067158.68447  21896558.281    89662702.04247  21896558.6924         43.0004 
        43.0004 
 125579693.15344  23897018.408    97854299.73244  23897015.5324         27.9004 
        27.9004 
 109527552.99147  20842398.136    85346147.65947  20842394.3834         47.2004 
        47.0004 
 114493429.57447  21787371.337    89215659.41947  21787368.6214         42.5004 
        42.5004 
 119903868.96446  22816940.552    93431590.56146  22816940.1574         36.7004 
        36.8004 
 130011304.916 6  24740329.784                                          38.900  
                
 123041391.45845  23413996.743    95876413.34045  23413995.8674         33.0004 
        33.0004 
 15 12 31  2  9  0.0000000  0 10G02G09G07G06G20G05G13G30G15G29
 105187003.51948  20016424.187    81963895.96648  20016418.5464         49.0004 
        48.3004 
 127387099.77744  24240963.642    99262664.26844  24240964.1314         28.3004 
        28.6004 
 121556344.75845  23131395.418    94719217.04045  23131393.1994         35.3004 
        35.3004 
 115115132.42647  21905687.966    89700084.12347  21905688.0644         43.4004 
        43.4004 
 125475913.63744  23877269.850    97773432.56244  23877266.6294         27.1004 
        27.2004 
 109479230.11447  20833202.101    85308493.48947  20833199.1594         47.0004 
        46.6004 
 114382691.30147  21766297.771    89129369.87946  21766295.7904         42.0004 
        41.5004 
 119823211.31246  22801591.238    93368740.46346  22801591.6744         36.4004 
        36.3004 
 129876628.821 6  24714701.600                                          38.900  
                
 122957825.79545  23398095.908    95811297.24445  23398093.9604         33.5004 
        33.4004 
 15 12 31  2  9 30.0000000  0 10G02G09G07G06G20G05G13G30G15G29
 105156829.45848  20010682.281    81940383.72848  20010676.5774         49.1004 
        48.6004 
 127462258.83444  24255266.349    99321229.75944  24255266.2464         27.9004 
        27.9004 
 121525366.79945  23125500.632    94695078.41045  23125498.1944         35.8004 
        35.7004 
 115163440.65347  21914879.565    89737726.83347  21914880.6624         42.5004 
        42.4004 
 125372179.36844  23857529.707    97692600.61644  23857527.3164         26.4004 
        26.4004 
 109431103.27247  20824043.473    85270992.07947  20824040.9214         46.8004 
        46.7004 
 114272310.84647  21745292.961    89043359.15547  21745291.3524         42.6004 
        42.2004 
 119742925.37446  22786313.630    93306180.04946  22786314.2304         37.0004 
        37.2004 
 129742071.168 6  24689095.000                                          38.900  
                
 122874739.64845  23382284.482    95746554.78145  23382282.0034         33.6004 
        33.6004 
 15 12 31  2 10  0.0000000  0 10G02G09G07G06G20G05G13G30G15G29
 105127119.15748  20005028.852    81917232.84548  20005022.9724         49.5004 
        49.1004 
 127537485.14244  24269582.396    99379847.62844  24269581.5284         27.6004 
        27.6004 
 121494890.47345  23119701.203    94671330.66345  23119698.3644         35.4004 
        35.4004 
 115212082.20246  21924135.736    89775629.27946  21924136.6744         41.9004 
        41.7004 
 125268490.23744  23837798.293    97611803.88144  23837796.9964         28.4004 
        27.1004 
 109383171.91947  20814923.145    85233642.99147  20814919.7214         46.9004 
        46.9004 
 114162290.16246  21724357.213    88957628.78046  21724354.8114         41.9004 
        41.7004 
 119663013.64246  22771106.675    93243911.22646  22771107.9554         38.1004 
        37.9004 
 129607633.218 6  24663514.262                                          41.100  
                
 122792134.65545  23366565.185    95682187.25945  23366563.2384         33.7004 
        33.8004 
 15 12 31  2 10 30.0000000  0 10G02G09G07G06G20G05G13G30G15G29
 105097870.15648  19999462.749    81894441.42048  19999457.1264         49.1004 
        48.7004 
 127612772.81344  24283908.731    99438513.33444  24283908.6964         27.3004 
        27.2004 
 121464913.08445  23113996.266    94647971.69945  23113994.2574         35.4004 
        35.5004 
 115261052.36647  21933455.110    89813787.80447  21933455.9914         42.1004 
        42.0004 
 125164842.77544  23818075.264    97531039.59944  23818072.6774         28.5004 
        28.6004 
 109335432.25247  20805838.333    85196443.27447  20805835.0934         47.4004 
        47.5004 
 114052626.82346  21703488.618    88872176.88046  21703486.5764         41.0004 
        40.8004 
 119583474.96946  22755970.985    93181933.11146  22755972.1684         37.9004 
        38.0004 
 129473312.727 7  24637954.386                                          42.900  
                
 122710008.81945  23350937.637    95618193.11445  23350935.3704         34.0004 
        34.0004 
 15 12 31  2 11  0.0000000  0 10G02G09G07G06G20G05G13G30G15G29
 105069089.94948  19993986.198    81872015.29347  19993980.4244         48.6004 
        47.7004 
 127688125.90144  24298248.697    99497230.01244  24298247.4404         26.6004 
        26.5004 
 121435441.21345  23108388.066    94625006.64545  23108385.8584         35.4004 
        35.4004 
 115310356.34547  21942837.113    89852206.45146  21942837.9004         42.3004 
        41.8004 
 125061242.79944  23798360.035    97450312.34744  23798359.4794         28.6004 
        28.5004 
 109287890.31547  20796791.442    85159397.63647  20796788.1684         47.0004 
        46.7004 
 113943328.95446  21682689.678    88787009.76446  21682687.2654         40.1004 
        40.2004 
 119504318.22946  22740907.495    93120252.62746  22740908.9624         37.7004 
        37.6004 
 129339117.981 7  24612417.616                                          42.700  
                
 122628369.93945  23335402.002    95554578.42945  23335400.4944         34.3004 
        34.3004 
 15 12 31  2 11 30.0000000  0 10G02G09G07G06G20G05G13G30G15G29
 105040779.04548  19988598.641    81849954.85548  19988592.8324         48.6004 
        48.0004 
 127763541.85944  24312598.105    99555995.66844  24312598.7044         26.7004 
        26.4004 
 121406475.43745  23102876.024    94602435.95845  23102873.6834         35.6004 
        35.6004 
 115359992.68047  21952282.583    89890884.06447  21952283.8974         42.3004 
        42.1004 
 124957690.65544  23778655.777    97369622.38844  23778652.7084         28.1004 
        28.1004 
 109240545.63747  20787782.055    85122505.70547  20787778.9224         47.1004 
        46.8004 
 113834397.81746  21661960.745    88702128.41646  21661958.0424         39.8004 
        39.9004 
 119425545.51246  22725917.258    93058871.38546  22725918.6544         38.0004 
        37.6004 
 129205050.266 6  24586903.645                                          41.100  
                
 122547219.25145  23319959.708    95491344.15245  23319958.0994         34.1004 
        34.2004 
 15 12 31  2 12  0.0000000  0 10G02G09G07G06G20G05G13G30G15G29
 105012936.76748  19983300.308    81828259.57548  19983294.4564         48.9004 
        48.3004 
 127839016.76744  24326960.229    99614807.25244  24326962.7904         25.7004 
        25.3004 
 121378014.64745  23097460.416    94580258.77945  23097457.9074         35.6004 
        35.6004 
 115409958.64946  21961790.985    89929818.53746  21961792.4084         41.9004 
        41.9004 
 124854184.74544  23758959.129    97288968.45544  23758957.3684         28.3004 
        28.3004 
 109193396.22847  20778809.540    85085765.93847  20778806.6894         46.8004 
        46.8004 
 113725833.41446  21641302.083    88617532.83746  21641299.2574         40.3004 
        40.7004 
 119347157.61746  22711001.041    92997790.02946  22711001.7514         38.3004 
        38.3004 
 129071109.474 6  24561414.711                                          39.300  
                
 122466556.64945  23304609.960    95428490.20845  23304608.0524         33.6004 
        33.8004 
 15 12 31  2 12 30.0000000  0 10G02G09G07G06G20G05G13G30G15G29
 104985565.02048  19978092.028    81806930.93848  19978085.7634         49.1004 
        48.4004 
 127914548.95944  24341333.052    99673663.45044  24341334.6054         24.9004 
        25.3004 
 121350059.83145  23092140.554    94558475.85445  23092138.5494         35.4004 
        35.5004 
 115460253.60646  21971361.724    89969009.36446  21971363.4184         41.7004 
        41.8004 
 124750724.94744  23739271.597    97208350.44544  23739267.8554         28.3004 
        28.3004 
 109146442.55247  20769874.508    85049178.68947  20769871.5694         46.8004 
        46.5004 
 113617637.84846  21620712.938    88533224.67446  21620710.3304         41.6004 
        41.7004 
 119269157.55946  22696157.832    92937010.88946  22696159.1184         38.3004 
        38.1004 
 128937297.701 6  24535951.622                                          39.300  
                
 122386384.77545  23289354.982    95366018.64145  23289351.6704         34.2004 
        34.2004 
 15 12 31  2 13  0.0000000  0 10G02G09G07G06G20G05G13G30G15G29
 104958664.34748  19972973.190    81785969.37048  19972966.7974         49.9004 
        49.2004 
 127990135.36844  24355717.378    99732561.90444  24355717.2144         24.2004 
        24.5004 
 121322610.98845  23086916.718    94537087.17145  23086914.5094         35.6004 
        35.7004 
 115510875.56646  21980994.384    90008455.00846  21980996.1904         41.9004 
        41.5004 
 124647310.85444  23719590.763    97127768.02744  23719590.0874         27.0004 
        28.1004 
 109099683.36547  20760977.016    85012742.97947  20760973.6274         46.9004 
        46.5004 
 113509811.87647  21600194.380    88449204.49647  21600191.7954         42.4004 
        42.2004 
 119191546.90546  22681388.468    92876535.19846  22681390.3344         38.3004 
        38.2004 
 128803615.795 6  24510513.465                                          39.700  
                
 122306703.90745  23274191.310    95303929.68445  23274188.8204         33.9004 
        33.9004 
 15 12 31  2 13 30.0000000  0 10G02G09G07G06G20G05G13G30G15G29
 104932235.69148  19967943.627    81765375.61148  19967937.5964         49.1004 
        48.4004 
 128065774.29544  24370111.828    99791501.26243  24370111.5614         24.2004 
        23.9004 
 121295668.93246  23081790.057    94516093.38645  23081788.7364         36.0004 
        35.9004 
 115561824.08247  21990689.750    90048155.09646  21990691.5484         42.2004 
        41.9004 
 124543943.43944  23699921.713    97047221.98144  23699919.0804         26.7004 
        27.0004 
 109053119.23747  20752115.677    84976459.27047  20752112.6094         46.7004 
        46.1004 
 113402357.86347  21579746.619    88365474.15347  21579743.8024         42.7004 
        42.8004 
 119114328.75646  22666694.867    92816365.34846  22666696.2934         37.9004 
        37.8004 
 128670065.987 6  24485100.629                                          40.800  
                
 122227516.15345  23259121.722    95242224.98845  23259119.8364         33.6004 
        33.7004 
 15 12 31  2 14  0.0000000  0 10G02G09G07G06G20G05G13G30G15G29
 104906279.25948  19963004.280    81745149.81448  19962998.3104         49.4004 
        49.2004 
 128141463.02944  24384515.503    99850479.40644  24384515.6554         24.2004 
        24.5004 
 121269233.59146  23076760.057    94495494.45246  23076757.7954         36.6004 
        36.4004 
 115613097.15847  22000447.021    90088108.09146  22000448.4314         42.3004 
        41.9004 
 124440621.46244  23680260.036    96966711.34444  23680258.2014         26.5004 
        26.6004 
 109006748.94147  20743291.478    84940326.59747  20743288.5074         46.4004 
        46.0004 
 113295276.68047  21559369.702    88282034.32647  21559367.2834         43.1004 
        42.9004 
 119037504.75746  22652074.915    92756502.63046  22652076.5724         38.0004 
        37.7004 
 128536649.139 7  24459711.496                                          42.000  
                
 122148822.31545  23244146.793    95180905.15545  23244144.8434         33.2004 
        33.1004 
 15 12 31  2 14 30.0000000  0 10G02G09G07G06G20G05G13G30G15G29
 104880796.97348  19958154.768    81725293.48048  19958149.1744         48.3004 
        48.1004 
 128217200.11244  24398927.073    99909495.25644  24398928.2414         25.0004 
        25.9004 
 121243306.24046  23071826.500    94475291.35746  23071824.1044         37.1004 
        36.9004 
 115664694.45147  22010265.416    90128313.72647  22010267.3224         42.4004 
        42.2004 
 124337345.49744  23660606.770    96886236.59344  23660605.0364         26.4004 
        26.4004 
 108960573.35647  20734504.540    84904345.64347  20734501.3874         46.7004 
        46.3004 
 113188570.28747  21539064.019    88198886.55247  21539061.5444         43.5004 
        43.4004 
 118961078.10146  22637532.609    92696949.53946  22637532.6314         39.1004 
        38.9004 
 128403367.781 7  24434349.419                                          42.000  
                
 122070624.40145  23229266.774    95119971.74345  23229263.6674         32.3004 
        31.9004 
 15 12 31  2 15  0.0000000  0 10G02G09G07G06G20G05G13G30G15G29
 104855790.01548  19953396.329    81705807.53348  19953390.3774         49.1004 
        48.6004 
 128292983.31844  24413348.513    99968547.05344  24413350.5034         26.2004 
        26.6004 
 121217887.46446  23066989.174    94455484.54146  23066987.1834         37.4004 
        37.3004 
 115716614.80646  22020144.753    90168771.08846  22020147.3624         41.4004 
        41.1004 
 124234116.05844  23640963.958    96805798.13244  23640962.7474         26.9004 
        26.2004 
 108914592.11947  20725754.802    84868516.12047  20725751.4694         46.4004 
        46.4004 
 113082240.33847  21518830.162    88116032.09947  21518827.9284         43.5004 
        43.4004 
 118885051.20546  22623064.663    92637707.95046  22623065.0834         39.2004 
        39.3004 
 128270223.440 7  24409012.991                                          42.300  
                
 121992924.33545  23214479.853    95059426.26445  23214477.6254         31.0004 
        31.5004 
 15 12 31  2 15 30.0000000  0 10G02G09G07G06G20G05G13G30G15G29
 104831260.25948  19948728.491    81686693.42448  19948722.5414         48.8004 
        48.5004 
 128368811.11344  24427778.624   100027633.59844  24427779.8944         26.7004 
        26.6004 
 121192978.07546  23062249.288    94436074.66746  23062247.3334         36.4004 
        36.4004 
 115768857.57746  22030086.626    90209479.69146  22030088.9004         41.8004 
        41.4004 
 124130933.79944  23621328.427    96725396.39744  23621326.5744         27.6004 
        27.5004 
 108868805.52047  20717041.809    84832838.26047  20717038.5514         46.6004 
        46.0004 
 112976289.29247  21498668.280    88033472.89747  21498665.8824         43.5004 
        43.3004 
 118809427.04446  22608673.197    92578780.16946  22608674.2634         39.0004 
        38.8004 
 128137218.296 6  24383702.435                                          41.500  
                
 121915723.86745  23199790.438    94999270.07245  23199787.0594         31.3004 
        31.0004 
 15 12 31  2 16  0.0000000  0 10G02G09G07G06G20G05G13G30G15G29
 104807206.49848  19944151.322    81667950.22248  19944145.3714         48.6004 
        48.4004 
 128444679.73244  24442216.067   100086751.91844  24442216.1804         26.2004 
        26.3004 
 121168577.08746  23057605.397    94417060.96945  23057603.7044         36.2004 
        35.9004 
 115821419.99946  22040090.055    90250437.36646  22040091.3664         41.7004 
        41.5004 
 124027796.81544  23601702.636    96645029.95244  23601700.0584         27.6004 
        27.2004 
 108823211.64947  20708365.892    84797310.56647  20708362.2624         46.9004 
        46.5004 
 112870716.74047  21478577.821    87951208.62447  21478575.6594         43.0004 
        42.7004 
 118734206.40146  22594358.876    92520166.82146  22594359.6804         38.2004 
        38.1004 
 128004352.477 6  24358418.545                                          39.000  
                
 121839023.01445  23185193.793    94939503.20845  23185191.3654         31.7004 
        31.5004 
 15 12 31  2 16 30.0000000  0 10G02G09G07G06G20G05G13G30G15G29
 104783629.00648  19939664.548    81649578.13048  19939658.7534         48.7004 
        48.4004 
 128520586.28444  24456661.432   100145899.81744  24456659.7944         25.8004 
        25.8004 
 121144684.11745  23053058.848    94398443.10145  23053056.8134         35.6004 
        35.4004 
 115874300.06246  22050153.289    90291642.54946  22050153.8604         41.6004 
        41.5004 
 123924704.66244  23582083.978    96564698.42744  23582082.9634         27.1004 
        27.2004 
 108777809.76347  20699726.461    84761932.47147  20699722.8224         47.1004 
        47.4004 
 112765523.51647  21458560.265    87869239.92247  21458557.9694         42.8004 
        42.9004 
 118659390.83946  22580122.169    92461869.10046  22580122.3844         38.3004 
        38.2004 
 127871626.427 6  24333162.065                                          38.700  
                
 121762822.39445  23170693.392    94880126.11845  23170691.0874         31.8004 
        32.0004 
 15 12 31  2 17  0.0000000  0 10G02G09G07G06G20G05G13G30G15G29
 104760528.63948  19935268.943    81631577.82847  19935262.9414         48.5004 
        47.8004 
 128596528.61144  24471112.069   100205075.58144  24471110.6794         25.5004 
        25.4004 
 121121299.89845  23048609.138    94380221.68045  23048607.1724         34.9004 
        35.0004 
 115927496.53946  22060276.016    90333094.27646  22060276.8214         41.5004 
        41.3004 
 123821657.39144  23562475.179    96484401.89744  23562473.6234         26.1004 
        26.2004 
 108732599.99047  20691122.804    84726704.08947  20691119.8494         46.7004 
        46.6004 
 112660711.06847  21438615.186    87787567.94047  21438613.0434         42.9004 
        42.8004 
 118584982.64446  22565963.293    92403888.79846  22565963.4324         38.5004 
        38.5004 
 127739042.116 6  24307931.264                                          39.200  
                
 121687123.20845  23156288.574    94821139.76645  23156285.7514         32.7004 
        32.7004 
 15 12 31  2 17 30.0000000  0 10G02G09G07G06G20G05G13G30G15G29
 104737911.71948  19930964.702    81613954.23947  19930959.3184         48.5004 
        47.9004 
 128672509.85144  24485570.418   100264281.69144  24485570.3424         25.2004 
        25.1004 
 121098429.39145  23044256.929    94362400.55745  23044254.5434         35.0004 
        35.0004 
 115981013.46846  22070459.938    90374795.71746  22070460.9574         41.2004 
        41.0004 
 123718659.92244  23542874.840    96404144.16444  23542873.4364         25.5004 
        25.4004 
 108687587.09547  20682557.006    84691629.12547  20682554.1714         47.3004 
        47.0004 
 112556286.37947  21418744.118    87706198.09747  21418741.5144         43.1004 
        42.6004 
 118510989.49746  22551882.407    92346231.91346  22551882.6674         38.5004 
        38.5004 
 127606606.386 6  24282729.902                                          41.500  
                
 121611932.41245  23141980.745    94762549.57345  23141977.7964         33.6004 
        33.5004 
 15 12 31  2 18  0.0000000  0 10G02G09G07G06G20G05G13G30G15G29
 104715774.92048  19926752.235    81596704.77647  19926746.6364         48.2004 
        47.7004 
 128748523.98944  24500035.968   100323513.42044  24500034.7154         24.6004 
        25.1004 
 121076069.31845  23040001.628    94344977.16645  23040000.0194         35.5004 
        35.6004 
 116034845.73846  22080703.903    90416742.86746  22080704.9004         40.9004 
        40.7004 
 123615709.14544  23523285.133    96323922.83044  23523282.2474         25.5004 
        25.4004 
 108642766.95647  20674028.252    84656704.35947  20674025.0554         47.5004 
        47.3004 
 112452246.99847  21398946.133    87625128.50147  21398943.3774         43.4004 
        43.7004 
 118437409.86046  22537880.785    92288897.21746  22537880.9424         38.3004 
        38.5004 
 127474316.779 6  24257556.258                                          41.000  
                
 121537247.14645  23127768.349    94704353.26645  23127765.0614         33.7004 
        33.8004 
 15 12 31  2 18 30.0000000  0 10G02G09G07G06G20G05G13G30G15G29
 106269542.51748  20222424.742    82807432.75648  20222418.8724         48.6004 
        48.1004 
 130399988.66443  24814298.142   101610368.95344  24814298.6604         23.8004 
        24.1004 
 122629642.82746  23335637.596    95555553.97645  23335635.1884         36.0004 
        35.9004 
 117664412.46946  22390800.138    91686535.05246  22390801.1644         40.9004 
        40.6004 
 125088230.34944  23803496.337    97471341.99644  23803492.5654         25.2004 
        25.0004 
 110173563.16447  20965328.925    85849532.58147  20965325.7954         46.9004 
        46.5004 
 113924020.08147  21679015.364    88771964.70747  21679012.6004         44.1004 
        44.1004 
 119939670.60846  22823751.486    93459490.08646  22823751.8504         38.9004 
        38.7004 
 128917601.489 6  24532205.019                                          41.400  
                
 123038493.77945  23413446.418    95874155.83945  23413443.3354         33.4004 
        33.5004 
 15 12 31  2 19  0.0000000  0 10G02G09G07G06G20G05G13G30G15G29
 106248370.10348  20218396.266    82790934.74348  20218389.8684         49.9004 
        48.8004 
 130476063.24443  24828774.971   101669647.81743  24828774.4274         23.8004 
        23.7004 
 122608305.67146  23331577.159    95538927.63246  23331574.8494         36.5004 
        36.4004 
 117718872.47546  22401163.095    91728971.35746  22401164.2934         40.8004 
        40.5004 
 124985372.71044  23783921.753    97391193.25644  23783919.3274         24.4004 
        24.4004 
 110129129.03447  20956873.811    85814908.59147  20956870.3064         46.8004 
        46.3004 
 113820756.33347  21659364.468    88691499.49347  21659362.4264         44.3004 
        44.0004 
 119866925.61446  22809909.087    93402805.76546  22809909.0104         38.9004 
        38.9004 
 128785609.962 6  24507087.581                                          40.800  
                
 122964824.96545  23399426.169    95816751.56145  23399425.2234         32.8004 
        32.9004 
 15 12 31  2 19 30.0000000  0 10G02G09G07G06G20G05G13G30G15G29
 106227678.21548  20214458.623    82774811.16748  20214452.3244         48.7004 
        48.8004 
 130552162.27843  24843256.810   101728945.72343  24843257.3314         23.8004 
        23.7004 
 122587477.22446  23327613.594    95522697.68646  23327611.7294         37.5004 
        37.3004 
 117773641.76546  22411584.726    91771648.65446  22411586.5804         40.3004 
        40.1004 
 124882559.57944  23764358.278    97311079.16344  23764355.5524         24.6004 
        24.4004 
 110084884.89047  20948454.507    85780432.64447  20948450.9064         47.5004 
        46.5004 
 113717879.82647  21639787.933    88611336.02147  21639785.1684         44.0004 
        43.9004 
 119794598.71846  22796144.873    93346447.21446  22796145.3694         38.5004 
        38.5004 
 128653766.997 6  24481998.811                                          41.500  
                
 122891663.57945  23385504.457    95759742.67945  23385502.6424         32.7004 
        32.6004 
 15 12 31  2 20  0.0000000  0 10G02G09G07G06G20G05G13G30G15G29
 106207475.45248  20210613.883    82759068.72848  20210607.8104         48.7004 
        48.4004 
 130628291.19043  24857743.874   101788266.93243  24857741.8414         23.6004 
        23.7004 
 122567165.85146  23323748.727    95506870.66846  23323746.3154         37.9004 
        37.7004 
 117828726.68046  22422067.536    91814571.89746  22422068.8194         40.5004 
        40.2004 
 124779798.58544  23744804.327    97231005.73344  23744800.0984         26.2004 
        25.3004 
 110040838.46247  20940072.461    85746110.76547  20940069.3404         47.2004 
        46.3004 
 113615399.80447  21620286.636    88531481.49947  21620283.7754         43.8004 
        43.9004 
 119722699.85946  22782462.719    93290422.17746  22782463.0064         38.2004 
        38.0004 
 128522082.111 7  24456940.601                                          43.600  
                
 122819018.38345  23371680.987    95703136.04145  23371677.9154         33.4004 
        33.2004 
 15 12 31  2 20 30.0000000  0 10G02G09G07G06G20G05G13G30G15G29
 106187756.73948  20206861.416    82743703.47047  20206855.5084         48.4004 
        47.9004 
 130704441.99643  24872233.978   101847605.19743  24872233.6004         22.9004 
        22.9004 
 122547365.77346  23319980.687    95491442.03646  23319978.5614         37.5004 
        37.2004 
 117884119.97346  22432608.552    91857735.43146  22432610.1974         40.6004 
        40.5004 
 124677083.35944  23725257.154    97150967.95944  23725254.4884         27.3004 
        27.7004 
 109996983.08747  20931726.867    85711937.76247  20931723.9604         47.0004 
        47.3004 
 113513311.64447  21600859.835    88451932.32547  21600856.7134         43.3004 
        43.3004 
 119651225.24346  22768861.921    93234727.72446  22768861.9944         38.8004 
        38.5004 
 128390550.968 7  24431910.364                                          43.800  
                
 122746884.64445  23357954.355    95646927.95045  23357951.8004         34.0004 
        34.1004 
 15 12 31  2 21  0.0000000  0 10G02G09G07G06G20G05G13G30G15G29
 106168529.90648  20203203.104    82728721.50948  20203197.0104         49.4004 
        48.3004 
 130780620.01743  24886729.139   101906964.65543  24886729.6714         22.9004 
        22.9004 
 122528084.50646  23316311.603    95476417.67846  23316309.0494         37.4004 
        37.5004 
 117939827.70946  22443209.957    91901143.99346  22443211.2724         40.8004 
        40.7004 
 124574421.51644  23705722.147    97070971.80444  23705719.1404         27.9004 
        27.8004 
 109953326.50547  20923419.618    85677919.66647  20923416.4204         47.1004 
        46.2004 
 113411624.24747  21581509.213    88372695.43447  21581506.7744         43.5004 
        43.4004 
 119580184.52146  22755343.096    93179371.37146  22755343.1004         38.9004 
        38.9004 
 128259182.363 7  24406912.201                                          42.100  
                
 122675271.29945  23344326.480    95591125.35345  23344324.7214         34.7004 
        34.7004 
 15 12 31  2 21 30.0000000  0 10G02G09G07G06G20G05G13G30G15G29
 106149793.48848  20199637.301    82714121.68848  20199631.5294         48.5004 
        48.1004 
 130856820.65943  24901231.279   101966341.74943  24901229.8034         22.1004 
        22.2004 
 122509319.49046  23312740.317    95461795.61246  23312737.7434         37.3004 
        36.6004 
 117995846.00546  22453870.205    91944794.55346  22453872.0024         41.1004 
        41.1004 
 124471810.91844  23686194.936    96991015.55844  23686192.8314         28.1004 
        28.1004 
 109909865.85647  20915149.003    85644054.24247  20915145.8974         46.9004 
        46.6004 
 113310336.08247  21562235.019    88293769.63147  21562232.0094         43.7004 
        43.5004 
 119509577.33446  22741907.126    93124352.85346  22741906.7824         39.4004 
        39.4004 
 128127974.863 7  24381944.172                                          43.600  
                
 122604176.68245  23330797.692    95535726.97545  23330795.8534         35.2004 
        35.3004 
 15 12 31  2 22  0.0000000  0 10G02G09G07G06G20G05G13G30G15G29
 106131546.62748  20196165.418    82699903.34447  20196159.2444         48.7004 
        47.8004 
 130933040.45843  24915734.991   102025733.74443  24915734.9064         21.7004 
        21.8004 
 122491069.66446  23309267.548    95447574.96046  23309266.6414         37.0004 
        36.9004 
 118052172.13046  22464589.007    91988684.97646  22464590.8424         41.0004 
        41.1004 
 124369250.07344  23666678.295    96911098.04844  23666675.9334         27.6004 
        27.6004 
 109866599.86047  20906915.719    85610340.49947  20906912.4484         46.5004 
        46.0004 
 113209447.38447  21543036.315    88215155.10647  21543033.4624         43.4004 
        43.6004 
 119439404.54846  22728553.803    93069672.81446  22728553.0144         39.0004 
        39.0004 
 127996929.142 7  24357006.101                                          42.400  
                
 122533601.16245  23317367.301    95480733.08945  23317364.7104         34.9004 
        35.0004 
 15 12 31  2 22 30.0000000  0 10G02G09G07G06G20G05G13G30G15G29
 106113790.95648  20192786.626    82686067.74948  20192780.5634         49.3004 
        48.9004 
 131009278.22443  24930241.903   102085139.73243  24930243.8334         21.7004 
        21.8004 
 122473336.21246  23305892.888    95433756.69046  23305890.7294         36.1004 
        36.1004 
 118108805.55546  22475366.254    92032814.84846  22475367.1474         40.6004 
        40.4004 
 124266739.79244  23647170.779    96831219.91944  23647167.4654         27.2004 
        27.0004 
 109823528.95547  20898719.639    85576778.78047  20898716.3434         46.9004 
        46.9004 
 113108960.26047  21523913.901    88136853.49947  21523911.0894         43.0004 
        43.0004 
 119369669.09446  22715283.462    93015333.54946  22715282.5374         38.5004 
        38.6004 
 127866047.402 7  24332100.583                                          43.400  
                
 122463546.35745  23304036.812    95426144.94745  23304034.1624         34.7004 
        34.8004 
 15 12 31  2 23  0.0000000  0 10G02G09G07G06G20G05G13G30G15G29
 106096524.31948  20189500.873    82672613.22747  20189494.8614         48.3004 
        47.6004 
 131085529.16443  24944752.311   102144555.99443  24944753.7564         22.5004 
        22.7004 
 122456116.47045  23302616.474    95420338.69645  23302613.3124         35.3004 
        35.6004 
 118165742.14346  22486200.645    92077180.94946  22486201.5014         39.9004 
        39.9004 
 124164277.32844  23627673.354    96751379.06744  23627670.5264         26.5004 
        26.4004 
 109780650.27147  20890559.970    85543366.83547  20890556.7994         46.7004 
        46.5004 
 113008873.47947  21504867.958    88058863.84547  21504865.5474         43.5004 
        43.3004 
 119300370.37646  22702096.117    92961334.61046  22702095.4574         37.8004 
        37.7004 
 127735328.463 7  24307225.435                                          43.100  
                
 122394010.48945  23290804.615    95371961.17945  23290802.5014         34.5004 
        34.4004 
 15 12 31  2 23 30.0000000  0 10G02G09G07G06G20G05G13G30G15G29
 106079751.05448  20186309.099    82659543.14348  20186302.9454         49.3004 
        48.2004 
 131161794.66743  24959264.429   102203983.58943  24959267.7244         23.4004 
        23.3004 
 122439413.71045  23299438.103    95407323.57545  23299434.7054         35.5004 
        35.5004 
 118222983.95446  22497092.323    92121784.88446  22497094.2524         40.0004 
        39.8004 
 124061866.18644  23608185.053    96671578.20544  23608183.2544         28.0004 
        27.2004 
 109737966.96147  20882437.757    85510107.13247  20882434.4064         46.2004 
        46.1004 
 112909191.58947  21485899.136    87981189.68047  21485896.2794         43.7004 
        43.6004 
 119231513.98846  22688992.894    92907680.33646  22688992.4514         38.4004 
        38.1004 
 127604777.190 7  24282381.689                                          44.700  
                
 122324998.13845  23277671.524    95318185.36145  23277669.4914         34.4004 
        34.4004 
 15 12 31  2 24  0.0000000  0 10G02G09G07G06G20G05G13G30G15G29
 106063469.35447  20183210.570    82646856.11747  20183204.6364         47.9004 
        47.4004 
 131238070.53543  24973779.639   102263419.28143  24973781.3304         23.1004 
        23.3004 
 122423225.84845  23296357.041    95394709.66845  23296354.3284         35.6004 
        35.8004 
 118280527.46746  22508043.000    92166623.90246  22508044.5854         39.8004 
        39.5004 
 123959504.45344  23588706.388    96591815.85344  23588705.1454         29.3004 
        29.7004 
 109695476.96447  20874352.012    85476998.06447  20874348.8074         46.7004 
        46.8004 
 112809913.75447  21467007.465    87903830.37147  21467004.9304         44.4004 
        44.3004 
 119163099.89146  22675974.048    92854370.70546  22675973.5654         38.6004 
        38.6004 
 127474392.759 7  24257571.073                                          44.800  
                
 122256508.59545  23264639.164    95264816.90745  23264636.1284         34.6004 
        34.5004 
 15 12 31  2 24 30.0000000  0 10G02G09G07G06G20G05G13G30G15G29
 106047679.48848  20180205.795    82634552.33247  20180200.0124         48.0004 
        47.7004 
 131314354.37243  24988296.649   102322861.15943  24988296.9464         23.1004 
        23.0004 
 122407552.47146  23293374.693    95382496.69246  23293371.7814         36.0004 
        36.2004 
 118338370.83646  22519050.531    92211696.57846  22519051.7714         39.7004 
        39.4004 
 123857191.67144  23569236.071    96512091.61544  23569234.9734         29.5004 
        29.4004 
 109653179.53247  20866303.138    85444039.04947  20866299.7624         46.9004 
        46.6004 
 112711040.84647  21448192.810    87826786.58647  21448189.8154         44.8004 
        44.3004 
 119095129.74946  22663040.265    92801407.01246  22663040.0104         39.0004 
        39.1004 
 127344176.574 7  24232791.952                                          43.900  
                
 122188542.23145  23251705.026    95211856.14945  23251703.4504         34.6004 
        34.8004 
 15 12 31  2 25  0.0000000  0 10G02G09G07G06G20G05G13G30G15G29
 106032384.77048  20177295.222    82622634.37748  20177289.3124         48.9004 
        48.2004 
 131390646.78843  25002815.529   102382309.72443  25002815.0094         22.4004 
        21.9004 
 122392396.58146  23290490.727    95370686.94246  23290487.9964         36.6004 
        36.8004 
 118396515.26546  22530114.812    92257003.86746  22530116.4394         39.1004 
        39.0004 
 123754930.69344  23549776.780    96432407.78144  23549775.4254         29.6004 
        29.3004 
 109611077.06847  20858291.852    85411231.96047  20858288.1274         46.8004 
        46.3004 
 112612576.72847  21429455.171    87750061.33247  21429452.8184         44.4004 
        44.0004 
 119027608.28146  22650191.205    92748792.93946  22650191.0804         39.1004 
        39.1004 
 127214132.811 7  24208045.043                                          44.300  
                
 122121102.78045  23238871.325    95159305.95545  23238870.2874         34.9004 
        34.9004 
 15 12 31  2 25 30.0000000  0 10G02G09G07G06G20G05G13G30G15G29
 106017583.64248  20174478.635    82611101.04348  20174472.8864         49.4004 
        48.9004 
 131466943.52943  25017333.464   102441761.65743  25017335.0024         21.8004 
        21.9004 
 122377755.26046  23287704.399    95359278.16646  23287701.9054         36.5004 
        36.5004 
 118454957.12446  22541236.026    92302542.90146  22541237.6834         39.1004 
        39.0004 
 123652719.20544  23530326.853    96352762.51545  23530324.1764         29.9004 
        30.0004 
 109569167.26847  20850316.330    85378575.00547  20850313.0674         46.9004 
        46.7004 
 112514520.43947  21410795.069    87673653.86247  21410793.0954         43.6004 
        43.4004 
 118960535.34046  22637427.508    92696528.35746  22637427.0374         39.2004 
        38.9004 
 127084260.540 7  24183330.676                                          44.400  
                
 122054188.96445  23226137.723    95107165.35945  23226136.7024         34.6004 
        34.6004 
 15 12 31  2 26  0.0000000  0 10G02G09G07G06G20G05G13G30G15G29
 106003276.50648  20171756.063    82599952.62748  20171750.2134         49.0004 
        48.8004 
 131543242.47443  25031850.902   102501215.32643  25031852.9094         21.8004 
        21.2004 
 122363628.70546  23285015.754    95348270.49746  23285013.7034         36.4004 
        36.3004 
 118513694.79646  22552413.888    92348312.42946  22552415.0074         39.2004 
        38.8004 
 123550557.15944  23510885.938    96273155.75944  23510883.8254         29.3004 
        29.6004 
 109527449.78047  20842377.486    85346067.89447  20842374.3354         47.6004 
        47.2004 
 112416873.15147  21392214.086    87597565.10147  21392211.4224         44.1004 
        44.5004 
 118893912.78946  22624749.254    92644614.73446  22624748.4624         39.2004 
        38.9004 
 126954561.233 7  24158650.121                                          45.500  
                
 121987801.83245  23213505.431    95055435.14945  23213503.2884         34.3004 
        34.2004 
 15 12 31  2 26 30.0000000  0 10G02G09G07G06G20G05G13G30G15G29
 105989465.00848  20169127.834    82589190.43548  20169122.0454         48.6004 
        48.0004 
 131619542.92843  25046370.558   102560670.16043  25046372.0254         20.8004 
        21.2004 
 122350017.98546  23282425.888    95337664.78546  23282423.2154         36.2004 
        36.2004 
 118572728.07246  22563647.253    92394312.30346  22563648.4704         38.6004 
        38.4004 
 123448445.79844  23491455.072    96193588.47944  23491452.5224         28.9004 
        29.1004 
 109485925.96247  20834475.717    85313711.69447  20834472.4464         46.8004 
        46.5004 
 112319637.14947  21373711.067    87521796.83347  21373707.8124         44.9004 
        44.7004 
 118827743.87646  22612158.058    92593054.61546  22612157.4054         40.0004 
        39.4004 
 126825037.349 7  24134002.666                                          43.900  
                
 121921943.49245  23200973.772    95004116.98745  23200970.4044         34.1004 
        34.1004 
 15 12 31  2 27  0.0000000  0 10G02G09G07G06G20G05G13G30G15G29
 105976153.04047  20166594.530    82578817.48047  20166588.7854         47.9004 
        47.6004 
 131695846.44143  25060892.400   102620127.41543  25060893.4914         19.5004 
        19.2004 
 122336926.77345  23279934.557    95327463.88846  23279932.0424         35.9004 
        36.1004 
 118632059.02946  22574937.142    92440544.15746  22574939.2094         38.7004 
        38.6004 
 123346389.32744  23472033.797    96114064.02244  23472031.5134         28.8004 
        28.9004 
 109444599.24447  20826611.489    85281509.08147  20826608.2364         47.6004 
        47.0004 
 112222817.41847  21355286.289    87446352.93547  21355283.7074         45.0004 
        45.0004 
 118762034.15946  22599653.114    92541852.30646  22599653.0314         39.2004 
        39.0004 
 126695694.031 7  24109388.482                                          42.500  
                
 121856618.41345  23188542.174    94953214.34945  23188539.1594         33.8004 
        33.8004 
 15 12 31  2 27 30.0000000  0 10G02G09G07G06G20G05G13G30G15G29
 105963340.16248  20164156.341    82568833.42347  20164150.4794         48.2004 
        47.6004 
 131772149.75343  25075412.415   102679584.47643  25075414.2514         19.5004 
        19.2004 
 122324353.53746  23277542.379    95317666.61046  23277539.2444         36.4004 
        36.4004 
 118691684.97646  22586283.308    92487005.85246  22586285.6584         38.5004 
        38.3004 
 123244385.90844  23452623.686    96034580.87345  23452621.0454         29.8004 
        30.1004 
 109403468.03547  20818784.395    85249458.81547  20818781.2944         46.9004 
        46.7004 
 112126413.75247  21336941.241    87371233.24547  21336939.0414         45.2004 
        44.9004 
 118696784.38946  22587236.567    92491008.38346  22587236.4854         38.5004 
        38.2004 
 126566531.510 7  24084809.824                                          43.800  
                
 121791826.32245  23176211.885    94902727.02845  23176210.1084         34.4004 
        34.4004 
 15 12 31  2 28  0.0000000  0 10G02G09G07G06G20G05G13G30G15G29
 105951027.98748  20161813.554    82559239.53148  20161807.4024         48.4004 
        48.4004 
 131848452.15343  25089933.192   102739040.84143  25089933.3774         20.8004 
        20.6004 
 122312299.29046  23275248.784    95308273.73946  23275245.3454         36.2004 
        36.2004 
 118751605.56746  22597686.324    92533697.13546  22597688.3104         38.8004 
        38.7004 
 123142436.73245  23433223.423    95955140.01045  23433221.2644         31.2004 
        30.8004 
 109362533.42147  20810994.746    85217561.72947  20810991.6654         47.3004 
        46.6004 
 112030428.59547  21318676.301    87296439.67047  21318673.7064         46.0004 
        46.1004 
 118631997.71146  22574908.176    92440525.29346  22574908.5854         38.8004 
        38.6004 
 126437552.304 6  24060264.631                                          41.700  
                
 121727569.14045  23163984.618    94852656.51845  23163982.4204         35.1004 
        35.2004 
 15 12 31  2 28 30.0000000  0 10G02G09G07G06G20G05G13G30G15G29
 105939216.95348  20159565.946    82550036.13448  20159559.8464         48.8004 
        48.2004 
 131924751.68543  25104452.216   102798494.96543  25104451.8764         20.9004 
        20.9004 
 122300763.78545  23273052.510    95299285.08645  23273050.3754         35.4004 
        35.5004 
 118811819.30946  22609145.773    92580616.85846  22609146.7314         39.4004 
        39.2004 
 123040542.40945  23413833.548    95875741.91145  23413831.9164         31.6004 
        31.9004 
 109321795.30347  20803243.049    85185817.75847  20803239.2834         46.5004 
        46.3004 
 111934862.91947  21300490.488    87221972.97647  21300487.3704         44.9004 
        45.2004 
 118567676.10646  22562668.320    92390404.61146  22562668.3204         39.3004 
        39.1004 
 126308757.655 7  24035757.279                                          44.600  
                
 121663847.93246  23151859.263    94803003.64345  23151857.0284         36.0004 
        35.8004 
 15 12 31  2 29  0.0000000  0 10G02G09G07G06G20G05G13G30G15G29
 105927904.16847  20157413.274    82541220.98347  20157407.0674         47.5004 
        47.3004 
 132001043.01343  25118970.142   102857942.69243  25118969.7984         20.9004 
        20.9004 
 122289743.69045  23270955.830    95290698.06345  23270952.4614         34.8004 
        34.8004 
 118872321.33746  22620659.007    92627761.21546  22620660.4574         38.9004 
        38.7004 
 122938700.04545  23394453.269    95796384.31745  23394450.2894         31.8004 
        31.8004 
 109281250.06047  20795527.040    85154224.08647  20795523.8334         46.7004 
        46.4004 
 111839714.60247  21282384.676    87147831.50647  21282380.9834         44.6004 
        44.9004 
 118503818.09846  22550516.226    92340645.19646  22550516.3494         39.2004 
        39.0004 
 126180146.699 7  24011283.368                                          44.300  
                
 121600660.37846  23139835.281    94753766.61746  23139832.7054         36.5004 
        36.4004 
 15 12 31  2 29 30.0000000  0 10G02G09G07G06G20G05G13G30G15G29
 105917091.97048  20155355.602    82532795.90047  20155349.6424         48.0004 
        47.5004 
 132077326.04543  25133485.284   102917383.97243  25133486.3074         20.9004 
        20.7004 
 122279240.56845  23268956.803    95282513.85745  23268954.2084         34.3004 
        34.2004 
 118933111.97646  22632226.348    92675130.45546  22632228.3274         38.4004 
        38.2004 
 122836910.92045  23375082.995    95717068.19645  23375080.1444         31.6004 
        31.7004 
 109240899.69247  20787848.553    85122782.26847  20787845.3984         46.6004 
        46.2004 
 111744986.40747  21264358.144    87074017.40747  21264354.7724         44.7004 
        44.6004 
 118440427.42546  22538453.387    92291249.93946  22538453.5374         39.1004 
        39.1004 
 126051721.671 7  23986845.109                                          42.800  
                
 121538008.90546  23127913.042    94704947.31446  23127910.3434         36.6004 
        36.6004 
 15 12 31  2 30  0.0000000  0 10G02G09G07G06G20G05G13G30G15G29
 105906780.63147  20153393.127    82524761.09847  20153387.3244         47.5004 
        47.1004 
 132153598.91143  25147999.642   102976817.34643  25148001.6284         20.4004 
        20.7004 
 122269254.02945  23267056.394    95274732.19345  23267053.4224         34.1004 
        34.1004 
 118994189.68246  22643849.121    92722723.39946  22643851.0094         38.5004 
        38.4004 
 122735175.15245  23355724.014    95637793.65145  23355721.9104         32.2004 
        32.1004 
 109200743.95647  20780207.525    85091492.10747  20780203.9334         46.6004 
        46.3004 
 111650679.69547  21246411.528    87000531.73847  21246408.9084         44.4004 
        44.2004 
 118377506.02946  22526479.319    92242220.35246  22526480.0634         38.6004 
        38.6004 
 125923484.047 7  23962441.826                                          44.200  
                
 121475894.38546  23116092.476    94656546.42846  23116089.8594         36.4004 
        36.5004 
 15 12 31  2 30 30.0000000  0 10G02G09G07G06G20G05G13G30G15G29
 105896969.92348  20151526.266    82517116.41247  20151520.5914         48.0004 
        47.7004 
 132229859.10943  25162511.864   103036240.88043  25162514.0874         20.4004 
        20.3004 
 122259783.54545  23265254.636    95267352.63145  23265251.3054         33.8004 
        34.1004 
 119055552.36346  22655526.275    92770538.38746  22655528.4584         39.0004 
        38.9004 
 122633492.35345  23336374.308    95558560.37545  23336372.0094         32.3004 
        32.4004 
 109160782.49147  20772602.924    85060353.32547  20772599.5184         46.6004 
        46.6004 
 111556794.90047  21228546.230    86927374.83347  21228543.4724         44.2004 
        44.3004 
 118315055.18346  22514595.351    92193557.41746  22514595.7174         38.8004 
        38.6004 
 125795434.826 7  23938074.711                                          44.200  
                
 121414317.01746  23104374.402    94608564.10246  23104372.0894         36.3004 
        36.5004 
 15 12 31  2 31  0.0000000  0 10G02G09G07G06G20G05G13G30G15G29
 105887658.68747  20149754.507    82509860.91647  20149748.8644         47.9004 
        47.9004 
 132306102.98843  25177021.650   103095651.69643  25177023.3584         20.8004 
        20.3004 
 122250826.99045  23263550.194    95260373.52745  23263546.3974         33.9004 
        34.0004 
 119117196.71946  22667257.082    92818572.88646  22667259.4454         39.3004 
        39.2004 
 122531860.91045  23317033.982    95479367.11445  23317031.5874         31.3004 
        31.2004 
 109121013.17947  20765035.312    85029364.27147  20765031.6314         46.9004 
        47.1004 
 111463331.28247  21210760.415    86854546.10447  21210757.9844         44.0004 
        44.0004 
 118253075.00246  22502800.749    92145261.23346  22502801.4244         39.5004 
        39.3004 
 125667573.837 7  23913743.515                                          43.400  
                
 121353275.73746  23092758.950    94560999.50846  23092756.2434         36.1004 
        36.2004 
 15 12 31  2 31 30.0000000  0 10G02G09G07G06G20G05G13G30G15G29
 105878847.83648  20148078.216    82502995.32548  20148072.2784         48.5004 
        48.0004 
 132382329.20643  25191525.551   103155048.76343  25191527.8014         21.9004 
        21.2004 
 122242384.29945  23261943.316    95253794.82645  23261940.1044         34.2004 
        33.9004 
 119179121.77346  22679040.527    92866826.09446  22679043.5654         39.2004 
        39.2004 
 122430281.53445  23297703.265    95400214.41145  23297700.9554         30.4004 
        30.4004 
 109081436.50447  20757504.204    84998525.32547  20757500.5124         47.9004 
        47.7004 
 111370290.52647  21193055.078    86782046.88447  21193052.7994         43.5004 
        43.2004 
 118191567.86546  22491096.928    92097333.66846  22491097.0064         40.1004 
        40.3004 
 125539902.932 7  23889449.117                                          45.000  
                
 121292771.89346  23081245.473    94513853.68446  23081242.8874         36.1004 
        36.1004 
 15 12 31  2 32  0.0000000  0 10G02G09G07G06G20G05G13G30G15G29
 105870536.46048  20146496.613    82496518.93548  20146490.6644         48.8004 
        48.4004 
 132458534.84943  25206025.979   103214429.79743  25206028.4044         21.9004 
        21.6004 
 122234454.43945  23260433.882    95247615.72445  23260431.7534         34.1004 
        34.1004 
 119241324.83646  22690877.076    92915295.93946  22690880.1974         38.8004 
        38.9004 
 122328753.01545  23278383.648    95321101.36145  23278379.9864         30.4004 
        30.3004 
 109042051.11847  20750009.140    84967835.42847  20750005.8184         47.8004 
        47.7004 
 111277672.75047  21175430.905    86709877.24047  21175428.1774         43.5004 
        43.7004 
 118130534.52746  22479483.122    92049775.30146  22479482.7304         40.0004 
        39.9004 
 125412422.510 7  23865189.055                                          44.000  
                
 121232805.23846  23069834.638    94467126.45446  23069831.7304         36.4004 
        36.4004 
 15 12 31  2 32 30.0000000  0 10G02G09G07G06G20G05G13G30G15G29
 105862725.55347  20145010.265    82490432.52047  20145004.2844         47.9004 
        47.5004 
 132534718.71043  25220524.188   103273793.84343  25220525.9564         20.9004 
        21.6004 
 122227037.71845  23259023.168    95241836.47845  23259020.0804         34.7004 
        34.7004 
 119303805.03046  22702767.897    92963981.73346  22702769.5854         38.7004 
        38.7004 
 122227276.62545  23259073.522    95242028.90645  23259070.4764         30.4004 
        30.5004 
 109002857.82347  20742550.746    84937295.22148  20742547.6044         47.9004 
        48.1004 
 111185479.53647  21157887.170    86638038.42547  21157884.5004         44.1004 
        44.0004 
 118069977.45546  22467959.631    92002588.04346  22467958.9134         39.7004 
        39.5004 
 125285134.262 7  23840967.061                                          44.800  
                
 121173377.24646  23058525.395    94420818.94646  23058523.4994         36.3004 
        36.2004 
 15 12 31  2 33  0.0000000  0  9G02G07G06G20G05G13G30G15G29
 105855419.34548  20143619.256    82484739.38947  20143613.9814         48.6004 
        47.7004 
 122220137.55445  23257709.879    95236459.74845  23257707.1894         35.4004 
        35.3004 
 119366564.66446  22714709.711    93012885.26346  22714712.1014         37.6004 
        37.5004 
 122125856.08645  23239773.461    95163000.00245  23239771.7494         31.4004 
        31.5004 
 108963860.43248  20735129.837    84906907.66447  20735126.7234         49.1004 
        47.9004 
 111093715.82847  21140425.351    86566534.29047  21140422.0734         44.3004 
        44.0004 
 118009902.34446  22456527.119    91955776.32246  22456527.1344         39.4004 
        39.4004 
 125158043.753 7  23816782.175                                          43.600  
                
 121114492.46545  23047319.879    94374934.73145  23047317.5584         35.5004 
        35.5004 
 15 12 31  2 33 30.0000000  0  9G02G07G06G20G05G13G30G15G29
 105848616.26648  20142325.025    82479438.30247  20142319.4394         48.3004 
        47.3004 
 122213751.82645  23256494.719    95231483.88445  23256491.8474         35.5004 
        35.7004 
 119429600.33946  22726704.807    93062003.88346  22726707.4144         37.6004 
        37.5004 
 122024489.54345  23220484.035    95084013.15645  23220481.9094         32.0004 
        32.1004 
 108925056.75348  20727745.842    84876671.05548  20727742.6814         48.9004 
        48.2004 
 111002380.61847  21123044.578    86495364.04747  21123040.9664         44.7004 
        45.0004 
 117950309.14646  22445186.823    91909340.11946  22445187.0924         39.6004 
        39.4004 
 125031150.974 7  23792635.243                                          42.700  
                
 121056149.44545  23036217.100    94329472.65845  23036215.0354         34.7004 
        34.6004 
 15 12 31  2 34  0.0000000  0  9G02G07G06G20G05G13G30G15G29
 105842318.21147  20141126.648    82474530.74047  20141120.8654         47.9004 
        47.5004 
 122207881.68145  23255377.525    95226909.75145  23255374.7284         35.8004 
        35.8004 
 119492912.20646  22738753.389    93111337.72446  22738755.1384         37.5004 
        37.2004 
 121923179.25245  23201205.003    95005070.15345  23201202.7494         31.9004 
        31.9004 
 108886448.66147  20720399.234    84846586.84147  20720395.6724         47.1004 
        46.8004 
 110911476.85547  21105745.722    86424529.99647  21105743.1234         45.3004 
        45.4004 
 117891201.39146  22433939.413    91863282.21046  22433938.7984         40.2004 
        40.2004 
 124904458.579 7  23768526.432                                          43.800  
                
 120998350.77445  23025218.451    94284434.75545  23025216.6284         34.4004 
        34.4004 
