     2.11           OBSERVATION DATA    G (GPS)             RINEX VERSION / TYPE
teqc  2012Jun6      GSI, JAPAN          20160101 17:25:46UTCPGM / RUN BY / DATE
Linux 2.4.21-27.ELsmp|Opteron|gcc -static|Linux x86_64|=+   COMMENT
0761                                                        MARKER NAME
GSI, JAPAN          GEOSPATIAL INFORMATION AUTHORITY OF JAPAOBSERVER / AGENCY
00000               TPS NETG3           4.0 Apr,01,2014     REC # / TYPE / VERS
                    TPSCR.G5        GSI                     ANT # / TYPE
 -3755382.9656  3675126.9128  3603381.8903                  APPROX POSITION XYZ
        0.0000        0.0000        0.0000                  ANTENNA: DELTA H/E/N
     1     1                                                WAVELENGTH FACT L1/2
     6    L1    C1    L2    P2    S1    S2                  # / TYPES OF OBSERV
    30.0000                                                 INTERVAL
Forced Modulo Decimation to 30 seconds                      COMMENT
  2015    12    31     0     0    0.0000000     GPS         TIME OF FIRST OBS
                                                            END OF HEADER
 15 12 31  0  0  0.0000000  0  7G02G05G09G17G06G19G23
 116650017.93843  22197761.078    90896124.17843  22197752.3764         18.5004 
        20.0004 
 122298614.51745  23272649.036    95297623.31245  23272646.5414         31.1004 
        31.3004 
 110337380.85646  20996503.825    85977178.49946  20996502.0284         36.4004 
        38.5004 
 113033771.47445  21509613.474    88078259.24545  21509609.6594         34.6004 
        35.1004 
 107511208.31046  20458701.234    83774960.81346  20458700.5994         40.6004 
        41.0004 
 120705774.25445  22969544.981    94056432.45845  22969539.4694         31.8004 
        32.0004 
 121443300.27444  23109895.190    94631146.26644  23109890.1584         24.2004 
        24.3004 
 15 12 31  0  0 30.0000000  0  7G02G05G09G17G06G19G23
 116593850.15943  22187072.574    90852357.10843  22187064.7554         21.0004 
        22.2004 
 122229380.06345  23259473.128    95243674.39345  23259471.3484         30.7004 
        31.1004 
 110353093.77245  20999493.777    85989422.32446  20999491.5114         35.6004 
        36.6004 
 113124421.08645  21526863.274    88148895.27845  21526860.5484         33.6004 
        34.3004 
 107510112.00846  20458492.433    83774106.54946  20458491.9564         38.3004 
        38.1004 
 120816312.64345  22990580.506    94142566.22045  22990574.7634         31.1004 
        31.3004 
 121516193.77043  23123767.745    94687946.39043  23123759.4314         23.7004 
        23.7004 
 15 12 31  0  1  0.0000000  0  7G02G05G09G17G06G19G23
 116537729.04643  22176392.841    90808626.37643  22176384.5394         22.4004 
        22.2004 
 122160366.41344  23246340.595    95189897.52644  23246337.8994         29.5004 
        29.9004 
 110369400.87446  21002597.035    86002129.15446  21002594.8954         37.2004 
        37.5004 
 113215477.33845  21544190.850    88219848.17745  21544187.8314         35.5004 
        34.3004 
 107509263.35546  20458331.070    83773445.25946  20458330.4974         40.6004 
        40.8004 
 120927078.34945  23011658.479    94228877.11045  23011654.0254         31.4004 
        31.6004 
 121589496.22244  23137716.044    94745065.14843  23137709.0414         24.1004 
        23.7004 
 15 12 31  0  1 30.0000000  0  7G02G05G09G17G06G19G23
 116481656.38243  22165718.859    90764933.37843  22165713.4644         22.6004 
        22.6004 
 122091574.75944  23233250.718    95136293.63844  23233246.4574         29.2004 
        29.3004 
 110386302.57046  21005813.579    86015299.30746  21005811.2274         36.8004 
        37.5004 
 113306939.35445  21561595.772    88291117.25246  21561592.2654         35.4004 
        36.1004 
 107508663.94246  20458216.308    83772978.17846  20458216.3974         37.8004 
        38.1004 
 121038070.16845  23032779.004    94315364.17745  23032774.5874         30.7004 
        31.4004 
 121663206.11844  23151742.334    94802501.41644  23151737.0314         24.0004 
        24.3004 
 15 12 31  0  2  0.0000000  0  7G02G05G09G17G06G19G23
 116425627.51643  22155057.477    90721274.52843  22155053.0624         22.6004 
        22.6004 
 122023000.30844  23220201.996    95082858.99444  23220197.8724         29.7004 
        29.9004 
 110403793.40246  21009142.298    86028928.52546  21009139.6544         39.0004 
        39.4004 
 113398799.83545  21579076.345    88362696.81145  21579072.4784         35.2004 
        35.6004 
 107508309.54746  20458149.474    83772702.01546  20458148.9924         40.1004 
        40.8004 
 121149280.92045  23053941.983    94402021.85645  23053937.6194         30.6004 
        30.4004 
 121737316.18944  23165842.972    94860249.47944  23165838.7094         24.0004 
        24.0004 
 15 12 31  0  2 30.0000000  0  7G02G05G09G17G06G19G23
 116369651.53343  22144406.935    90677656.89343  22144401.0294         22.6004 
        22.6004 
 121954651.94045  23207195.744    95029600.53545  23207192.4334         30.0004 
        30.3004 
 110421881.12246  21012583.689    86043022.86146  21012581.7154         37.7004 
        36.6004 
 113491064.67445  21596634.259    88434591.46745  21596629.7804         34.6004 
        35.3004 
 107508209.23646  20458130.890    83772623.84545  20458129.8764         36.2004 
        34.7004 
 121260716.22545  23075148.020    94488854.51745  23075141.9104         30.2004 
        30.8004 
 121811832.55043  23180024.371    94918314.14743  23180019.6974         23.2004 
        22.8004 
 15 12 31  0  3  0.0000000  0  7G02G05G09G17G06G19G23
 116313725.83643  22133766.015    90634078.43543  22133758.0574         22.1004 
        22.3004 
 121886526.18844  23194230.971    94976515.53844  23194228.5634         27.3004 
        27.6004 
 110440561.65046  21016138.510    86057579.10546  21016136.4754         37.5004 
        38.1004 
 113583727.82045  21614266.830    88506796.48345  21614263.0034         35.2004 
        35.0004 
 107508360.14246  20458159.301    83772741.42146  20458158.5184         40.1004 
        40.3004 
 121372370.20944  23096394.630    94575857.55944  23096389.8624         27.4004 
        29.9004 
 121886749.38943  23194281.135    94976690.85043  23194274.7724         20.8004 
        22.8004 
 15 12 31  0  3 30.0000000  0  7G02G05G09G17G06G19G23
 116257850.85344  22123133.440    90590539.52044  22123125.8014         24.5004 
        24.2004 
 121818623.05544  23181310.054    94923604.03144  23181307.1204         29.3004 
        28.6004 
 110459834.22146  21019805.471    86072596.69046  21019804.1934         38.3004 
        38.2004 
 113676786.48646  21631975.432    88579309.69446  21631971.7054         36.5004 
        36.5004 
 107508762.84246  20458235.978    83773055.20746  20458235.0094         39.8004 
        40.3004 
 121484240.28745  23117682.512    94663028.98145  23117677.5694         30.1004 
        30.6004 
 121962064.27743  23208611.576    95035377.73443  23208605.4944         20.8004 
        20.5004 
 15 12 31  0  4  0.0000000  0  7G02G05G09G17G06G19G23
 116202027.40444  22112509.302    90547040.73944  22112502.0654         24.5004 
        24.8004 
 121750942.12444  23168430.039    94870865.64844  23168427.2854         28.0004 
        28.0004 
 110479697.94546  21023585.580    86088074.90446  21023583.6184         37.8004 
        38.5004 
 113770238.33846  21649758.398    88652129.27746  21649755.1174         36.1004 
        36.3004 
 107509417.80446  20458360.324    83773565.56346  20458359.7234         40.0004 
        40.7004 
 121596323.57044  23139011.942    94750366.55344  23139006.9854         29.9004 
        29.6004 
 122037774.64143  23223017.658    95094372.79443  23223015.0764         21.5004 
        20.5004 
 15 12 31  0  4 30.0000000  0  7G02G05G09G17G06G19G23
 116146257.61244  22101895.703    90503583.77044  22101890.9914         24.7004 
        25.2004 
 121683485.72244  23155593.827    94818302.20844  23155589.9554         28.3004 
        28.5004 
 110500153.98846  21027477.894    86104014.67546  21027476.5674         38.0004 
        38.4004 
 113864082.76245  21667616.647    88725254.75945  21667613.1204         35.4004 
        35.8004 
 107510327.58646  20458533.514    83774274.46646  20458532.9034         39.8004 
        40.3004 
 121708619.45745  23160380.035    94837869.76545  23160376.4524         30.2004 
        30.5004 
 122113880.11243  23237503.491    95153675.72343  23237497.0124         22.6004 
        22.1004 
 15 12 31  0  5  0.0000000  0  7G02G05G09G17G06G19G23
 116090539.84444  22091293.345    90460167.33444  22091288.5754         25.1004 
        25.2004 
 121616251.73044  23142799.662    94765912.10744  23142796.0734         27.9004 
        28.1004 
 110521199.20946  21031482.971    86120413.55246  21031481.4344         38.2004 
        38.5004 
 113958315.13946  21685548.900    88798682.55946  21685545.2224         36.6004 
        36.7004 
 107511490.43446  20458755.027    83775180.57446  20458754.3684         40.0004 
        40.8004 
 121821123.07745  23181789.205    94925534.87544  23181784.5594         30.0004 
        29.8004 
 122190375.83143  23252058.835    95213282.74343  23252053.3384         22.6004 
        23.2004 
 15 12 31  0  5 30.0000000  0  7G02G05G09G17G06G19G23
 116034878.62144  22080702.741    90416794.94644  22080694.7984         26.0004 
        25.8004 
 121549243.96244  23130048.269    94713698.27344  23130045.4724         27.9004 
        27.9004 
 110542836.78846  21035600.833    86137273.99546  21035598.5484         37.8004 
        38.1004 
 114052936.40845  21703555.018    88872413.36845  21703551.2304         35.2004 
        35.8004 
 107512910.96846  20459025.324    83776287.48546  20459024.6514         39.8004 
        40.1004 
 121933836.18144  23203238.738    95013363.19845  23203233.9094         29.9004 
        30.0004 
 122267263.42343  23266688.521    95273195.10943  23266684.4074         23.4004 
        23.0004 
 15 12 31  0  6  0.0000000  0  7G02G05G09G17G06G19G23
 115979280.31944  22070121.870    90373471.61444  22070115.3384         26.3004 
        26.3004 
 121482467.64344  23117340.761    94661664.80544  23117337.1464         28.0004 
        27.5004 
 110565071.28246  21039831.790    86154599.58546  21039829.8594         38.4004 
        38.7004 
 114147949.81546  21721634.529    88946449.74146  21721631.2834         36.1004 
        36.4004 
 107514595.18746  20459345.965    83777599.85646  20459345.3304         40.5004 
        41.0004 
 122046761.39045  23224726.729    95101356.81945  23224722.1374         30.1004 
        30.3004 
 122344545.90343  23281398.051    95333415.17643  23281391.3344         22.4004 
        23.0004 
 15 12 31  0  6 30.0000000  0  7G02G05G09G17G06G19G23
 115923737.62444  22059553.154    90330191.63044  22059545.2834         27.2004 
        27.7004 
 121415915.14644  23104676.904    94609805.74044  23104672.6154         28.0004 
        28.0004 
 110587894.11046  21044174.191    86172383.61146  21044172.9194         38.5004 
        38.7004 
 114243344.74246  21739788.159    89020783.41546  21739784.4524         36.2004 
        36.5004 
 107516535.95846  20459715.217    83779112.13746  20459714.6554         39.8004 
        40.4004 
 122159888.08845  23246255.476    95189507.42945  23246249.6614         30.2004 
        30.3004 
 122422213.16343  23296175.250    95393935.08243  23296169.4694         22.5004 
        22.5004 
 15 12 31  0  7  0.0000000  0  7G02G05G09G17G06G19G23
 115868254.51944  22048994.983    90286958.05044  22048987.7284         27.8004 
        27.9004 
 121349589.59244  23092054.946    94558123.51744  23092051.8114         27.5004 
        27.4004 
 110611307.31246  21048630.058    86190627.66846  21048628.4094         38.2004 
        39.0004 
 114339122.08946  21758013.797    89095415.05946  21758010.4764         36.1004 
        36.4004 
 107518736.87846  20460133.586    83780827.13546  20460133.2354         39.8004 
        39.9004 
 122273217.15745  23267820.656    95277815.73245  23267816.3554         30.3004 
        30.6004 
 122500265.58543  23311027.458    95454755.09943  23311021.4814         22.5004 
        21.6004 
 15 12 31  0  7 30.0000000  0  7G02G05G09G17G06G19G23
 115812832.80844  22038447.671    90243772.30344  22038441.9934         28.0004 
        28.1004 
 121283492.39844  23079478.397    94506619.22844  23079473.4754         26.9004 
        26.8004 
 110635311.18045  21053197.738    86209331.97146  21053196.4564         35.4004 
        38.6004 
 114435280.16345  21776312.534    89170343.38546  21776308.0934         34.7004 
        36.0004 
 107521199.73946  20460602.694    83782746.22646  20460601.9434         39.5004 
        39.7004 
 122386746.88945  23289423.933    95366280.38045  23289420.2634         30.2004 
        30.3004 
 122578702.07143  23325955.501    95515874.37943  23325946.5944         21.1004 
        21.6004 
 15 12 31  0  8  0.0000000  0  7G02G05G09G17G06G19G23
 115757473.53244  22027913.800    90200635.21744  22027906.9784         28.0004 
        28.1004 
 121217623.58844  23066943.933    94455292.88544  23066939.8764         26.3004 
        26.2004 
 110659905.26746  21057878.236    86228496.19246  21057876.7414         38.7004 
        39.2004 
 114531816.93246  21794682.797    89245566.79746  21794678.6444         36.1004 
        36.3004 
 107523925.69246  20461121.070    83784870.33446  20461120.5114         40.3004 
        40.8004 
 122500475.48744  23311066.899    95454899.98244  23311060.9184         29.3004 
        29.4004 
 122657520.42243  23340956.019    95577291.26343  23340944.6264         21.1004 
        21.3004 
 15 12 31  0  8 30.0000000  0  7G02G05G09G17G06G19G23
 115702176.20144  22017390.552    90157546.38644  22017383.2784         28.8004 
        28.9004 
 121151982.33444  23054452.614    94404143.86944  23054448.7354         26.0004 
        26.1004 
 110685087.36846  21062669.485    86248118.59746  21062668.2044         38.5004 
        38.9004 
 114628728.31745  21813124.389    89321082.11446  21813120.9604         35.7004 
        36.1004 
 107526914.02646  20461690.051    83787198.90346  20461689.1874         40.4004 
        40.9004 
 122614398.91644  23332745.122    95543671.42144  23332741.7364         29.5004 
        29.6004 
 122736717.40543  23356025.399    95639003.16943  23356016.9364         21.2004 
        21.3004 
 15 12 31  0  9  0.0000000  0  7G02G05G09G17G06G19G23
 115646941.10744  22006879.264    90114506.06844  22006872.8194         29.1004 
        29.2004 
 121086568.24644  23042004.345    94353171.85944  23042001.7554         25.8004 
        26.1004 
 110710856.11146  21067573.068    86268198.12946  21067572.0494         38.4004 
        38.7004 
 114726011.43645  21831636.913    89396887.10345  21831632.6834         35.5004 
        35.7004 
 107530165.09546  20462308.636    83789732.18546  20462307.8504         40.1004 
        40.5004 
 122728514.12444  23354461.755    95632592.29544  23354456.6344         29.6004 
        29.7004 
 122816289.48743  23371165.714    95701007.34243  23371159.7844         21.7004 
        21.8004 
 15 12 31  0  9 30.0000000  0  7G02G05G09G17G06G19G23
 115591772.41645  21996381.415    90071517.47045  21996374.9884         30.2004 
        30.3004 
 121021384.51344  23029601.233    94302379.36744  23029596.6764         24.7004 
        25.5004 
 110737213.82946  21072589.176    86288736.59946  21072587.5634         38.4004 
        38.7004 
 114823667.18545  21850219.626    89472982.44345  21850216.3494         34.8004 
        35.2004 
 107533682.79846  20462978.406    83792473.24646  20462977.3584         39.8004 
        40.3004 
 122842821.86144  23376212.657    95721663.20144  23376207.7864         29.7004 
        29.7004 
 122896237.69743  23386379.583    95763304.58743  23386374.6924         22.0004 
        22.1004 
 15 12 31  0 10  0.0000000  0  7G02G05G09G17G06G19G23
 115536665.48845  21985895.089    90028577.00245  21985888.1824         31.0004 
        31.3004 
 120956425.70944  23017238.418    94251762.12644  23017235.7844         24.2004 
        24.6004 
 110764154.16646  21077715.605    86309729.06746  21077714.2004         38.6004 
        38.8004 
 114921687.40145  21868872.747    89549361.78145  21868869.4924         34.9004 
        35.0004 
 107537462.43846  20463697.335    83795418.41746  20463696.4224         40.5004 
        40.9004 
 122957314.34644  23398000.754    95810878.06444  23397995.8574         29.1004 
        29.4004 
 122976554.34543  23401663.807    95825888.93343  23401659.5764         22.0004 
        22.1004 
 15 12 31  0 10 30.0000000  0  7G02G05G09G17G06G19G23
 115481626.66945  21975421.756    89985689.60445  21975414.8064         31.6004 
        31.8004 
 120891697.76144  23004921.397    94201324.78444  23004918.5254         24.2004 
        24.1004 
 110791681.88746  21082953.759    86331179.23246  21082952.4964         38.7004 
        38.9004 
 115020075.29445  21887595.225    89626027.62445  21887591.3354         34.6004 
        34.9004 
 107541510.50546  20464467.735    83798572.73846  20464466.6334         40.4004 
        40.8004 
 123071994.71544  23419823.576    95900239.31544  23419817.7794         29.3004 
        29.3004 
 123057242.84343  23417017.346    95888763.02743  23417013.5504         21.6004 
        21.9004 
 15 12 31  0 11  0.0000000  0  7G02G05G09G17G06G19G23
 115426659.31945  21964961.738    89942857.91145  21964955.6754         32.1004 
        32.4004 
 120827202.58343  22992648.811    94151068.83343  22992646.8344         23.9004 
        23.6004 
 110819798.13446  21088304.442    86353087.98846  21088303.3224         38.5004 
        39.1004 
 115118830.52045  21906388.214    89702979.69845  21906384.3134         34.4004 
        34.7004 
 107545829.84346  20465289.674    83801938.43746  20465288.5894         40.1004 
        40.6004 
 123186862.52544  23441681.611    95989746.62844  23441676.1654         28.7004 
        28.7004 
 123138302.72743  23432440.626    95951926.51443  23432440.1264         21.6004 
        21.6004 
 15 12 31  0 11 30.0000000  0  7G02G05G09G17G06G19G23
 115371765.91845  21954516.116    89900083.82645  21954509.8184         32.6004 
        32.8004 
 120762941.94143  22980420.169    94100995.62943  22980418.1774         23.1004 
        23.6004 
 110848503.34946  21093767.365    86375455.67946  21093766.0954         38.7004 
        39.1004 
 115217952.00645  21925250.255    89780217.17745  21925245.8704         34.6004 
        35.0004 
 107550422.61346  20466163.396    83805517.21246  20466162.8154         39.7004 
        40.2004 
 123301917.01144  23463575.052    96079399.41244  23463571.9864         28.6004 
        28.9004 
 123219733.17243  23447933.793    96015378.73143  23447938.8274         21.3004 
        21.6004 
 15 12 31  0 12  0.0000000  0  7G02G05G09G17G06G19G23
 115316937.24945  21944081.753    89857360.18045  21944075.8504         32.6004 
        33.1004 
 120698906.44443  22968234.258    94051097.85143  22968230.3184         22.0004 
        22.6004 
 110877787.17646  21099339.521    86398274.24246  21099338.0704         37.5004 
        38.0004 
 115317427.55445  21944179.467    89857730.53845  21944175.9894         34.1004 
        34.2004 
 107555280.22746  20467088.426    83809302.34846  20467087.1814         38.9004 
        39.0004 
 123417146.05244  23485503.822    96169188.17944  23485499.0484         29.2004 
        29.5004 
 123301522.43143  23463500.427    96079110.50843  23463501.3794         20.0004 
        20.2004 
 15 12 31  0 12 30.0000000  0  7G02G05G09G17G06G19G23
 115262181.70945  21933661.877    89814693.51445  21933655.9134         33.3004 
        33.5004 
 120635103.46743  22956093.783    94001381.26343  22956091.0554         22.0004 
        22.1004 
 110907655.53146  21105022.503    86421548.27346  21105021.7304         38.2004 
        38.7004 
 115417261.51045  21963177.380    89935523.18245  21963173.1454         35.0004 
        35.3004 
 107560410.37146  20468064.045    83813299.86046  20468063.3594         40.1004 
        40.3004 
 123532554.11144  23507465.219    96259116.47644  23507460.3924         29.0004 
        29.5004 
 123383674.93143  23479135.163    96143125.36943  23479132.9714         20.0004 
        20.6004 
 15 12 31  0 13  0.0000000  0  7G02G05G09G17G06G19G23
 115207497.35245  21923256.607    89772082.31945  21923249.5544         32.8004 
        33.4004 
 120571530.13543  22943996.305    93951843.62543  22943993.5504         22.3004 
        22.1004 
 110938104.47246  21110817.373    86445274.71246  21110815.8544         37.7004 
        38.1004 
 115517448.83645  21982242.364    90013591.18345  21982238.8824         33.7004 
        34.0004 
 107565810.95146  20469092.189    83817508.09146  20469090.9704         40.5004 
        40.7004 
 123648135.85144  23529460.072    96349180.11244  23529454.9904         29.0004 
        29.2004 
 123466185.47043  23494838.887    96207419.21243  23494833.9594         20.7004 
        20.6004 
 15 12 31  0 13 30.0000000  0  7G02G05G09G17G06G19G23
 115152888.34545  21912865.028    89729529.84245  21912857.9594         34.5004 
        34.7004 
 120508189.15343  22931941.745    93902487.03943  22931938.7754         22.5004 
        22.8004 
 110969136.11346  21116722.793    86469455.19346  21116720.9044         38.5004 
        39.2004 
 115617989.48845  22001375.805    90091934.49145  22001371.5684         35.3004 
        35.5004 
 107571485.87446  20470171.879    83821930.09646  20470170.9294         40.2004 
        40.6004 
 123763891.84244  23551487.602    96439379.52544  23551483.1114         29.0004 
        29.2004 
 123549054.80443  23510609.915    96271992.64443  23510603.8264         21.8004 
        21.5004 
 15 12 31  0 14  0.0000000  0  7G02G05G09G17G06G19G23
 115098351.26245  21902486.951    89687033.40945  21902480.3264         34.8004 
        35.2004 
 120445077.19443  22919932.349    93853308.89343  22919929.8914         22.5004 
        21.7004 
 111000745.35146  21122737.601    86494085.74846  21122735.8324         38.4004 
        38.8004 
 115718877.39145  22020573.762    90170548.40145  22020569.5964         34.7004 
        35.0004 
 107577431.95146  20471303.498    83826563.38946  20471302.5374         40.4004 
        40.7004 
 123879815.82844  23573545.454    96529709.83344  23573543.1864         27.7004 
        28.2004 
 123632276.33343  23526447.093    96336840.52244  23526440.3644         21.8004 
        24.4004 
 15 12 31  0 14 30.0000000  0  7G02G05G09G17G06G19G23
 115043891.72245  21892123.548    89644597.39045  21892116.9554         34.9004 
        35.2004 
 120382198.26643  22907966.503    93804312.34443  22907964.2464         21.1004 
        21.7004 
 111032935.38346  21128863.519    86519168.87446  21128861.7104         38.1004 
        38.2004 
 115820114.49045  22039838.339    90249434.39845  22039834.6914         34.3004 
        34.5004 
 107583654.21246  20472487.362    83831411.89346  20472486.5674         38.7004 
        39.5004 
 123995909.96144  23595638.058    96620172.71344  23595635.3444         27.6004 
        27.9004 
 123715852.29144  23542349.638    96401964.56144  23542345.2684         24.6004 
        24.4004 
 15 12 31  0 15  0.0000000  0  7G02G05G09G17G06G19G23
 114989512.33445  21881775.147    89602223.83345  21881769.0514         34.8004 
        35.8004 
 120319554.22143  22896045.487    93755498.81443  22896042.1844         21.1004 
        20.6004 
 111065706.80346  21135099.719    86544705.02846  21135097.7754         37.8004 
        38.3004 
 115921699.30445  22059168.826    90328591.32945  22059165.9384         34.6004 
        34.6004 
 107590155.18046  20473724.570    83836477.57646  20473723.6684         38.7004 
        39.2004 
 124112172.97644  23617762.682    96710767.20944  23617759.6364         27.3004 
        27.7004 
 123799781.67144  23558323.820    96467364.00144  23558315.1844         25.1004 
        25.3004 
 15 12 31  0 15 30.0000000  0  7G02G05G09G17G06G19G23
 114935208.87945  21871441.904    89559909.45046  21871435.5874         35.7004 
        36.3004 
 120257139.94143  22884168.538    93706864.35343  22884165.9544         20.5004 
        20.6004 
 111099053.19346  21141445.157    86570689.21046  21141443.7014         39.0004 
        38.9004 
 116023624.04645  22078564.347    90408013.15545  22078561.6824         34.7004 
        34.9004 
 107596930.36746  20475013.994    83841756.93946  20475012.8194         39.8004 
        39.5004 
 124228597.01744  23639917.644    96801487.13844  23639913.8894         27.5004 
        27.3004 
 123884056.83044  23574358.925    96533032.90744  23574351.6134         25.2004 
        25.3004 
 15 12 31  0 16  0.0000000  0  7G02G05G09G17G06G19G23
 114880987.33545  21861123.945    89517658.88746  21861117.3324         35.6004 
        36.0004 
 120194960.67643  22872334.893    93658412.99443  22872333.2674         20.2004 
        20.3004 
 111132978.53446  21147901.606    86597124.52846  21147899.8114         39.0004 
        39.2004 
 116125891.69145  22098025.395    90487702.16345  22098022.1974         33.1004 
        33.4004 
 107603985.65946  20476356.267    83847254.56346  20476355.5204         40.6004 
        40.7004 
 124345185.09444  23662104.826    96892334.90644  23662099.6964         28.5004 
        28.4004 
 123968680.59144  23590462.446    96598973.42144  23590454.5484         25.5004 
        25.7004 
 15 12 31  0 16 30.0000000  0  7G02G05G09G17G06G19G23
 114826846.71046  21850821.162    89475471.37346  21850814.5254         36.3004 
        36.8004 
 120133014.31243  22860548.388    93610143.12343  22860545.1254         20.2004 
        20.7004 
 111167479.66346  21154466.701    86624008.50946  21154464.6794         38.8004 
        39.3004 
 116228497.34645  22117550.641    90567654.56745  22117547.2064         34.0004 
        34.2004 
 107611319.93646  20477751.800    83852969.57146  20477751.2704         39.4004 
        40.2004 
 124461932.90744  23684320.434    96983307.14344  23684315.9334         28.1004 
        28.4004 
 124053648.66244  23606631.960    96665182.22744  23606624.6864         25.2004 
        25.4004 
 15 12 31  0 17  0.0000000  0  7G02G05G09G17G06G19G23
 114772787.31345  21840534.055    89433347.17145  21840527.3244         35.3004 
        35.4004 
 120071299.97743  22848804.601    93562054.02743  22848801.2454         20.7004 
        20.7004 
 111202554.34846  21161140.925    86651339.42246  21161138.8194         36.8004 
        37.6004 
 116331437.25045  22137139.836    90647867.42245  22137135.5504         33.6004 
        33.3004 
 107618932.94146  20479200.717    83858901.77146  20479200.1514         37.6004 
        38.3004 
 124578836.57044  23706566.602    97074400.82644  23706562.0354         27.7004 
        28.1004 
 124138957.35044  23622865.905    96731656.46744  23622859.7314         24.4004 
        24.5004 
 15 12 31  0 17 30.0000000  0  7G02G05G09G17G06G19G23
 114718809.24846  21830261.809    89391286.32946  21830255.6744         36.4004 
        37.0004 
 120009816.89443  22837103.855    93514145.16443  22837100.3484         19.4004 
        20.1004 
 111238200.53946  21167924.126    86679115.65846  21167922.6034         36.7004 
        37.1004 
 116434707.85145  22156791.273    90728337.95345  22156788.0934         34.1004 
        34.3004 
 107626824.62146  20480702.639    83865051.13246  20480701.7134         39.0004 
        37.5004 
 124695892.67944  23728842.371    97165613.28644  23728837.3394         27.8004 
        27.9004 
 124224603.49043  23639163.684    96798393.65144  23639157.5034         23.4004 
        24.5004 
 15 12 31  0 18  0.0000000  0  7G02G05G09G17G06G19G23
 114664917.83146  21820007.041    89349293.01646  21820000.7014         36.0004 
        36.5004 
 119948569.41343  22825450.195    93466419.86743  22825445.9084         19.4004 
        20.1004 
 111274421.33546  21174817.433    86707339.64246  21174815.5934         38.2004 
        37.3004 
 116538311.11445  22176506.251    90809067.70645  22176503.4904         33.2004 
        33.6004 
 107635000.15446  20482258.374    83871421.66446  20482257.5034         39.2004 
        39.7004 
 124813103.53244  23751146.411    97256946.34144  23751142.9624         27.2004 
        27.2004 
 124310588.89643  23655524.473    96865395.21243  23655518.3064         23.4004 
        23.5004 
 15 12 31  0 18 30.0000000  0  7G02G05G09G17G06G19G23
 114611112.15446  21809768.311    89307366.51146  21809761.8084         37.0004 
        37.5004 
 119887555.65543  22813840.716    93418876.68543  22813835.9514         18.1004 
        18.3004 
 111311213.56546  21181818.251    86736008.90146  21181816.5424         38.0004 
        38.2004 
 116642242.55545  22196284.344    90890053.18845  22196280.9384         33.4004 
        33.8004 
 107643458.41346  20483867.888    83878012.50746  20483867.0954         39.1004 
        39.8004 
 124930464.73244  23773477.915    97348396.51544  23773474.7874         27.1004 
        27.1004 
 124396909.42343  23671951.338    96932657.89643  23671944.3684         22.4004 
        22.5004 
 15 12 31  0 19  0.0000000  0  7G02G05G09G17G06G19G23
 114557393.71946  21799546.444    89265507.98946  21799539.7404         37.2004 
        37.7004 
 119826776.15343  22802274.196    93371516.06743  22802269.5704         18.1004 
        18.3004 
 111348576.14846  21188927.847    86765122.58146  21188926.4214         37.5004 
        37.9004 
 116746499.60645  22216123.737    90971292.39945  22216119.9304         33.2004 
        33.6004 
 107652200.42546  20485531.716    83884824.45346  20485530.4544         39.9004 
        39.4004 
 125047973.73944  23795840.702    97439961.89044  23795836.4294         26.7004 
        26.4004 
 124483562.81243  23688441.603    97000179.96843  23688434.0404         21.7004 
        22.5004 
 15 12 31  0 19 30.0000000  0  7G02G05G09G17G06G19G23
 114503764.23245  21789340.516    89223718.77445  21789334.2914         35.3004 
        35.7004 
 119766231.22542  22790752.637    93324338.25142  22790747.0474         16.8004 
        17.4004 
 111386508.45046  21196146.461    86794680.19246  21196144.6854         37.7004 
        38.6004 
 116851080.16845  22236024.333    91052783.68545  22236021.1314         33.2004 
        33.5004 
 107661227.60846  20487249.230    83891858.61646  20487248.2134         39.9004 
        40.5004 
 125165628.80844  23818229.987    97531641.08844  23818225.4174         26.2004 
        26.9004 
 124570547.08643  23704994.843    97067959.85543  23704987.2804         21.7004 
        21.5004 
 15 12 31  0 20  0.0000000  0  7G02G05G09G17G06G19G23
 114450223.95346  21779152.165    89181999.07246  21779146.3174         37.1004 
        37.2004 
 119705920.51142  22779273.998    93277342.93442  22779269.5684         16.8004 
        17.4004 
 111425008.60946  21203472.501    86824680.29146  21203470.9634         38.0004 
        38.2004 
 116955981.12745  22255987.508    91134524.64145  22255983.1264         33.4004 
        33.8004 
 107670540.30846  20489021.443    83899115.25446  20489020.5064         40.2004 
        40.5004 
 125283426.96244  23840646.687    97623431.78844  23840641.3784         26.7004 
        26.9004 
 124657859.43443  23721607.985    97135995.38343  23721602.4964         20.0004 
        20.2004 
 15 12 31  0 20 30.0000000  0  7G02G05G09G17G06G19G23
 114396774.91346  21768981.112    89140350.46545  21768974.8864         37.0004 
        34.0004 
 119645844.80641  22767843.664    93230530.73542  22767838.5544         11.5004 
        12.8004 
 111464075.87146  21210907.376    86855122.29146  21210905.3674         37.9004 
        38.2004 
 117061200.22945  22276009.505    91216513.49445  22276006.1044         34.0004 
        33.8004 
 107680139.87045  20490848.009    83906595.41445  20490847.4384         33.9004 
        33.2004 
 125401366.24944  23863089.432    97715332.43944  23863085.5344         27.1004 
        27.4004 
 124745497.93243  23738283.803    97204285.03643  23738276.2584         20.0004 
        20.2004 
 15 12 31  0 21  0.0000000  0  8G02G07G05G09G17G06G19G23
 114343421.15545  21758828.151    89098776.10845  21758821.8954         34.3004 
        34.7004 
 131776163.8044   25076169.629   102682720.7734   25076171.2314          2.4004 
         1.0004 
 119586006.86541  22756457.727    93183903.77442  22756449.6164         11.5004 
        12.8004 
 111503711.68346  21218449.670    86886007.31945  21218447.5434         36.9004 
        35.4004 
 117166738.00745  22296092.298    91298750.67045  22296089.0964         32.7004 
        32.8004 
 107690029.95246  20492730.417    83914301.96246  20492729.4454         36.9004 
        39.1004 
 125519447.06044  23885559.234    97807343.37544  23885554.5274         26.5004 
        26.8004 
 124833462.97143  23755023.485    97272829.15442  23755014.5904         18.0004 
        17.2004 
 15 12 31  0 21 30.0000000  0  8G02G07G05G09G17G06G19G23
 114290159.03946  21748692.640    89057273.14946  21748686.3884         36.8004 
        37.4004 
 131718828.39941  25065258.796   102638043.84841  25065256.7454         10.6004 
         6.7004 
 119526401.97741  22745113.093    93137458.43641  22745106.6384          6.0004 
         6.7004 
 111543910.11346  21226098.881    86917330.74646  21226097.5684         38.6004 
        38.6004 
 117272587.17745  22316235.242    91381230.46845  22316231.6314         31.8004 
        32.0004 
 107700206.81546  20494666.769    83922231.97546  20494666.2454         39.9004 
        40.4004 
 125637662.21744  23908054.629    97899458.98044  23908050.6004         26.2004 
        26.3004 
 124921747.49743  23771819.943    97341622.17542  23771815.4844         18.0004 
        17.2004 
 15 12 31  0 22  0.0000000  0  8G02G07G05G09G17G06G19G23
 114236991.99546  21738575.756    89015844.28346  21738568.6324         36.9004 
        37.5004 
 131661503.45342  25054351.049   102593375.14541  25054347.6534         12.7004 
         9.5004 
 119467032.46941  22733816.788    93091196.49941  22733807.9024          6.0004 
         6.7004 
 111584671.88946  21233855.353    86949093.14346  21233854.2954         38.3004 
        38.4004 
 117378747.33645  22336436.510    91463952.60645  22336434.0834         31.9004 
        32.2004 
 107710673.40446  20496658.452    83930387.74946  20496657.7494         40.0004 
        40.4004 
 125756011.88244  23930576.952    97991679.39944  23930572.8374         27.1004 
        27.3004 
 125010351.06542  23788681.768    97410663.84342  23788677.0634         12.9004 
        12.3004 
 15 12 31  0 22 30.0000000  0  8G02G07G05G09G17G06G19G23
 114183919.45345  21728476.595    88974489.05746  21728469.3314         35.2004 
        36.0004 
 131604189.94442  25043443.915   102548715.31141  25043440.5854         12.7004 
         9.5004 
 119407896.7474   22722566.912    93045116.7494   22722556.2234          1.0004 
         1.1004 
 111625994.01946  21241719.071    86981292.17746  21241717.6184         36.4004 
        36.7004 
 117485213.55045  22356696.165    91546913.24145  22356694.1244         33.1004 
        33.1004 
 107721428.91346  20498705.616    83938768.65046  20498704.7774         37.0004 
        37.6004 
 125874491.78244  23953123.086    98084001.28044  23953116.9774         26.8004 
        27.0004 
 125099269.72642  23805602.740    97479951.03742  23805598.9004         12.9004 
        12.3004 
 15 12 31  0 23  0.0000000  0  8G02G07G05G09G17G06G19G23
 114130943.21746  21718395.238    88933208.86146  21718388.3584         36.6004 
        36.4004 
 131546891.25842  25032539.125   102504067.03442  25032538.8094         15.9004 
        15.9004 
 119348995.1464   22711353.465    92999219.4454   22711343.9064          1.0004 
         1.1004 
 111667875.58346  21249689.167    87013927.13746  21249687.8084         37.2004 
        37.2004 
 117591983.74845  22377014.329    91630110.72945  22377011.1824         32.8004 
        33.3004 
 107732474.70346  20500807.300    83947375.74346  20500806.6614         38.0004 
        38.2004 
 125993099.87044  23975693.498    98176423.08444  23975687.8594         26.4004 
        26.6004 
 125188501.74642  23822583.502    97549482.37842  23822580.6804         13.3004 
        13.6004 
 15 12 31  0 23 30.0000000  0  8G02G07G05G09G17G06G19G23
 114078064.21546  21708332.291    88892004.44046  21708326.0914         36.8004 
        37.0004 
 131489609.74642  25021640.646   102459432.14042  25021637.9564         15.9004 
        15.9004 
 119290327.9944   22700193.007    92953504.8074   22700180.2494          1.0004 
         1.0004 
 111710315.20846  21257765.104    87046996.94846  21257763.7894         38.4004 
        38.4004 
 117699055.87645  22397389.668    91713543.50245  22397386.3244         32.4004 
        33.0004 
 107743811.69846  20502964.703    83956209.74646  20502963.9154         39.7004 
        40.3004 
 126111833.95244  23998287.353    98268943.03244  23998283.0714         26.5004 
        26.7004 
 125278044.65442  23839621.648    97619255.94242  23839621.4554         13.3004 
        13.6004 
 15 12 31  0 24  0.0000000  0  8G02G07G05G09G17G06G19G23
 114025284.98546  21698288.905    88850877.75746  21698282.7864         36.6004 
        36.8004 
 131432349.22642  25010742.907   102414813.65943  25010741.6184         17.8004 
        18.1004 
 119231895.902 5  22689076.048                                          32.500  
                
 111753312.39246  21265947.503    87080501.21346  21265945.4794         38.0004 
        38.6004 
 117806428.03645  22417821.707    91797210.03645  22417818.7774         32.5004 
        32.5004 
 107755441.67546  20505177.699    83965272.04946  20505176.9134         40.1004 
        40.3004 
 126230692.40544  24020904.707    98361559.89444  24020901.7734         26.3004 
        26.4004 
 125367896.96541  23856722.728    97689270.61641  23856719.4644         11.6004 
        11.8004 
 15 12 31  0 24 30.0000000  0  8G02G07G05G09G17G06G19G23
 113972607.08446  21688264.779    88809830.03946  21688258.7854         36.5004 
        37.0004 
 131375112.32443  24999852.788   102370213.54443  24999850.5344         20.3004 
        18.1004 
 119173699.8084   22677993.488    92862625.7114   22677987.7504          1.0004 
         1.0004 
 111796865.71546  21274234.780    87114438.84446  21274233.5674         38.1004 
        38.6004 
 117914097.72245  22438310.866    91881108.42745  22438307.1664         32.0004 
        32.2004 
 107767365.52546  20507446.559    83974563.34546  20507445.8744         39.3004 
        39.7004 
 126349672.94644  24043546.220    98454271.89144  24043543.0994         26.6004 
        27.0004 
 125458056.36341  23873882.107    97759524.56841  23873878.6004         11.6004 
        11.8004 
 15 12 31  0 25  0.0000000  0  8G02G07G05G09G17G06G19G23
 113920026.74845  21678259.464    88768858.34346  21678253.4234         35.9004 
        36.3004 
 131317896.98443  24988963.551   102325630.26443  24988962.3994         20.3004 
        20.8004 
 119115734.3514   22666966.399    92817457.8104   22666959.1004          1.0004 
         1.0004 
 111840969.13446  21282627.997    87148805.11946  21282626.1144         37.2004 
        37.8004 
 118022057.24045  22458854.559    91965232.67245  22458851.3484         32.2004 
        32.5004 
 107779579.57546  20509770.958    83984080.76346  20509770.1304         39.7004 
        39.9004 
 126468768.46744  24066210.195    98547073.49844  24066205.9194         27.0004 
        27.1004 
 125548515.74342  23891094.992    97830012.25842  23891092.3464         14.3004 
        15.5004 
 15 12 31  0 25 30.0000000  0  7G02G07G09G17G06G19G23
 113867552.79046  21668274.020    88727969.53946  21668267.3934         36.2004 
        36.3004 
 131260713.37243  24978081.202   102281071.69343  24978080.4554         21.9004 
        21.9004 
 111885628.72946  21291126.103    87183604.77046  21291124.2354         37.9004 
        38.3004 
 118130311.58245  22479455.146    92049586.65545  22479450.7524         31.8004 
        32.1004 
 107792092.24546  20512152.182    83993830.87746  20512151.4124         40.3004 
        40.6004 
 126587984.12644  24088896.356    98639968.70744  24088892.8654         26.8004 
        27.1004 
 125639280.04042  23908364.929    97900737.55542  23908363.0894         17.6004 
        15.5004 
 15 12 31  0 26  0.0000000  0  7G02G07G09G17G06G19G23
 113815183.58645  21658308.307    88687162.35946  21658301.9464         35.5004 
        36.0004 
 131203561.28343  24967207.127   102236537.66743  24967204.6704         22.3004 
        21.9004 
 111930840.00346  21299730.396    87218834.30846  21299727.8624         37.6004 
        37.9004 
 118238855.24445  22500109.945    92134166.09245  22500106.8734         31.5004 
        31.7004 
 107804901.38746  20514589.029    84003812.01646  20514589.1924         40.0004 
        40.8004 
 126707314.44144  24111603.568    98732953.26744  24111599.1514         26.7004 
        26.5004 
 125730344.04142  23925693.831    97971696.36742  23925690.1744         17.6004 
        17.7004 
 15 12 31  0 26 30.0000000  0  7G02G07G09G17G06G19G23
 113762918.75145  21648362.160    88646436.49945  21648356.0194         34.4004 
        34.7004 
 131146441.81343  24956336.003   102192029.04743  24956335.8644         22.3004 
        22.4004 
 111976599.71146  21308437.872    87254491.19946  21308435.9114         37.5004 
        37.9004 
 118347683.95145  22520819.709    92218967.62345  22520816.2284         31.3004 
        30.9004 
 107818006.20546  20517083.107    84014023.54646  20517082.9824         39.6004 
        40.0004 
 126826755.60444  24134331.790    98826024.21944  24134330.1504         24.6004 
        24.5004 
 125821703.76942  23943083.094    98042885.62142  23943074.7494         16.9004 
        17.7004 
 15 12 31  0 27  0.0000000  0  8G02G07G09G17G06G05G19G23
 113710762.47645  21638437.613    88605795.23145  21638431.2264         34.8004 
        35.1004 
 131089360.33643  24945474.899   102147550.01743  24945473.7284         21.7004 
        21.7004 
 112022909.09246  21317250.025    87290576.40446  21317247.7194         37.6004 
        38.0004 
 118456797.49745  22541583.028    92303991.11545  22541579.5244         32.0004 
        32.3004 
 107831410.25346  20519633.993    84024468.23546  20519633.4704         40.2004 
        41.0004 
 118886228.533 5  22623297.525                                          34.400  
                
 126946307.58244  24157082.683    98919181.46844  24157079.6274         24.7004 
        25.0004 
 125913359.25642  23960525.049    98114305.37442  23960515.6134         16.9004 
        17.6004 
 15 12 31  0 27 30.0000000  0  8G02G07G09G17G06G05G19G23
 113658718.55745  21628534.327    88565241.51045  21628527.2124         34.8004 
        35.0004 
 131032321.47143  24934620.091   102103104.17743  24934619.0034         22.1004 
        21.7004 
 112069768.92846  21326166.987    87327090.53246  21326165.5694         37.4004 
        37.5004 
 118566195.50245  22562401.513    92389236.26645  22562397.8464         32.2004 
        32.5004 
 107845116.81146  20522242.313    84035148.63846  20522241.7534         38.6004 
        38.9004 
 118829447.051 5  22612490.165                                          34.200  
                
 127065970.57044  24179853.183    99012425.27044  24179849.6874         24.9004 
        25.0004 
 126005310.77343  23978022.813    98185955.79943  23978014.3464         19.7004 
        20.5004 
 15 12 31  0 28  0.0000000  0  8G02G07G09G17G06G05G19G23
 113606788.31745  21618651.458    88524776.37645  21618645.6134         35.5004 
        35.7004 
 130975328.18743  24923773.909   102058693.88043  24923772.7144         22.1004 
        22.4004 
 112117177.76146  21335189.221    87364032.44446  21335186.6164         37.3004 
        38.1004 
 118675875.55345  22583273.025    92474701.17445  22583269.9544         32.1004 
        32.6004 
 107859126.83546  20524908.023    84046065.52046  20524907.8584         40.2004 
        40.5004 
 118772904.191 5  22601727.567                                          31.100  
                
 127185742.10044  24202645.139    99105753.65044  24202641.8594         24.9004 
        25.0004 
 126097555.72843  23995574.557    98257834.87843  23995568.9964         20.4004 
        20.5004 
 15 12 31  0 28 30.0000000  0  8G02G07G09G17G06G05G19G23
 113554973.25245  21608791.824    88484400.99045  21608785.5574         35.4004 
        35.7004 
 130918383.71043  24912939.711   102014321.56143  24912938.3344         22.3004 
        22.5004 
 112165134.37746  21344315.110    87401401.20446  21344312.5624         37.1004 
        37.9004 
 118785835.77145  22604196.736    92560384.39745  22604193.9884         31.8004 
        32.2004 
 107873441.57146  20527631.948    84057219.83346  20527631.7314         40.0004 
        40.5004 
 118716600.957 5  22591017.624                                          34.600  
                
 127305620.47044  24225458.044    99199165.26144  24225455.2544         24.9004 
        25.0004 
 126190092.31543  24013184.074    98329941.19343  24013178.3584         20.4004 
        20.8004 
 15 12 31  0 29  0.0000000  0  8G02G07G09G17G06G05G19G23
 113503271.00945  21598953.499    88444113.50846  21598946.8364         35.8004 
        36.1004 
 130861487.33743  24902110.446   101969986.71243  24902110.7624         22.6004 
        22.5004 
 112213633.26446  21353543.308    87439192.51546  21353541.6294         37.5004 
        38.1004 
 118896069.02245  22625174.035    92646280.38445  22625170.2264         31.8004 
        32.1004 
 107888058.05646  20530414.310    84068609.26846  20530413.2954         40.5004 
        40.6004 
 118660533.689 5  22580348.171                                          34.100  
                
 127425599.89744  24248289.260    99292655.59544  24248286.0714         25.4004 
        26.1004 
 126282914.05243  24030847.018    98402269.73543  24030841.9854         21.5004 
        22.0004 
 15 12 31  0 29 30.0000000  0  8G02G07G09G17G06G05G19G23
 113451682.71045  21589136.569    88403914.81745  21589130.1594         30.2004 
        30.7004 
 130804641.21443  24891295.222   101925691.00143  24891293.1574         22.6004 
        22.5004 
 112262672.77745  21362875.187    87477405.09245  21362873.5244         33.0004 
        33.6004 
 119006572.34445  22646202.277    92732386.81345  22646198.7534         30.5004 
        31.7004 
 107902977.04545  20533253.332    84080234.43645  20533252.6164         33.8004 
        34.5004 
 118604702.1914   22569720.856    92419238.1474   22569715.9944          2.4004 
         3.0004 
 127545677.44444  24271139.081    99386222.39144  24271136.2244         26.1004 
        26.0004 
 126376018.42843  24048563.691    98474818.50543  24048559.0124         20.6004 
        22.0004 
 15 12 31  0 30  0.0000000  0  8G02G07G09G17G06G05G19G23
 113400209.29045  21579341.152    88363805.64045  21579334.9294         32.5004 
        33.3004 
 130747847.51843  24880487.192   101881436.15443  24880486.1754         21.4004 
        21.5004 
 112312250.64145  21372310.103    87516037.15545  21372307.9974         32.3004 
        33.3004 
 119117342.97444  22667280.499    92818701.52844  22667277.1824         27.7004 
        28.4004 
 107918198.86146  20536149.766    84092095.56746  20536149.0754         38.8004 
        38.8004 
 118549105.4134   22559142.341    92375916.0294   22559137.4784          4.9004 
         5.4004 
 127665849.46843  24294006.981    99479862.82043  24294003.8194         23.3004 
        22.3004 
 126469402.55243  24066333.017    98547585.25843  24066329.5354         20.6004 
        19.1004 
 15 12 31  0 30 30.0000000  0  8G02G07G09G17G06G05G19G23
 113348851.64744  21569568.495    88323786.68244  21569561.8344         28.5004 
        28.9004 
 130691108.23843  24869688.568   101837223.72743  24869688.3754         21.3004 
        21.5004 
 112362364.46445  21381846.510    87555086.85745  21381844.2734         32.1004 
        32.6004 
 119228376.98944  22688410.070    92905221.48544  22688406.6844         28.3004 
        27.8004 
 107933723.60345  20539104.047    84104192.74345  20539103.1304         32.9004 
        33.3004 
 118493742.7404   22548609.159    92332776.2794   22548603.4294          5.4004 
         5.8004 
 127786113.22943  24316893.526    99573574.73343  24316890.4454         21.7004 
        22.3004 
 126563063.24642  24084156.060    98620567.52843  24084151.3894         17.3004 
        19.1004 
 15 12 31  0 31  0.0000000  0  8G02G07G09G17G06G05G19G23
 113297615.38345  21559818.209    88283862.30846  21559811.6094         35.8004 
        36.2004 
 130634430.59543  24858904.776   101793059.33143  24858902.0574         21.3004 
        21.1004 
 112413017.09646  21391484.619    87594556.41246  21391482.7694         36.2004 
        36.6004 
 119339676.49845  22709590.111    92991948.31645  22709587.3164         31.0004 
        31.2004 
 107949556.65746  20542116.805    84116530.16146  20542116.0744         39.2004 
        39.5004 
 118438619.0264   22538118.291    92289822.7924   22538115.4704          5.4004 
         5.8004 
 127906471.11743  24339794.551    99667359.97943  24339793.0414         21.7004 
        23.0004 
 126657002.57342  24102031.545    98693766.93242  24102028.0834         17.3004 
        17.3004 
 15 12 31  0 31 30.0000000  0  8G02G07G09G17G06G05G19G23
 113246500.05946  21550091.087    88244032.17346  21550084.8244         36.3004 
        36.8004 
 130577815.49443  24848129.926   101748943.72843  24848129.0924         22.2004 
        22.6004 
 112464204.98646  21401225.313    87634443.04046  21401223.7894         37.1004 
        37.5004 
 119451236.74745  22730819.056    93078878.32545  22730816.1934         31.0004 
        31.2004 
 107965697.04046  20545187.994    84129107.06646  20545187.4674         40.3004 
        40.7004 
 118383732.38442  22527672.587    92247054.00342  22527669.3764         12.6004 
        12.8004 
 128026918.58244  24362717.521    99761215.03044  24362713.8894         25.3004 
        25.3004 
 126751216.04642  24119961.012    98767179.93342  24119955.7204         17.7004 
        17.3004 
 15 12 31  0 32  0.0000000  0  8G02G07G09G17G06G05G19G23
 113195506.33246  21540387.374    88204296.79046  21540381.1464         36.7004 
        37.1004 
 130521264.70743  24837370.498   101704878.26643  24837367.9904         22.1004 
        22.6004 
 112515925.23946  21411067.426    87674744.49946  21411066.0734         37.1004 
        37.7004 
 119563054.02045  22752097.530    93166008.59345  22752094.0934         30.9004 
        31.1004 
 107982144.46046  20548317.727    84141923.22746  20548317.5694         40.0004 
        40.6004 
 118329081.29042  22517274.159    92204468.74142  22517269.2864         12.6004 
        12.8004 
 128147452.19044  24385653.766    99855137.23944  24385650.4014         25.4004 
        25.6004 
 126845700.29042  24137941.441    98840803.91542  24137935.5074         17.7004 
        17.7004 
 15 12 31  0 32 30.0000000  0  8G02G07G09G17G06G05G19G23
 113144634.89046  21530707.110    88164656.69046  21530700.8634         36.6004 
        36.9004 
 130464780.52843  24826620.599   101660864.72543  24826619.2034         22.1004 
        22.5004 
 112568175.83046  21421010.706    87715459.20746  21421008.8244         36.6004 
        37.0004 
 119675125.36245  22773424.036    93253336.84645  22773420.9664         31.3004 
        31.6004 
 107998899.64546  20551506.693    84154979.18846  20551505.7744         39.7004 
        40.6004 
 118274666.06842  22506918.624    92162067.27642  22506914.8074         15.0004 
        15.0004 
 128268069.72744  24408606.363    99949124.84144  24408604.0424         25.3004 
        25.5004 
 126940452.95142  24155972.068    98914637.07742  24155965.2644         17.5004 
        17.7004 
 15 12 31  0 33  0.0000000  0  8G02G07G09G17G06G05G19G23
 113093887.06546  21521050.252    88125112.91546  21521044.0714         37.1004 
        37.6004 
 130408365.45543  24815883.490   101616905.04243  24815883.7884         22.6004 
        22.5004 
 112620954.90346  21431054.540    87756585.72346  21431052.8294         36.9004 
        37.3004 
 119787447.49345  22794798.127    93340860.52145  22794794.0914         30.4004 
        30.6004 
 108015962.97546  20554753.829    84168275.26346  20554752.8114         39.6004 
        40.0004 
 118220486.21842  22496607.854    92119849.23542  22496605.2354         15.6004 
        15.0004 
 128388767.97644  24431575.860   100043175.30044  24431571.1874         25.1004 
        25.5004 
 127035470.86042  24174052.428    98988676.93442  24174047.7774         17.5004 
        17.5004 
 15 12 31  0 33 30.0000000  0  8G02G07G09G17G06G05G19G23
 113043268.32846  21511417.706    88085669.72646  21511411.5024         37.2004 
        37.6004 
 130352026.37943  24805164.923   101573004.60743  24805161.7754         21.4004 
        22.5004 
 112674264.68046  21441199.207    87798125.78046  21441197.2524         37.1004 
        37.4004 
 119900022.01645  22816220.436    93428580.86945  22816217.2324         30.2004 
        30.4004 
 108033339.52546  20558059.913    84181815.41446  20558059.5874         39.7004 
        39.7004 
 118166545.70342  22486346.659    92077817.65642  22486339.8924         15.6004 
        15.7004 
 128509548.90444  24454558.754   100137290.21244  24454555.3684         25.0004 
        25.1004 
 127130755.75942  24192184.965    99062924.81642  24192180.2204         16.4004 
        17.5004 
 15 12 31  0 34  0.0000000  0  8G02G07G09G17G06G05G19G23
 112992777.98846  21501809.830    88046326.59246  21501802.8944         37.3004 
        37.7004 
 130295763.24243  24794456.795   101529163.36843  24794455.3294         21.4004 
        21.1004 
 112728100.99246  21451443.745    87840076.12546  21451441.4994         37.3004 
        37.4004 
 120012843.90344  22837688.553    93516493.94944  22837686.5944         29.7004 
        29.9004 
 108051027.72446  20561425.873    84195598.40846  20561425.7424         39.8004 
        40.0004 
 118112842.16142  22476123.666    92035970.73542  22476121.3324         14.8004 
        15.7004 
 128630407.65944  24477558.066   100231465.77944  24477553.1674         24.3004 
        25.0004 
 127226302.74342  24210367.614    99137376.91342  24210365.2904         16.4004 
        16.3004 
 15 12 31  0 34 30.0000000  0  8G02G07G09G17G06G05G19G23
 112942415.51946  21492226.481    88007083.09146  21492219.5564         37.5004 
        37.9004 
 130239577.42443  24783765.841   101485382.37643  24783764.2034         19.6004 
        19.3004 
 112782460.21646  21461788.213    87882433.93646  21461785.7964         37.5004 
        37.9004 
 120125908.02144  22859204.823    93604595.78844  22859203.0644         29.0004 
        29.5004 
 108069026.61346  20564850.926    84209623.49046  20564850.8864         40.4004 
        41.2004 
 118059373.49342  22465950.346    91994306.83642  22465947.4384         14.8004 
        14.9004 
 128751339.80244  24500569.844   100325698.56743  24500566.8554         24.3004 
        22.6004 
 127322107.82842  24228599.132    99212030.10342  24228595.6654         16.0004 
        16.3004 
 15 12 31  0 35  0.0000000  0  8G02G07G09G17G06G05G19G23
 112892183.10646  21482667.535    87967940.94246  21482660.7644         37.6004 
        38.0004 
 130183472.57043  24773088.655   101441664.49243  24773088.4584         19.6004 
        19.3004 
 112837341.39946  21472231.497    87925198.46346  21472230.1984         37.6004 
        37.7004 
 120239213.18745  22880766.195    93692885.46645  22880763.7354         31.1004 
        31.3004 
 108087337.90346  20568336.314    84223892.00446  20568335.4794         40.0004 
        40.5004 
 118006140.78842  22455818.878    91952826.82342  22455817.8714         14.8004 
        14.9004 
 128872344.10843  24523594.980   100419987.52343  24523593.4714         21.3004 
        22.6004 
 127418169.34442  24246877.686    99286883.11642  24246874.3034         14.4004 
        15.2004 
 15 12 31  0 35 30.0000000  0  8G02G07G09G17G06G05G19G23
 112842086.14245  21473133.999    87928904.33245  21473127.5974         30.7004 
        31.8004 
 130127454.95743  24762429.536   101398014.58643  24762428.0464         19.6004 
        20.3004 
 112892746.43345  21482774.969    87968371.19645  21482772.8944         30.7004 
        31.0004 
 120352760.20045  22902373.612    93781363.59644  22902371.2864         30.1004 
        29.2004 
 108105966.18145  20571880.814    84238407.51445  20571880.0834         31.5004 
        32.0004 
 117953147.40142  22445735.553    91911533.28842  22445733.5084         14.8004 
        14.9004 
 128993422.32443  24546638.019   100514334.06143  24546633.2434         22.3004 
        22.0004 
 127514488.56942  24265207.931    99361936.97142  24265203.5404         14.4004 
        15.2004 
 15 12 31  0 36  0.0000000  0  8G02G07G09G17G06G05G19G23
 112792123.92645  21463626.562    87889972.72546  21463620.0384         35.3004 
        37.1004 
 130071525.35843  24751787.822   101354433.25143  24751784.9514         19.2004 
        20.3004 
 112948671.35845  21493416.248    88011949.02545  21493415.1504         33.9004 
        34.1004 
 120466543.94645  22924025.841    93870026.17445  22924023.7484         30.8004 
        30.7004 
 108124910.15646  20575485.743    84253169.01646  20575484.9454         39.9004 
        40.4004 
 117900391.47742  22435696.594    91870424.77442  22435692.9924         13.5004 
        14.9004 
 129114569.55543  24569690.414   100608734.40743  24569686.5494         22.3004 
        23.1004 
 127611060.83642  24283585.790    99437187.98642  24283584.2164         14.6004 
        13.6004 
 15 12 31  0 36 30.0000000  0  8G02G07G09G17G06G05G19G23
 112742294.57746  21454144.248    87851144.64446  21454137.8094         36.0004 
        37.0004 
 130015683.10843  24741160.021   101310919.97043  24741159.1044         19.2004 
        18.8004 
 113005110.86446  21504157.007    88055927.82046  21504155.1264         37.1004 
        37.4004 
 120580558.31644  22945721.820    93958868.46044  22945720.1744         29.6004 
        28.8004 
 108144167.23946  20579150.018    84268174.50546  20579149.5324         37.1004 
        37.8004 
 117847869.67642  22425701.268    91829498.69142  22425698.3784         13.5004 
        13.5004 
 129235780.08043  24592755.447   100703184.08243  24592751.2424         23.2004 
        23.1004 
 127707880.26042  24302007.467    99512631.59042  24302010.5554         14.6004 
        13.6004 
 15 12 31  0 37  0.0000000  0  8G02G07G09G17G06G05G19G23
 112692599.56746  21444688.006    87812421.25046  21444681.3224         36.5004 
        36.8004 
 129959930.85843  24730551.764   101267476.81943  24730549.1804         18.7004 
        18.8004 
 113062063.19146  21514994.896    88100306.22746  21514993.2714         37.5004 
        37.7004 
 120694800.65945  22967461.668    94047888.38745  22967459.8364         30.1004 
        30.3004 
 108163738.41446  20582874.251    84283424.73546  20582874.0484         39.9004 
        40.5004 
 117795582.02541  22415750.403    91788755.10642  22415748.7124         11.9004 
        13.5004 
 129357051.52143  24615833.294   100797681.21643  24615829.6324         21.4004 
        22.1004 
 127804944.84242  24320477.209    99588266.17942  24320481.7964         16.2004 
        16.6004 
 15 12 31  0 37 30.0000000  0  8G02G07G09G17G06G05G19G23
 112643041.98945  21435257.749    87773804.94846  21435250.9364         35.6004 
        36.5004 
 129904272.85043  24719958.934   101224107.08243  24719958.5074         18.7004 
        18.5004 
 113119527.68346  21525929.076    88145083.72146  21525928.2404         37.1004 
        37.7004 
 120809269.31144  22989243.960    94137084.67144  22989241.6704         28.7004 
        29.6004 
 108183625.77846  20586658.535    84298921.35346  20586658.4934         39.7004 
        40.0004 
 117743529.55741  22405845.522    91748194.76941  22405843.1974         11.9004 
        11.9004 
 129478382.63443  24638922.241   100892224.85743  24638918.2804         21.4004 
        22.2004 
 127902253.36542  24338994.861    99664090.84542  24338999.0764         16.2004 
        16.6004 
 15 12 31  0 38  0.0000000  0  8G02G07G09G17G06G05G19G23
 112593622.68345  21425853.628    87735296.39446  21425846.5584         33.1004 
        36.8004 
 129848711.28343  24709387.228   101180812.47843  24709385.3674         18.6004 
        18.5004 
 113177501.96346  21536961.808    88190258.44846  21536960.9384         37.5004 
        37.9004 
 120923961.39044  23011069.328    94226455.06844  23011067.0644         28.2004 
        28.6004 
 108203829.67545  20590503.480    84314664.61945  20590503.2894         32.2004 
        32.5004 
 117691711.62441  22395988.998    91707817.19241  22395980.7264         10.3004 
        11.9004 
 129599770.75543  24662020.590   100986812.89943  24662016.9194         22.4004 
        22.2004 
 127999802.63742  24357559.374    99740103.10242  24357560.7374         17.2004 
        16.6004 
 15 12 31  0 38 30.0000000  0  8G02G07G09G17G06G05G19G23
 112544339.21545  21416474.851    87696893.68145  21416468.6024         34.4004 
        32.8004 
 129793244.93143  24698831.344   101137592.03643  24698829.7014         20.4004 
        19.5004 
 113235980.18445  21548090.098    88235825.83945  21548088.6734         33.1004 
        33.9004 
 121038870.00044  23032936.309    94315994.15844  23032934.6984         28.7004 
        29.0004 
 108224346.98446  20594407.972    84330652.08946  20594407.5154         37.4004 
        38.3004 
 117640124.13241  22386171.377    91667619.15641  22386164.8154         10.3004 
        10.0004 
 129721209.45143  24685130.394   101081440.34843  24685126.6584         21.3004 
        22.2004 
 128097586.46142  24376167.574    99816298.14243  24376168.0874         17.2004 
        18.6004 
 15 12 31  0 39  0.0000000  0  8G02G07G09G17G06G05G19G23
 112495196.93645  21407123.604    87658600.98345  21407116.9064         33.7004 
        33.7004 
 129737880.17043  24688295.988   101094450.70543  24688294.3664         20.4004 
        20.8004 
 113294963.95445  21559314.447    88281787.17745  21559312.1994         34.9004 
        35.2004 
 121153995.83644  23054844.938    94405702.51544  23054841.9064         29.1004 
        29.2004 
 108245182.13646  20598372.457    84346887.23646  20598371.8184         39.6004 
        39.9004 
 117588771.01941  22376401.626    91627603.75541  22376391.8414          9.1004 
        10.0004 
 129842700.15843  24708249.918   101176108.35043  24708246.0794         21.3004 
        22.2004 
 128195606.20143  24394822.221    99892677.01143  24394819.7964         18.8004 
        18.6004 
 15 12 31  0 39 30.0000000  0  7G02G07G09G17G06G19G23
 112446201.91945  21397800.209    87620423.02245  21397793.5204         32.3004 
        32.9004 
 129682624.53043  24677779.608   101051394.41843  24677778.4084         20.3004 
        20.8004 
 113354455.97845  21570634.911    88328144.54645  21570633.8374         32.6004 
        34.7004 
 121269340.93244  23076793.934    94495581.74444  23076791.7844         28.4004 
        28.1004 
 108266340.59645  20602398.481    84363374.31345  20602398.4314         33.9004 
        34.2004 
 129964245.19643  24731378.123   101270818.68443  24731376.1484         19.6004 
        19.8004 
 128293863.88143  24413521.306    99969241.31443  24413516.9404         18.8004 
        19.2004 
 15 12 31  0 40  0.0000000  0  7G02G07G09G17G06G19G23
 112397351.30645  21388503.884    87582357.60145  21388497.6054         33.7004 
        33.9004 
 129627475.99543  24667285.034   101008421.58843  24667284.1174         20.3004 
        19.7004 
 113414449.78645  21582051.579    88374892.93146  21582049.7824         34.0004 
        37.5004 
 121384898.05344  23098783.784    94585626.18344  23098780.8944         28.6004 
        28.5004 
 108287818.69746  20606486.691    84380110.45046  20606486.0994         38.8004 
        39.1004 
 130085837.44643  24754517.050   101365565.79843  24754515.3484         19.6004 
        21.4004 
 128392352.26543  24432262.746   100045985.39043  24432258.6264         19.2004 
        19.2004 
 15 12 31  0 40 30.0000000  0  7G02G07G09G17G06G19G23
 112348648.43745  21379236.314    87544407.29345  21379229.7614         33.3004 
        33.0004 
 129572439.43543  24656812.536   100965536.01243  24656809.3744         19.0004 
        19.7004 
 113474945.26645  21593563.991    88422032.21245  21593562.6344         32.7004 
        33.0004 
 121500666.16344  23120813.428    94675835.00644  23120810.1484         27.2004 
        28.1004 
 108309619.13146  20610635.141    84397097.76246  20610634.1244         38.4004 
        37.7004 
 130207476.53743  24777663.342   101460349.37843  24777661.0264         22.0004 
        21.4004 
 128491071.41643  24451048.805   100122909.28543  24451043.0114         18.6004 
        19.2004 
 15 12 31  0 41  0.0000000  0  7G02G07G09G17G06G19G23
 112300093.06745  21369996.666    87506571.92745  21369990.0924         32.1004 
        32.6004 
 129517515.93543  24646360.643   100922738.50543  24646357.4894         18.3004 
        18.6004 
 113535938.58145  21605170.118    88469559.41845  21605168.7164         32.3004 
        33.1004 
 121616640.69244  23142883.006    94766204.68444  23142879.4744         27.2004 
        27.3004 
 108331740.90145  20614844.635    84414335.47545  20614843.9804         32.8004 
        33.3004 
 130329158.41443  24800818.109   101555166.28343  24800817.5654         22.3004 
        22.4004 
 128590016.66243  24469876.743   100200009.37643  24469872.0844         18.6004 
        19.2004 
 15 12 31  0 41 30.0000000  0  7G02G07G09G17G06G19G23
 112251686.42345  21360785.623    87468852.44445  21360778.8244         32.8004 
        32.1004 
 129462708.00943  24635930.747   100880031.05443  24635930.2604         18.3004 
        18.6004 
 113597427.50145  21616870.832    88517472.81445  21616870.1854         31.9004 
        32.5004 
 121732818.59244  23164990.239    94856732.82144  23164988.4394         26.6004 
        26.6004 
 108354184.56345  20619115.582    84431824.01345  20619114.8374         32.2004 
        32.7004 
 130450880.53343  24823982.136   101650014.56343  24823979.6054         22.3004 
        22.0004 
 128689185.38443  24488746.885   100277283.60343  24488745.5294         18.7004 
        18.3004 
 15 12 31  0 42  0.0000000  0  7G02G07G09G17G06G19G23
 112203437.21545  21351603.420    87431255.63745  21351597.1404         33.1004 
        34.0004 
 129408025.43843  24625522.697   100837421.27843  24625524.2524         18.8004 
        18.7004 
 113659416.96545  21628667.857    88565776.23245  21628666.3544         33.6004 
        34.1004 
 121849204.12144  23187138.715    94947422.76444  23187135.5344         26.5004 
        26.6004 
 108376957.90946  20623448.650    84449569.44046  20623448.0754         38.7004 
        39.2004 
 130572647.15643  24847154.999   101744897.53143  24847151.2164         21.4004 
        22.0004 
 128788582.55043  24507662.510   100354735.81243  24507661.4254         18.7004 
        20.5004 
 15 12 31  0 42 30.0000000  0  8G02G07G05G09G17G06G19G23
 112155343.18046  21342451.100    87393779.73746  21342444.9404         37.3004 
        37.9004 
 129353467.09443  24615145.358   100794908.29043  24615141.5764         18.8004 
        20.0004 
 117235895.72741  22309247.574    91352644.7154   22309244.9604          8.8004 
         4.7004 
 113721901.14746  21640557.482    88614465.14646  21640556.8424         36.8004 
        37.2004 
 121965790.63344  23209323.836    95038269.31644  23209321.8464         28.1004 
        27.6004 
 108400057.98046  20627844.659    84467569.46146  20627844.1514         39.8004 
        40.9004 
 130694452.31343  24870333.683   101839810.53443  24870330.3084         21.0004 
        21.0004 
 128888201.05843  24526620.490   100432360.46443  24526615.4064         21.0004 
        20.5004 
 15 12 31  0 43  0.0000000  0  9G02G07G05G09G17G06G19G30G23
 112107408.04346  21333329.668    87356427.65546  21333323.5284         36.6004 
        37.0004 
 129299037.54943  24604783.067   100752495.64043  24604783.6554         20.8004 
        20.0004 
 117186435.33741  22299836.602    91314104.14241  22299835.9994         10.3004 
         8.5004 
 113784879.86046  21652542.675    88663539.42046  21652541.4214         36.0004 
        36.4004 
 122082577.28344  23231547.390    95129271.82644  23231544.9934         27.9004 
        28.3004 
 108423487.46045  20632303.388    84485826.15745  20632302.8664         35.0004 
        35.3004 
 130816295.37443  24893520.631   101934753.04643  24893516.1244         21.0004 
        21.0004 
 133085946.474 5  25325413.320                                          34.400  
                
 128988041.01943  24545619.157   100510157.71143  24545614.2064         22.4004 
        22.7004 
 15 12 31  0 43 30.0000000  0  9G02G07G05G09G17G06G19G30G23
 112059631.51045  21324238.380    87319199.16745  21324231.6544         33.9004 
        35.1004 
 129244738.20543  24594453.624   100710184.48243  24594451.9654         20.9004 
        21.4004 
 117137211.60841  22290470.797    91275747.97641  22290467.2224         11.2004 
         9.9004 
 113848349.36045  21664620.405    88712996.12145  21664618.5124         33.9004 
        34.4004 
 122199559.94544  23253808.955    95220427.06344  23253806.7194         27.3004 
        27.5004 
 108447245.39745  20636824.876    84504338.79746  20636823.9084         33.5004 
        37.8004 
 130938172.57143  24916713.739   102029722.12343  24916708.7074         18.9004 
        19.7004 
 133020794.343 5  25313016.069                                          33.300  
                
 129088098.46843  24564659.528   100588124.43043  24564654.1424         22.4004 
        21.1004 
 15 12 31  0 44  0.0000000  0  9G02G07G05G09G17G06G19G30G23
 112012012.35445  21315177.116    87282093.30346  21315170.0754         34.4004 
        36.2004 
 129190568.91043  24584143.797   100667974.65343  24584144.0734         20.9004 
        21.4004 
 117088221.67041  22281147.548    91237573.99341  22281143.3934         11.2004 
         9.9004 
 113912304.65845  21676789.900    88762831.38445  21676788.7244         32.6004 
        33.7004 
 122316732.71444  23276106.479    95311730.42044  23276103.6434         27.1004 
        26.9004 
 108471329.72445  20641407.801    84523105.77345  20641406.9264         32.8004 
        34.4004 
 131060079.18543  24939911.365   102124714.15343  24939906.5254         18.9004 
        18.7004 
 132955518.68241  25300595.463   103601705.98341  25300595.8174          9.8004 
         9.9004 
 129188368.21643  24583740.148   100666256.58143  24583735.1174         20.7004 
        21.1004 
 15 12 31  0 44 30.0000000  0 10G02G07G05G09G17G06G19G13G30G23
 111964550.56445  21306145.178    87245110.06545  21306138.6694         33.6004 
        33.8004 
 129136530.60143  24573864.756   100625866.89643  24573860.9174         20.3004 
        20.5004 
 117039463.40042  22271869.134    91199580.52742  22271863.6604         13.7004 
        13.7004 
 113976741.83745  21689053.252    88813042.12745  21689050.9154         31.9004 
        31.9004 
 122434090.60244  23298439.378    95403178.04944  23298436.6874         26.8004 
        26.8004 
 108495739.44045  20646052.948    84542126.30045  20646052.0664         34.5004 
        33.9004 
 131182010.39643  24963113.389   102219725.38243  24963109.2164         18.7004 
        18.7004 
 132992157.719 5  25307564.752                                          32.100  
                
 132890119.72141  25288148.427   103550745.85442  25288151.5544         11.9004 
        12.0004 
 129288845.32443  24602859.919   100744550.30143  24602855.7474         20.4004 
        20.5004 
 15 12 31  0 45  0.0000000  0 10G02G07G05G09G17G06G19G13G30G23
 111917250.45645  21297143.436    87208252.82145  21297137.5534         34.2004 
        33.7004 
 129082628.93443  24563602.480   100583865.58443  24563604.2034         20.3004 
        20.7004 
 116990939.79042  22262634.486    91161769.92342  22262630.7424         13.7004 
        13.7004 
 114041661.61445  21701405.387    88863628.92445  21701405.3484         32.9004 
        32.9004 
 122551633.89344  23320806.879    95494770.12844  23320805.1574         27.0004 
        27.0004 
 108520478.19545  20650760.104    84561403.21945  20650759.4384         33.5004 
        34.1004 
 131303966.75843  24986319.260   102314756.19043  24986317.8154         18.5004 
        18.7004 
 132888791.444 5  25287894.866                                          32.100  
                
 132824603.05242  25275681.870   103499694.02242  25275685.0804         12.3004 
        12.5004 
 129389530.47543  24622019.717   100823006.13043  24622015.1124         20.4004 
        20.5004 
 15 12 31  0 45 30.0000000  0 10G02G07G05G09G17G06G19G13G30G23
 111870111.09545  21288173.174    87171520.82545  21288166.8314         33.7004 
        34.2004 
 129028863.72343  24553374.727   100541970.61943  24553372.1414         21.0004 
        20.7004 
 116942647.75842  22253445.840    91124139.76942  22253439.7444         15.4004 
        15.7004 
 114107059.16245  21713851.403    88914588.00445  21713850.1044         33.3004 
        33.3004 
 122669356.99544  23343209.079    95586502.32444  23343206.1144         27.7004 
        27.7004 
 108545543.93545  20655530.075    84580934.93545  20655529.7384         35.4004 
        35.1004 
 131425943.19943  25009531.061   102409802.59443  25009530.4704         18.5004 
        18.7004 
 132785395.852 5  25268219.302                                          33.700  
                
 132758968.42742  25263192.907   103448550.23742  25263194.4074         12.3004 
        12.5004 
 129490418.95543  24641218.020   100901620.39943  24641212.5194         20.8004 
        20.7004 
 15 12 31  0 46  0.0000000  0 10G02G07G05G09G17G06G19G13G30G23
 111823130.86346  21279233.012    87134912.83746  21279226.8654         37.2004 
        37.5004 
 128975234.77043  24543167.725   100500181.82643  24543168.1864         21.0004 
        21.0004 
 116894584.20442  22244301.055    91086687.66242  22244294.1724         15.4004 
        15.7004 
 114172929.21446  21726386.165    88965915.27446  21726384.6454         36.0004 
        36.5004 
 122787254.24444  23365643.330    95678370.20444  23365642.0274         27.2004 
        27.5004 
 108570934.34346  20660361.812    84600719.62346  20660361.1634         40.5004 
        41.0004 
 131547934.36743  25032747.422   102504860.47543  25032744.5774         19.4004 
        19.1004 
 132681971.016 6  25248538.182                                          37.200  
                
 132693215.30542  25250679.237   103397314.11142  25250683.1754         16.0004 
        16.0004 
 129591504.85443  24660454.019   100980388.50243  24660449.5634         20.8004 
        21.2004 
 15 12 31  0 46 30.0000000  0 10G02G07G05G09G17G06G19G13G30G23
 111776322.06846  21270326.033    87098438.43046  21270319.6644         37.0004 
        37.3004 
 128921755.87043  24532991.115   100458509.93043  24532990.7274         21.0004 
        22.1004 
 116846759.65843  22235198.843    91049421.78043  22235194.0944         18.4004 
        18.9004 
 114239280.21545  21739011.628    89017617.31345  21739010.7404         35.5004 
        35.9004 
 122905333.11244  23388113.046    95770379.62144  23388110.1504         28.5004 
        28.3004 
 108596660.80446  20665257.546    84620766.17646  20665256.6574         40.2004 
        40.4004 
 131669948.50743  25055965.970   102599936.23643  25055961.8004         19.4004 
        22.2004 
 132578529.447 6  25228855.401                                          37.500  
                
 132627356.79542  25238146.393   103345995.84942  25238150.4634         16.0004 
        16.0004 
 129692796.36543  24679729.305   101059316.80343  24679724.4734         21.1004 
        21.2004 
 15 12 31  0 47  0.0000000  0 10G02G07G05G09G17G06G19G13G30G23
 111729682.19046  21261450.828    87062095.64946  21261444.7324         37.1004 
        37.6004 
 128868425.09843  24522843.168   100416953.49143  24522842.2194         22.3004 
        22.1004 
 116799169.44843  22226141.548    91012338.48543  22226138.7394         19.9004 
        18.9004 
 114306105.65746  21751728.726    89069689.05546  21751727.7794         36.2004 
        36.5004 
 123023586.61044  23410615.406    95862525.09644  23410614.6104         27.2004 
        27.5004 
 108622719.75746  20670215.908    84641071.82046  20670215.5664         38.9004 
        40.2004 
 131791979.21343  25079188.351   102695024.91343  25079183.3494         22.3004 
        22.2004 
 132475069.59141  25209168.096   103227326.37441  25209166.0184          9.1004 
         9.3004 
 132561391.20442  25225593.342   103294594.16642  25225596.5464         15.7004 
        15.8004 
 129794286.97043  24699043.567   101138400.26043  24699036.9734         21.4004 
        21.5004 
 15 12 31  0 47 30.0000000  0 10G02G07G05G09G17G06G19G13G30G23
 111683204.94246  21252606.570    87025879.58746  21252600.2394         37.2004 
        37.5004 
 128815237.20943  24512719.612   100375508.38843  24512719.7484         21.8004 
        22.1004 
 116751805.73343  22217129.643    90975431.69043  22217126.7394         19.9004 
        20.0004 
 114373395.53745  21764533.967    89122122.68646  21764532.4604         35.5004 
        36.1004 
 123142004.11144  23433150.450    95954798.35944  23433148.9404         27.0004 
        27.1004 
 108649104.11546  20675237.307    84661631.03546  20675236.5544         39.8004 
        40.1004 
 131914015.76243  25102411.416   102790118.15343  25102406.5584         22.9004 
        23.1004 
 132371585.55441  25189475.121   103146689.62641  25189471.8474         11.1004 
        11.3004 
 132495313.28042  25213019.478   103243104.95042  25213023.1264         15.7004 
        15.8004 
 129895966.29843  24718393.266   101217630.80043  24718386.3844         21.4004 
        21.5004 
 15 12 31  0 48  0.0000000  0 10G02G07G05G09G17G06G19G13G30G23
 111636899.73846  21243795.132    86989797.59046  21243788.7374         37.5004 
        37.9004 
 128762203.05443  24502631.468   100334183.09143  24502627.7834         21.8004 
        21.1004 
 116704676.21943  22208161.309    90938707.39543  22208158.9754         20.5004 
        20.9004 
 114441155.32145  21777427.209    89174922.47646  21777426.8724         35.9004 
        36.1004 
 123260590.52444  23455716.659    96047203.27044  23455714.0814         26.4004 
        26.8004 
 108675822.28846  20680321.673    84682450.36846  20680320.9524         40.8004 
        41.3004 
 132036063.85043  25125636.083   102885220.35343  25125632.3054         22.9004 
        23.1004 
 132268087.14841  25169779.784   103066041.72641  25169776.9604         11.2004 
        11.4004 
 132429133.11042  25200425.762   103191536.07042  25200428.9714         14.9004 
        14.9004 
 129997839.85743  24737779.441   101297012.67543  24737772.1364         21.4004 
        21.6004 
 15 12 31  0 48 30.0000000  0 10G02G07G05G09G17G06G19G13G30G23
 111590764.72746  21235015.682    86953848.21246  21235009.5624         38.0004 
        38.4004 
 128709321.76543  24492564.172   100292976.89243  24492564.3994         21.0004 
        21.1004 
 116657776.71743  22199235.154    90902162.32643  22199234.1934         20.5004 
        20.9004 
 114509379.30446  21790410.815    89228083.97546  21790409.0634         36.4004 
        36.6004 
 123379339.29344  23478314.664    96139734.68044  23478311.7284         26.1004 
        26.3004 
 108702871.51646  20685469.131    84703527.65646  20685468.3514         40.3004 
        40.4004 
 132158117.49543  25148862.342   102980326.94043  25148859.7724         19.5004 
        19.9004 
 132164573.15941  25150080.795   102985381.77441  25150079.7774         11.2004 
        11.4004 
 132362849.89142  25187813.917   103139886.92042  25187816.3804         15.5004 
        14.9004 
 130099901.30043  24757200.546   101376540.95943  24757192.6334         19.8004 
        19.9004 
 15 12 31  0 49  0.0000000  0 10G02G07G05G09G17G06G19G13G30G23
 111544803.65146  21226269.818    86918034.37846  21226263.5704         38.3004 
        38.6004 
 128656598.17343  24482534.556   100251893.59143  24482532.4474         20.9004 
        21.2004 
 116611109.46243  22190353.552    90865798.21643  22190352.4374         20.6004 
        20.6004 
 114578067.44246  21803481.295    89281607.16346  21803480.6324         36.5004 
        37.1004 
 123498249.95944  23500942.792    96232392.23844  23500939.0804         26.7004 
        26.9004 
 108730254.72946  20690679.144    84724865.18646  20690678.9294         40.3004 
        40.6004 
 132280176.89843  25172088.320   103075438.02343  25172086.7894         19.5004 
        19.9004 
 132061048.12742  25130380.086   102904713.15342  25130378.5114         13.3004 
        13.3004 
 132296468.27042  25175181.687   103088161.15242  25175184.7854         15.5004 
        15.8004 
 130202150.61643  24776657.340   101456215.63043  24776651.4074         19.8004 
        19.9004 
 15 12 31  0 49 30.0000000  0 10G02G07G05G09G17G06G19G13G30G23
 111499020.48746  21217557.760    86882359.16646  21217551.2564         37.0004 
        38.1004 
 128604037.24743  24472532.102   100210937.05043  24472529.8344         20.9004 
        21.2004 
 116564676.60043  22181518.696    90829616.77443  22181517.6314         20.1004 
        20.6004 
 114647219.60346  21816640.796    89335491.91346  21816639.4144         36.4004 
        36.6004 
 123617321.55944  23523601.565    96325175.17644  23523598.8774         26.3004 
        26.5004 
 108757974.70946  20695954.287    84746465.13446  20695953.6664         37.9004 
        38.3004 
 132402241.26442  25195316.765   103170552.99642  25195314.9914         16.5004 
        16.6004 
 131957516.35941  25110677.954   102824039.27442  25110675.6214         10.2004 
        13.3004 
 132229993.07042  25162530.471   103036362.46042  25162533.4854         15.2004 
        15.8004 
 130304587.64542  24796149.775   101536036.59742  24796144.2644         17.9004 
        17.9004 
 15 12 31  0 50  0.0000000  0 10G02G07G05G09G17G06G19G13G30G23
 111453413.20946  21208878.969    86846821.01046  21208872.2194         37.6004 
        38.0004 
 128551638.25943  24462560.631   100170106.71743  24462558.6564         21.6004 
        21.6004 
 116518474.22443  22172728.321    90793614.91743  22172726.5794         20.1004 
        20.3004 
 114716829.74246  21829887.141    89389733.54246  21829885.8244         36.2004 
        36.3004 
 123736548.09544  23546288.038    96418078.86044  23546286.1064         26.3004 
        26.5004 
 108786028.43446  20701292.912    84768325.13746  20701292.1464         40.0004 
        40.0004 
 132524305.34343  25218544.813   103265667.72143  25218543.6654         18.5004 
        18.7004 
 131853976.54041  25090975.379   102743359.11841  25090972.9264         10.2004 
        10.0004 
 132163422.81842  25149862.548   102984489.73642  25149865.4314         15.2004 
        14.9004 
 130407206.04442  24815676.328   101615998.89142  24815671.5974         17.9004 
        17.9004 
 15 12 31  0 50 30.0000000  0 10G02G07G05G09G17G06G19G13G30G23
 111407981.84746  21200233.467    86811419.92946  21200226.7514         36.5004 
        36.9004 
 128499402.18443  24452623.546   100129403.30743  24452618.2524         21.6004 
        21.8004 
 116472500.31443  22163980.354    90757791.08243  22163977.0584         21.2004 
        21.5004 
 114786894.00146  21843220.067    89444329.03346  21843218.8384         36.0004 
        36.2004 
 123855924.73144  23569005.651    96511099.50444  23569003.5474         27.4004 
        27.6004 
 108814414.97346  20706694.472    84790444.49046  20706694.3324         39.7004 
        39.9004 
 132646364.68843  25241772.137   103360778.73243  25241770.4264         18.5004 
        18.7004 
 131750428.93641  25071270.293   102662672.85641  25071270.6434         10.2004 
        10.0004 
 132096758.75341  25137175.609   102932543.94142  25137179.3144         11.0004 
        14.9004 
 130510001.99942  24835238.573   101696099.54542  24835232.7324         17.6004 
        17.7004 
 15 12 31  0 51  0.0000000  0 10G02G07G05G09G17G06G19G13G30G23
 111362728.09046  21191621.585    86776157.24346  21191615.6254         36.6004 
        37.5004 
 128447331.75143  24442711.658   100088829.02443  24442709.4134         21.6004 
        21.8004 
 116426754.90543  22155275.487    90722145.29343  22155273.9024         22.4004 
        21.5004 
 114857410.09546  21856639.054    89499276.60346  21856637.3784         36.4004 
        36.6004 
 123975448.96644  23591751.432    96604235.15844  23591749.4384         27.4004 
        27.6004 
 108843135.03946  20712160.353    84812823.73746  20712159.9994         40.1004 
        40.5004 
 132768417.01643  25264999.232   103455884.25843  25264995.2394         20.3004 
        20.5004 
 131646876.03141  25051565.169   102581982.44741  25051563.2374          9.3004 
         9.7004 
 132030003.30141  25124472.167   102880526.97941  25124471.9134         11.0004 
        10.8004 
 130612972.56442  24854834.732   101776336.28542  24854829.0194         17.6004 
        17.7004 
 15 12 31  0 51 30.0000000  0 10G02G07G05G09G17G06G19G13G30G23
 111317657.85146  21183044.972    86741037.55646  21183039.2904         37.2004 
        37.3004 
 128395434.02543  24432838.256   100048389.29243  24432833.7114         22.5004 
        22.5004 
 116381241.90343  22146614.445    90686680.60243  22146611.6614         22.4004 
        22.6004 
 114928379.92646  21870143.352    89554577.71646  21870142.3354         36.3004 
        36.4004 
 124095121.77744  23614524.600    96697486.57544  23614520.8694         26.6004 
        26.7004 
 108872193.52546  20717689.718    84835466.67946  20717689.9704         40.9004 
        41.2004 
 132890464.06043  25288223.524   103550985.65743  25288220.3944         20.3004 
        20.5004 
 131543324.68641  25031859.702   102501293.25341  25031857.2544         11.8004 
         9.7004 
 131963163.30541  25111752.923   102828444.14341  25111752.5784          9.0004 
        10.8004 
 130716120.06043  24874464.558   101856710.88343  24874457.3604         18.8004 
        19.1004 
 15 12 31  0 52  0.0000000  0 10G02G07G05G09G17G06G19G13G30G23
 111272771.84946  21174503.901    86706061.43646  21174497.7034         36.9004 
        36.7004 
 128343710.83143  24422992.006   100008085.53643  24422992.1814         22.9004 
        23.0004 
 116335960.42543  22137998.023    90651396.31243  22137992.7924         22.9004 
        23.1004 
 114999800.38346  21883734.492    89610229.96646  21883733.4954         36.0004 
        36.3004 
 124214939.72844  23637324.269    96790851.06844  23637322.0694         25.0004 
        25.0004 
 108901590.26146  20723283.865    84858373.19346  20723283.6444         40.2004 
        40.4004 
 133012502.93843  25311445.997   103646080.67943  25311444.4174         18.2004 
        18.1004 
 131439776.21441  25012155.373   102420606.30942  25012152.8104         11.8004 
        12.1004 
 131896240.44941  25099018.816   102776296.69741  25099019.2354          9.0004 
         8.8004 
 130819441.22543  24894126.637   101937220.79543  24894119.4834         19.7004 
        19.1004 
 15 12 31  0 52 30.0000000  0 10G02G07G05G09G17G06G19G13G30G23
 111228072.98246  21165998.130    86671231.12846  21165991.8154         36.6004 
        37.3004 
 128292166.04343  24413182.908    99967920.80644  24413183.6944         22.9004 
        24.0004 
 116290911.01843  22129426.090    90616292.88843  22129419.4834         23.3004 
        23.5004 
 115071670.04646  21897411.300    89666232.25946  21897410.2894         36.7004 
        36.9004 
 124334900.64844  23660153.353    96884326.98544  23660149.4534         25.0004 
        25.0004 
 108931326.86446  20728942.310    84881544.52246  20728941.9784         39.6004 
        40.2004 
 133134531.98043  25334667.202   103741168.02143  25334664.6784         18.2004 
        18.1004 
 131336233.70942  24992451.785   102339924.00342  24992448.2814         13.0004 
        12.1004 
 131829238.21841  25086268.682   102724087.36941  25086270.1344         11.4004 
         8.8004 
 130922934.44043  24913819.919   102017864.79843  24913814.5104         19.7004 
        19.9004 
 15 12 31  0 53  0.0000000  0 10G02G07G05G09G17G06G19G13G30G23
 111183559.58546  21157527.664    86636545.35346  21157521.5254         36.3004 
        36.7004 
 128240798.76643  24403408.460    99927894.39344  24403408.2584         23.9004 
        24.0004 
 116246090.06743  22120896.614    90581367.45443  22120891.1834         23.9004 
        23.5004 
 115143983.21046  21911171.598    89722580.13946  21911170.7944         36.2004 
        36.4004 
 124454998.33144  23683007.438    96977909.47044  23683002.1914         25.2004 
        25.5004 
 108961400.56546  20734664.828    84904978.52846  20734664.5884         39.7004 
        40.0004 
 133256545.39542  25357886.567   103836243.22842  25357884.0344         15.7004 
        15.6004 
 131232696.03642  24972750.234   102259245.44742  24972745.1544         13.0004 
        13.4004 
 131762155.96041  25073503.172   102671815.66742  25073504.6404         11.4004 
        12.3004 
 131026594.02343  24933542.909   102098638.40443  24933540.1424         18.4004 
        18.1004 
 15 12 31  0 53 30.0000000  0 10G02G07G05G09G17G06G19G13G30G23
 111139235.38046  21149093.003    86602006.98946  21149086.6714         36.9004 
        37.5004 
 128189613.52543  24393667.388    99888009.82743  24393667.3234         23.7004 
        23.8004 
 116201499.25344  22112410.021    90546621.36744  22112405.5764         25.2004 
        24.5004 
 115216739.42746  21925017.087    89779273.25346  21925015.8334         36.6004 
        36.9004 
 124575232.03844  23705885.703    97071597.97844  23705883.3494         26.6004 
        26.8004 
 108991813.99046  20740453.144    84928677.25046  20740452.3254         39.5004 
        40.0004 
 133378543.19942  25381102.227   103931306.27642  25381097.7534         14.7004 
        15.6004 
 131129167.56742  24953049.151   102178574.07342  24953044.1524         14.3004 
        13.4004 
 131694998.13942  25060722.769   102619485.03842  25060723.6464         13.3004 
        12.3004 
 131130419.40143  24953299.868   102179541.20143  24953297.2254         18.4004 
        18.1004 
 15 12 31  0 54  0.0000000  0 10G02G07G05G09G17G06G19G13G30G23
 111095098.82645  21140693.899    86567614.85745  21140687.7354         33.8004 
        34.4004 
 128138610.09843  24383962.399    99848266.95443  24383961.9854         22.6004 
        22.7004 
 116157135.18544  22103966.722    90512051.94644  22103963.4524         25.2004 
        25.6004 
 115289933.10245  21938944.811    89836307.24345  21938944.6124         35.2004 
        35.6004 
 124695595.53144  23728789.231    97165387.57244  23728788.1504         26.3004 
        26.5004 
 109022564.49246  20746304.905    84952638.63446  20746304.4654         40.2004 
        40.5004 
 133500519.55842  25404314.801   104026352.61042  25404311.3474         14.7004 
        15.0004 
 131025647.14342  24933350.388   102097908.97242  24933345.9944         14.3004 
        14.2004 
 131627764.06642  25047927.285   102567094.93242  25047929.3064         13.3004 
        13.3004 
 131234405.10542  24973087.909   102260568.95442  24973084.4234         16.8004 
        16.7004 
 15 12 31  0 54 30.0000000  0 10G02G07G05G09G17G06G19G13G30G23
 111051152.99546  21132330.993    86533371.33146  21132325.2244         36.4004 
        37.0004 
 128087792.94143  24374292.136    99808669.22743  24374291.5974         22.6004 
        22.7004 
 116112999.17744  22095567.063    90477660.20944  22095565.3264         25.2004 
        24.7004 
 115363563.47846  21952957.049    89893681.51946  21952956.1464         36.3004 
        36.5004 
 124816087.59044  23751719.422    97259277.30444  23751716.5254         25.8004 
        25.9004 
 109053654.38746  20752221.334    84976864.48646  20752220.4784         39.4004 
        40.3004 
 133622473.73542  25427520.637   104121381.60942  25427518.7284         15.6004 
        15.0004 
 130922138.72542  24913653.234   102017253.21942  24913650.3834         12.8004 
        14.2004 
 131560458.12042  25035119.413   102514648.79442  25035122.2814         12.6004 
        13.3004 
 131338550.22342  24992906.388   102341720.90142  24992903.9624         16.8004 
        16.7004 
 15 12 31  0 55  0.0000000  0 10G02G07G05G09G17G06G19G13G30G23
 111007401.48446  21124005.652    86499279.22246  21123999.7254         36.8004 
        37.5004 
 128037166.33243  24364659.031    99769219.95443  24364655.8534         20.5004 
        20.6004 
 116069093.08544  22087212.815    90443447.66944  22087211.1344         25.0004 
        26.0004 
 115437629.85546  21967050.579    89951395.53846  21967050.0304         36.2004 
        36.6004 
 124936707.30444  23774673.748    97353266.53744  23774670.1384         25.2004 
        25.3004 
 109085085.94246  20758201.543    85001356.57046  20758201.6754         39.5004 
        40.0004 
 133744405.15142  25450723.793   104216392.82842  25450722.8104         15.6004 
        16.0004 
 130818646.25542  24893958.539   101936609.87942  24893955.7704         12.8004 
        13.1004 
 131493084.52842  25022299.601   102462149.95542  25022301.8884         12.6004 
        13.4004 
 131442853.90142  25012754.502   102422996.40642  25012754.0674         16.7004 
        17.2004 
 15 12 31  0 55 30.0000000  0 10G02G07G05G09G17G06G19G13G30G23
 109388422.62746  20815924.642    85237737.23846  20815918.2174         36.9004 
        37.3004 
 126411309.35843  24055267.534    98502318.48943  24055266.4244         20.5004 
        20.6004 
 114449993.29244  21779109.676    89181811.44244  21779107.3704         27.8004 
        27.5004 
 113936710.44745  21681435.455    88781847.91146  21681434.4204         35.9004 
        36.2004 
 123482034.10044  23497857.022    96219754.78444  23497854.9314         25.1004 
        24.9004 
 107541438.95146  20464455.444    83798514.72046  20464455.6854         39.4004 
        40.0004 
 132290893.56742  25174130.124   103083786.09542  25174129.2454         16.7004 
        16.0004 
 129139746.77242  24574473.850   100628376.63442  24574472.1284         15.1004 
        13.1004 
 129850221.87242  24709674.939   101181997.26842  24709674.9824         16.8004 
        13.4004 
 129971895.50542  24732839.543   101276794.94242  24732839.2254         16.7004 
        17.2004 
 15 12 31  0 56  0.0000000  0 10G02G07G05G09G17G06G19G13G30G23
 109345061.90045  20807673.261    85203949.63746  20807667.0114         35.9004 
        36.5004 
 126361068.64843  24045709.277    98463169.93043  24045705.7914         20.1004 
        20.2004 
 114406542.70744  21770840.767    89147953.82944  21770839.4524         28.6004 
        28.7004 
 114011638.42845  21695693.409    88840233.30545  21695693.3904         34.6004 
        34.6004 
 123602897.42944  23520856.063    96313933.84144  23520855.5034         24.0004 
        24.0004 
 107573552.44946  20470566.798    83823538.18846  20470566.6794         37.2004 
        37.7004 
 132412769.36142  25197320.893   103178753.92242  25197322.9004         16.7004 
        16.0004 
 129036290.22542  24554786.078   100547761.23842  24554785.2574         15.1004 
        15.7004 
 129782717.74842  24696829.157   101129396.64942  24696829.3464         16.8004 
        16.8004 
 130076506.31742  24752744.493   101358309.75742  24752744.2344         17.2004 
        16.9004 
 15 12 31  0 56 30.0000000  0 10G02G07G05G09G17G06G19G13G30G23
 109301903.41445  20799459.987    85170319.61746  20799453.9884         35.7004 
        36.2004 
 126311029.58443  24036184.832    98424178.50043  24036184.8764         20.5004 
        20.7004 
 114363323.58844  21762617.663    89114276.59744  21762614.7244         28.4004 
        28.6004 
 114086998.04545  21710034.606    88898955.04145  21710033.6724         34.3004 
        34.0004 
 123723882.37443  23543879.077    96408207.63644  23543878.5664         23.9004 
        24.0004 
 107606012.26646  20476744.158    83848831.50746  20476743.6124         38.6004 
        40.4004 
 132534618.33842  25220509.744   103273700.85542  25220511.1094         12.9004 
        16.0004 
 128932859.56242  24535103.955   100467165.98942  24535102.7404         16.3004 
        15.7004 
 129715156.77942  24683971.421   101076751.72042  24683973.4924         16.3004 
        16.2004 
 130181271.52742  24772682.395   101439944.87542  24772681.2634         17.2004 
        16.9004 
 15 12 31  0 57  0.0000000  0 10G02G07G05G09G17G06G19G13G30G23
 109258944.63746  20791285.103    85136845.21446  20791279.2924         37.4004 
        37.4004 
 126261190.42143  24026701.181    98385342.83043  24026699.0364         20.5004 
        20.7004 
 114320331.31544  21754436.931    89080776.09744  21754432.4404         29.2004 
        29.6004 
 114162782.36445  21724455.688    88958007.71545  21724455.1034         34.5004 
        35.7004 
 123844981.58743  23566926.102    96502570.47244  23566923.0804         23.9004 
        24.3004 
 107638814.55846  20482985.881    83874391.68546  20482985.6844         39.5004 
        39.8004 
 132656433.45142  25243690.937   103368621.36142  25243693.1284         12.9004 
        12.8004 
 128829452.45842  24515425.627   100386589.13842  24515425.0044         16.3004 
        16.2004 
 129647537.32842  24671104.479   101024061.20642  24671106.2384         16.3004 
        16.2004 
 130286183.96742  24792646.556   101521694.74842  24792643.9664         15.5004 
        15.2004 
 15 12 31  0 57 30.0000000  0 10G02G07G05G09G17G06G19G13G30G23
 109216186.09946  20783148.816    85103526.85146  20783142.5334         38.1004 
        38.5004 
 126211552.48343  24017255.266    98346663.94543  24017253.8734         20.9004 
        20.8004 
 114277564.90644  21746298.343    89047451.63444  21746293.9094         29.8004 
        29.7004 
 114238987.79445  21738957.512    89017388.53246  21738957.0804         35.6004 
        36.0004 
 123966191.38944  23589992.198    96597019.49544  23589989.7094         25.2004 
        25.8004 
 107671958.69746  20489292.912    83900218.25046  20489292.7914         39.2004 
        39.7004 
 132778211.49842  25266865.138   103463512.97542  25266865.8254         14.2004 
        12.8004 
 128726070.15142  24495753.119   100306031.59542  24495750.4024         16.1004 
        16.2004 
 129579860.71242  24658226.517   100971326.17142  24658226.4564         15.7004 
        15.6004 
 130391240.27842  24812639.127   101603556.77542  24812635.4404         14.8004 
        15.2004 
 15 12 31  0 58  0.0000000  0 10G02G07G05G09G17G06G19G13G30G23
 109173631.50446  20775050.946    85070367.40346  20775044.9564         38.2004 
        38.6004 
 126162120.34343  24007848.830    98308145.43343  24007846.8604         20.3004 
        20.8004 
 114235025.42644  21738202.688    89014304.00244  21738197.8224         29.5004 
        29.6004 
 114315613.61745  21753538.505    89077096.91545  21753538.0594         34.8004 
        34.8004 
 124087510.49744  23613076.675    96691553.67744  23613075.6484         26.0004 
        26.0004 
 107705446.95046  20495665.611    83926312.96046  20495665.3634         39.3004 
        39.9004 
 132899951.86542  25290031.421   103558375.21542  25290032.0684         14.2004 
        14.9004 
 128622716.60842  24476085.993   100225496.48542  24476083.3044         16.1004 
        16.3004 
 129512131.44642  24645336.288   100918550.05742  24645339.3614         15.7004 
        15.6004 
 130496440.12242  24832656.705   101685530.62442  24832655.0064         14.8004 
        14.8004 
 15 12 31  0 58 30.0000000  0 10G02G07G05G09G17G06G19G13G30G23
 109131284.05046  20766992.292    85037369.36746  20766986.5514         38.0004 
        37.8004 
 126112898.10643  23998482.239    98269790.46443  23998481.0384         20.3004 
        20.6004 
 114192714.14544  21730151.377    88981334.15645  21730146.3024         29.7004 
        30.0004 
 114392658.90545  21768199.910    89137132.15345  21768199.0764         34.6004 
        35.2004 
 124208937.57144  23636182.071    96786171.97543  23636182.5214         24.3004 
        23.6004 
 107739281.50946  20502104.590    83952677.52346  20502104.1534         38.2004 
        39.0004 
 133021653.33442  25313190.965   103653207.09842  25313190.9974         15.7004 
        14.9004 
 128519395.98242  24456424.969   100144986.99442  24456421.9734         15.9004 
        16.3004 
 129444353.79942  24632437.670   100865736.26442  24632442.9344         15.3004 
        15.9004 
 130601782.38042  24852703.190   101767615.46642  24852700.4224         14.6004 
        14.8004 
 15 12 31  0 59  0.0000000  0 10G02G07G05G09G17G06G19G13G30G23
 109089139.20646  20758972.454    85004529.20346  20758966.4374         37.8004 
        38.1004 
 126063882.45943  23989154.607    98231596.48943  23989152.6614         22.0004 
        22.1004 
 114150624.97845  21722141.520    88948537.39945  21722136.0954         30.3004 
        30.3004 
 114470115.04245  21782939.764    89197487.53045  21782938.2764         35.2004 
        35.5004 
 124330463.47443  23659309.640    96880867.25743  23659307.8524         22.8004 
        23.6004 
 107773456.71646  20508607.806    83979307.51246  20508607.2774         38.8004 
        39.2004 
 133143307.81342  25336341.699   103748002.36542  25336339.7714         15.7004 
        16.2004 
 128416104.09642  24436768.407   100064499.91242  24436765.6504         15.9004 
        15.5004 
 129376524.27342  24619531.182   100812882.10742  24619532.2154         15.3004 
        15.9004 
 130707258.51442  24872775.629   101849804.61942  24872771.1064         14.6004 
        14.4004 
 15 12 31  0 59 30.0000000  0 10G02G07G05G09G17G06G19G13G30G23
 109047204.56746  20750992.502    84971852.82846  20750986.4394         38.0004 
        38.4004 
 126015081.69643  23979869.178    98193569.97043  23979866.0554         21.5004 
        22.1004 
 114108763.12945  21714174.977    88915917.77645  21714171.2424         30.8004 
        30.8004 
 114547985.20645  21797757.962    89258165.52945  21797757.1744         35.5004 
        35.8004 
 124452091.75443  23682454.775    96975642.31043  23682452.0324         22.8004 
        23.1004 
 107807978.79146  20515177.062    84006207.79646  20515176.6604         39.3004 
        39.9004 
 133264918.73442  25359484.237   103842763.70942  25359484.9174         15.3004 
        16.2004 
 128312848.93942  24417120.273    99984041.45542  24417116.6944         14.5004 
        15.5004 
 129308651.24842  24606616.964   100759994.07842  24606616.3864         17.1004 
        17.1004 
 130812872.25042  24892873.009   101932100.99842  24892867.9824         14.2004 
        14.4004 
 15 12 31  1  0  0.0000000  0 10G02G07G05G09G17G06G19G13G30G23
 109005477.60046  20743052.349    84939338.27946  20743046.0384         38.4004 
        38.8004 
 125966494.29443  23970621.285    98155709.69543  23970620.6674         21.5004 
        21.5004 
 114067124.05345  21706252.503    88883471.73545  21706248.6264         31.5004 
        32.0004 
 114626262.58645  21812653.649    89319160.83145  21812652.4884         35.5004 
        35.8004 
 124573814.32343  23705618.059    97070490.85143  23705616.7724         23.2004 
        23.3004 
 107842843.98546  20521811.579    84033375.44946  20521811.1534         39.2004 
        40.1004 
 133386479.67542  25382616.350   103937486.11342  25382620.1454         15.3004 
        14.1004 
 128209628.67942  24397478.514    99903610.22442  24397474.0034         14.5004 
        14.4004 
 129240733.16142  24593691.979   100707070.95842  24593693.0394         17.0004 
        17.1004 
 130918616.48442  24912994.629   102014499.07642  24912989.1024         14.2004 
        14.1004 
 15 12 31  1  0 30.0000000  0 10G02G07G05G09G17G06G19G13G30G23
 108963960.57346  20735152.046    84906987.31846  20735145.9174         37.6004 
        38.1004 
 125918123.54843  23961418.425    98118018.23843  23961416.5704         20.5004 
        20.4004 
 114025708.21745  21698371.920    88851199.64745  21698368.0354         32.5004 
        32.7004 
 114704945.29245  21827626.962    89380471.95645  21827625.7564         35.4004 
        35.5004 
 124695629.46043  23728799.013    97165411.49344  23728797.8694         23.9004 
        24.8004 
 107878053.37946  20528511.924    84060811.31346  20528511.4674         38.8004 
        39.0004 
 133507989.53241  25405740.239   104032168.72642  25405751.1254          9.6004 
        14.1004 
 128106446.12242  24377842.792    99823208.37542  24377839.6594         15.4004 
        16.4004 
 129172773.27942  24580759.715   100654115.31842  24580759.9144         17.0004 
        17.2004 
 131024489.34042  24933142.074   102096997.39242  24933136.7414         13.8004 
        14.1004 
 15 12 31  1  1  0.0000000  0 10G02G07G05G09G17G06G19G13G30G23
 108922657.28746  20727292.284    84874802.91546  20727286.2344         38.0004 
        38.4004 
 125869974.26743  23952255.573    98080499.33843  23952253.8354         20.5004 
        20.4004 
 113984516.92845  21690533.778    88819102.52045  21690530.2674         33.4004 
        33.6004 
 114784032.72045  21842676.580    89442098.44345  21842676.0324         35.6004 
        35.8004 
 124817535.67444  23751997.765    97260403.13144  23751996.6924         25.4004 
        24.8004 
 107913609.41946  20535278.198    84088517.27746  20535277.5344         39.1004 
        39.7004 
 133629446.257 6  25428852.161                                          37.900  
                
 128003305.42742  24358214.603    99742839.12342  24358213.2724         15.4004 
        16.4004 
 129104776.09442  24567820.131   100601130.65242  24567821.4544         16.2004 
        17.2004 
 131130490.46642  24953313.150   102179595.64442  24953308.1904         13.8004 
        13.6004 
 15 12 31  1  1 30.0000000  0 10G02G07G05G09G17G06G19G13G30G23
 108881568.31346  20719473.778    84842785.50346  20719467.1914         37.9004 
        38.6004 
 125822047.23843  23943134.538    98043153.62143  23943133.1904         19.9004 
        20.2004 
 113943548.66645  21682736.925    88787179.18445  21682734.5394         33.9004 
        34.1004 
 114863521.04845  21857802.218    89504037.30645  21857802.3474         35.3004 
        35.5004 
 124939529.59744  23775211.832    97355463.12944  23775211.5454         25.1004 
        25.7004 
 107949511.30946  20542109.547    84116492.72546  20542109.6644         39.5004 
        39.8004 
 133750847.333 6  25451953.355                                          37.100  
                
 127900207.66342  24338595.125    99662503.32742  24338594.4564         17.0004 
        16.5004 
 129036743.12742  24554873.259   100548118.09242  24554874.5034         16.2004 
        15.9004 
 131236616.12942  24973508.546   102262290.92542  24973502.5514         12.9004 
        13.6004 
 15 12 31  1  2  0.0000000  0 10G02G07G05G09G17G06G19G13G30G23
 108840692.08746  20711694.799    84810933.87446  20711688.4874         38.3004 
        38.6004 
 125774342.50043  23934058.783    98005981.11443  23934055.4884         21.0004 
        20.2004 
 113902800.25545  21674982.480    88755427.15045  21674979.7254         34.3004 
        34.6004 
 114943404.79245  21873003.062    89566284.30245  21873002.8624         35.0004 
        35.0004 
 125061605.08944  23798443.355    97450586.66244  23798442.1524         25.1004 
        24.7004 
 107985756.56446  20549006.620    84144735.74746  20549006.9954         38.8004 
        39.3004 
 133872187.530 6  25475042.766                                          36.600  
                
 127797152.13442  24318985.272    99582200.44042  24318983.8334         15.9004 
        16.5004 
 128968674.03642  24541918.305   100495077.40842  24541921.0994         15.0004 
        15.9004 
 131342861.13442  24993726.407   102345079.21842  24993721.1384         12.9004 
        12.8004 
 15 12 31  1  2 30.0000000  0 10G02G07G05G09G17G06G19G13G30G23
 108800033.85946  20703957.644    84779252.10446  20703951.4254         37.8004 
        38.3004 
 125726865.64443  23925023.130    97968986.19143  23925021.1494         21.0004 
        21.4004 
 113862274.22845  21667269.670    88723848.38245  21667267.0104         33.9004 
        34.1004 
 115023684.47345  21888279.916    89628839.81445  21888279.8144         34.9004 
        34.8004 
 125183761.99644  23821687.632    97545773.67744  23821687.0774         24.4004 
        24.6004 
 108022348.74645  20555970.003    84173249.11345  20555970.1104         35.4004 
        34.8004 
 133993467.023 6  25498122.437                                          36.500  
                
 127694144.20442  24299383.286    99501934.63642  24299382.2644         15.9004 
        16.7004 
 128900574.62742  24528959.181   100442013.07942  24528962.6424         15.0004 
        14.7004 
 131449226.12342  25013965.872   102427961.00642  25013961.0814         12.0004 
        12.8004 
 15 12 31  1  3  0.0000000  0 10G02G07G05G09G17G06G19G13G30G23
 108759591.12746  20696262.252    84747738.25446  20696255.3654         37.7004 
        38.5004 
 125679615.44843  23916031.874    97932167.86843  23916028.9914         22.2004 
        22.4004 
 113821966.71245  21659599.782    88692439.90045  21659596.0324         34.1004 
        34.3004 
 115104353.60845  21903631.739    89691698.79245  21903630.6624         34.8004 
        34.9004 
 125305993.78544  23844947.904    97641019.00843  23844946.9334         24.2004 
        23.7004 
 108059284.37646  20562999.272    84202030.09046  20562998.8094         38.0004 
        38.6004 
 134114680.3494   25521190.313   104505006.7574   25521187.6314          1.0004 
         5.4004 
 127591182.37042  24279789.483    99421704.75142  24279789.0084         17.4004 
        16.7004 
 128832443.60342  24515995.526   100388924.08942  24515997.3304         15.6004 
        14.7004 
 131555704.61242  25034227.979   102510931.20541  25034222.8724         12.0004 
        11.3004 
 15 12 31  1  3 30.0000000  0 10G02G07G05G09G17G06G19G13G30G23
 108719367.81246  20688607.684    84716395.38046  20688601.3234         37.1004 
        37.9004 
 125632596.28443  23907084.698    97895529.55943  23907081.2734         22.0004 
        22.4004 
 113781879.08045  21651972.606    88661202.76845  21651967.8094         32.5004 
        34.6004 
 115185411.29545  21919056.179    89754860.53445  21919055.8934         32.6004 
        34.6004 
 125428299.34143  23868222.791    97736321.81843  23868222.2124         22.3004 
        23.7004 
 108096565.63646  20570094.064    84231080.38646  20570092.7814         37.1004 
        37.7004 
 134235826.47242  25544244.057   104599405.84342  25544243.3354         13.2004 
        15.4004 
 127488270.43542  24260203.898    99341513.79142  24260205.3904         17.4004 
        16.5004 
 128764285.39442  24503026.044   100335813.93442  24503027.1744         15.6004 
        16.2004 
 131662296.18041  25054511.259   102593989.53141  25054507.6654         10.0004 
        11.3004 
 15 12 31  1  4  0.0000000  0 10G02G07G05G09G17G06G19G13G30G23
 108679368.73546  20680996.046    84685227.23846  20680989.8724         37.9004 
        38.1004 
 125585814.14243  23898182.504    97859075.96343  23898178.8134         22.0004 
        21.8004 
 113742013.89445  21644386.523    88630138.97145  21644381.6154         35.5004 
        35.9004 
 115266858.28045  21934556.084    89818325.62945  21934554.8454         35.2004 
        35.5004 
 125550678.98743  23891511.693    97831682.33943  23891508.5854         22.3004 
        22.2004 
 108134196.19146  20577254.438    84260402.85246  20577253.3504         37.7004 
        38.4004 
 134356906.53242  25567284.599   104693753.42242  25567286.1534         14.7004 
        16.4004 
 127385414.08942  24240633.796    99261366.14142  24240632.0794         15.2004 
        16.5004 
 128696106.11542  24490053.276   100282687.34142  24490053.0904         17.2004 
        16.2004 
 131769001.86741  25074817.323   102677136.77041  25074812.1514         10.0004 
         9.6004 
 15 12 31  1  4 30.0000000  0  9G02G07G05G09G17G06G13G30G23
 108639594.36046  20673427.007    84654234.19046  20673421.3214         37.8004 
        38.7004 
 125539270.10743  23889324.446    97822807.87543  23889320.7084         21.9004 
        22.5004 
 113702369.85645  21636842.760    88599247.48246  21636838.3384         35.9004 
        36.4004 
 115348690.76545  21950127.768    89882091.10245  21950126.4514         34.7004 
        34.9004 
 125673128.75643  23914812.767    97927097.54444  23914810.7934         23.3004 
        24.0004 
 108172175.24846  20584480.892    84289996.89446  20584480.7944         38.2004 
        38.9004 
 127282614.48842  24221071.210    99181262.66442  24221068.4324         15.2004 
        16.0004 
 128627907.11042  24477074.088   100229545.33043  24477075.3734         17.2004 
        18.6004 
 131875817.81941  25095143.365   102760369.92541  25095140.3544          9.7004 
         9.6004 
 15 12 31  1  5  0.0000000  0  9G02G07G05G09G17G06G13G30G23
 108600050.85346  20665902.337    84623421.04346  20665896.2124         38.0004 
        38.2004 
 125492971.13043  23880514.297    97786730.72743  23880510.2914         21.8004 
        22.5004 
 113662950.59645  21629340.996    88568531.14846  21629337.9674         35.1004 
        36.2004 
 115430910.29845  21965774.157    89946158.18845  21965772.9874         33.9004 
        34.2004 
 125795649.93544  23938127.263    98022568.38844  23938125.8644         24.0004 
        24.0004 
 108210507.45746  20591775.853    84319866.10446  20591775.3994         38.2004 
        38.8004 
 127179878.07342  24201519.910    99101208.44142  24201518.1084         16.0004 
        16.0004 
 128559695.41643  24464092.569   100176393.39943  24464095.1914         20.0004 
        20.3004 
 131982745.97541  25115491.830   102843690.50341  25115488.4964          9.7004 
        10.4004 
 15 12 31  1  5 30.0000000  0  9G02G07G05G09G17G06G13G30G23
 108560735.79146  20658420.757    84592785.90045  20658415.0194         37.5004 
        35.9004 
 125446915.51143  23871750.215    97750843.22143  23871748.6594         22.0004 
        21.7004 
 113623751.71546  21621880.565    88537986.52646  21621879.2634         36.3004 
        36.8004 
 115513509.94945  21981491.710    90010521.47445  21981490.8264         34.0004 
        33.8004 
 125918235.07743  23961453.398    98118089.05044  23961453.5634         23.0004 
        24.1004 
 108249188.85246  20599137.097    84350007.41346  20599136.9124         37.6004 
        38.2004 
 127077202.54442  24181982.485    99021201.68342  24181979.9424         16.0004 
        15.5004 
 128491469.35243  24451110.752   100123230.26843  24451113.2544         20.3004 
        20.3004 
 132089779.93841  25135860.512   102927093.52841  25135856.0874         10.8004 
        10.4004 
 15 12 31  1  6  0.0000000  0  9G02G07G05G09G17G06G13G30G23
 108521648.74545  20650983.264    84562328.42145  20650976.7354         35.5004 
        35.1004 
 125401104.10543  23863033.686    97715145.99343  23863031.4244         22.0004 
        22.6004 
 113584771.23645  21614462.617    88507612.08445  21614461.4304         35.3004 
        35.5004 
 115596485.35445  21997282.033    90075177.57445  21997280.4024         34.6004 
        34.3004 
 126040880.04143  23984791.087    98213656.38143  23984792.6364         23.0004 
        20.4004 
 108288218.07946  20606563.886    84380419.75846  20606563.8104         36.5004 
        38.1004 
 126974588.85342  24162455.402    98941243.12442  24162454.1934         15.1004 
        15.5004 
 128423229.92543  24438123.808   100070056.71143  24438128.6514         20.3004 
        20.2004 
 132196915.10941  25156248.279   103010575.43641  25156243.9084         10.8004 
        11.8004 
 15 12 31  1  6 30.0000000  0  9G02G07G05G09G17G06G13G30G23
 108482795.77246  20643589.329    84532053.34946  20643583.4074         37.7004 
        38.4004 
 125355543.49743  23854364.112    97679644.19744  23854360.4154         23.4004 
        24.0004 
 113546012.54145  21607087.675    88477410.47145  21607085.1574         31.8004 
        32.5004 
 115679837.98345  22013142.485    90140127.61345  22013142.6674         31.9004 
        32.3004 
 126163585.42743  24008142.049    98309270.77843  24008142.4434         19.1004 
        20.4004 
 108327599.62146  20614057.589    84411106.63546  20614057.6794         38.2004 
        38.7004 
 126872042.96642  24142942.599    98861337.36042  24142939.0764         15.1004 
        16.7004 
 128354984.01543  24425137.987   100016878.07743  24425140.7894         19.1004 
        20.2004 
 132304153.34842  25176654.930   103094137.66641  25176651.1924         12.1004 
        11.8004 
 15 12 31  1  7  0.0000000  0  9G02G07G05G09G17G06G13G30G23
 108444176.07645  20636240.705    84501960.04645  20636234.4754         34.2004 
        35.1004 
 125310233.10544  23845742.288    97644337.36844  23845737.4674         24.1004 
        24.0004 
 113507472.21345  21599754.586    88447379.02845  21599750.5344         35.4004 
        35.8004 
 115763562.32645  22029075.695    90205367.29345  22029075.2514         32.1004 
        32.7004 
 126286345.49643  24031503.640    98404927.78743  24031504.5444         19.1004 
        18.8004 
 108367330.95245  20621618.229    84442066.08245  20621618.4554         34.3004 
        35.4004 
 126769564.29042  24123440.740    98781483.99242  24123437.4564         17.8004 
        16.7004 
 128286731.50943  24412150.496    99963694.29242  24412151.1354         19.1004 
        17.7004 
 132411489.62442  25197081.720   103177776.31142  25197076.8444         12.1004 
        12.4004 
 15 12 31  1  7 30.0000000  0  9G02G07G05G09G17G06G13G30G23
 108405791.09046  20628935.986    84472049.65446  20628930.2454         36.9004 
        37.5004 
 125265175.78144  23837166.734    97609227.74044  23837163.3174         24.3004 
        24.5004 
 113469150.23446  21592462.470    88417517.72346  21592457.8434         37.8004 
        37.9004 
 115847655.65245  22045078.237    90270894.52045  22045076.2874         33.8004 
        34.3004 
 126409157.76443  24054875.563    98500625.48643  24054874.5044         18.6004 
        18.8004 
 108407412.35946  20629245.523    84473298.32146  20629244.9714         37.8004 
        38.1004 
 126667155.36342  24103952.417    98701684.98442  24103950.2604         17.8004 
        17.5004 
 128218474.96842  24399162.607    99910507.39142  24399164.4734         16.8004 
        17.7004 
 132518921.35942  25217525.022   103261489.34942  25217520.1894         12.5004 
        12.4004 
 15 12 31  1  8  0.0000000  0  9G02G07G05G09G17G06G13G30G23
 108367647.58746  20621677.488    84442327.42646  20621671.8614         37.4004 
        37.9004 
 125220379.40944  23828642.860    97574321.44544  23828638.8754         24.6004 
        24.7004 
 113431051.21146  21585212.651    88387830.14546  21585208.0334         37.5004 
        38.5004 
 115932120.39345  22061150.209    90336711.15445  22061150.4454         34.1004 
        34.3004 
 126532024.92743  24078256.810    98596365.95643  24078255.7924         20.9004 
        19.8004 
 108447849.21546  20636941.238    84504807.53346  20636940.2174         38.1004 
        38.1004 
 126564823.41942  24084480.102    98621945.92942  24084476.7774         17.2004 
        17.5004 
 128150222.27943  24386173.744    99857323.52643  24386176.1444         19.8004 
        18.0004 
 132626451.29542  25237987.251   103345278.94842  25237981.7634         12.5004 
        12.1004 
 15 12 31  1  8 30.0000000  0  9G02G07G05G09G17G06G13G30G23
 108329746.62846  20614465.277    84412794.18646  20614459.2334         37.5004 
        38.1004 
 125175845.07044  23820167.997    97539619.32844  23820164.9044         24.6004 
        24.1004 
 113393173.91446  21578003.374    88358315.35546  21578000.4954         37.9004 
        38.3004 
 116016952.87245  22077294.204    90402814.33145  22077293.0304         33.5004 
        33.6004 
 126654941.97143  24101646.020    98692145.24843  24101646.3714         20.9004 
        22.1004 
 108488640.92546  20644703.135    84536593.24546  20644702.8584         38.6004 
        39.2004 
 126462569.74643  24065020.942    98542267.86743  24065018.8224         18.2004 
        18.0004 
 128081975.31943  24373187.060    99804144.11943  24373188.0674         19.8004 
        19.9004 
 132734076.13141  25258467.938   103429142.49142  25258461.4624         11.0004 
        12.1004 
 15 12 31  1  9  0.0000000  0  8G02G07G05G09G17G06G13G30
 108292089.01246  20607299.435    84383450.56346  20607293.1174         37.5004 
        36.9004 
 125131574.52443  23811743.070    97505122.75943  23811739.9604         23.6004 
        23.9004 
 113355516.69246  21570837.500    88328972.04346  21570835.2094         38.1004 
        37.3004 
 116102149.57545  22093506.257    90469201.33645  22093505.9124         32.4004 
        32.5004 
 126777905.41043  24125044.518    98787960.67243  24125045.9974         21.7004 
        22.1004 
 108529786.92846  20652533.068    84568655.02346  20652532.9384         39.0004 
        39.6004 
 126360395.55343  24045578.087    98462651.74143  24045576.1874         18.2004 
        19.9004 
 128013735.87643  24360200.563    99750970.54943  24360201.8594         19.1004 
        19.9004 
 15 12 31  1  9 30.0000000  0  8G02G07G05G09G17G06G13G30
 108254678.08446  20600180.318    84354299.16946  20600174.3914         37.2004 
        37.6004 
 125087571.38643  23803370.244    97470834.56443  23803366.4764         23.9004 
        23.9004 
 113318080.88546  21563713.222    88299801.25046  21563711.4514         37.8004 
        38.3004 
 116187709.15245  22109786.914    90535871.09945  22109787.3204         32.5004 
        33.0004 
 126900913.56143  24148452.782    98883810.96243  24148452.2934         21.7004 
        20.2004 
 108571288.84246  20660429.824    84600994.14546  20660430.4254         38.7004 
        39.4004 
 126258304.54643  24026150.118    98383100.42343  24026148.6544         20.3004 
        19.9004 
 127945508.02343  24347216.541    99697806.05443  24347218.6414         19.1004 
        18.8004 
 15 12 31  1 10  0.0000000  0  8G02G07G05G09G17G06G13G30
 108217513.37146  20593107.750    84325339.62646  20593102.2554         37.3004 
        37.3004 
 125043836.83344  23795047.612    97436755.67744  23795044.4164         24.6004 
        24.6004 
 113280863.81546  21556631.992    88270800.92046  21556629.4424         37.6004 
        37.9004 
 116273627.01345  22126136.237    90602820.04645  22126136.6614         31.8004 
        32.4004 
 127023962.11643  24171870.222    98979692.69843  24171867.4354         19.1004 
        20.2004 
 108613145.04646  20668395.168    84633609.33246  20668395.4684         38.0004 
        38.5004 
 126156297.02143  24006739.062    98303614.12843  24006735.8264         20.3004 
        19.2004 
 127877292.62343  24334238.091    99644651.28443  24334238.9354         19.3004 
        18.8004 
 15 12 31  1 10 30.0000000  0  8G02G07G05G09G17G06G13G30
 108180598.29746  20586082.897    84296574.61846  20586077.5704         36.5004 
        37.5004 
 125000374.73244  23786776.126    97402889.07244  23786774.2824         25.4004 
        25.5004 
 113243866.98246  21549592.031    88241972.19446  21549588.5554         36.8004 
        37.4004 
 116359901.96445  22142553.562    90670047.24645  22142554.0214         31.4004 
        31.4004 
 127147049.57642  24195292.491    99075604.77542  24195291.7894         17.2004 
        17.1004 
 108655357.32746  20676428.227    84666501.99046  20676428.2504         37.9004 
        38.6004 
 126054376.93143  23987345.589    98224195.94943  23987342.4914         18.6004 
        19.2004 
 127809093.92843  24321258.895    99591509.53243  24321261.6894         20.7004 
        20.7004 
 15 12 31  1 11  0.0000000  0  8G02G07G05G09G17G06G13G30
 108143933.89546  20579106.482    84268004.93246  20579100.3444         37.5004 
        38.2004 
 124957186.76344  23778557.832    97369236.07544  23778556.1094         26.0004 
        25.8004 
 113207089.19446  21542593.472    88213314.15046  21542589.7714         37.2004 
        38.4004 
 116446530.59345  22159039.624    90737550.03345  22159039.9984         32.0004 
        32.1004 
 127270172.78042  24218721.250    99171544.68242  24218721.7344         17.2004 
        17.1004 
 108697925.26346  20684529.156    84699671.77746  20684529.0084         39.2004 
        39.3004 
 125952545.59743  23967966.430    98144846.93843  23967965.0654         20.1004 
        19.8004 
 127740913.99343  24308285.861    99538382.40143  24308286.5594         20.7004 
        21.0004 
 15 12 31  1 11 30.0000000  0  8G02G07G05G09G17G06G13G30
 108107521.63545  20572177.632    84239631.73046  20572171.5044         34.4004 
        37.1004 
 124914275.05144  23770393.417    97335798.36144  23770390.8134         26.5004 
        26.7004 
 113170529.37345  21535635.980    88184825.95345  21535632.6334         33.9004 
        35.5004 
 116533509.84045  22175591.170    90805326.01145  22175590.9074         31.9004 
        32.0004 
 127393327.77842  24242155.819    99267509.38143  24242158.7164         17.7004 
        18.1004 
 108740848.78845  20692696.693    84733118.63846  20692696.4594         34.2004 
        38.1004 
 125850805.01843  23948606.000    98065568.63543  23948603.8354         20.1004 
        19.8004 
 127672755.23143  24295315.523    99485271.77243  24295315.1554         21.0004 
        21.0004 
 15 12 31  1 12  0.0000000  0  8G02G07G05G09G17G06G13G30
 108071365.36246  20565297.358    84211457.98846  20565291.0714         38.3004 
        38.5004 
 124871643.59744  23762280.749    97302579.00844  23762277.5144         25.7004 
        26.1004 
 113134188.93646  21528720.631    88156508.71646  21528717.3054         37.8004 
        38.3004 
 116620838.68845  22192209.242    90873374.40545  22192209.7314         32.3004 
        32.2004 
 127516513.46242  24265597.140    99363497.99143  24265597.8844         17.7004 
        18.1004 
 108784129.78446  20700932.989    84766844.04446  20700932.8384         39.6004 
        40.1004 
 125749159.30943  23929263.971    97986364.23543  23929260.4614         18.8004 
        19.3004 
 127604622.13143  24282348.362    99432181.13843  24282350.9024         21.0004 
        19.7004 
 15 12 31  1 12 30.0000000  0  8G02G07G05G09G17G06G13G30
 108035468.59946  20558466.111    84183486.45446  20558460.1704         38.0004 
        38.1004 
 124829297.34744  23754223.631    97269581.90244  23754219.6484         25.2004 
        25.5004 
 113098069.94546  21521847.605    88128364.03246  21521844.5554         37.4004 
        37.3004 
 116708516.79445  22208893.782    90941694.96045  22208894.1034         32.9004 
        32.9004 
 127639729.53842  24289045.721    99459510.32642  24289045.8134         14.8004 
        15.9004 
 108827770.85246  20709237.470    84800850.03246  20709237.3814         38.7004 
        39.1004 
 125647613.09143  23909940.042    97907237.36843  23909937.3474         18.8004 
        20.5004 
 127536519.73743  24269387.763    99379114.43743  24269390.4434         19.1004 
        19.7004 
 15 12 31  1 13  0.0000000  0  8G02G07G05G09G17G06G13G30
 107999832.46046  20551684.621    84155718.00446  20551679.0084         38.2004 
        38.8004 
 124787237.84844  23746218.205    97236808.25044  23746216.0624         24.4004 
        24.7004 
 113062171.01646  21515016.745    88100390.82646  21515013.6924         38.1004 
        38.6004 
 116796540.49645  22225643.620    91010284.81745  22225644.1574         32.7004 
        32.7004 
 127762972.33442  24312498.297    99555543.49342  24312499.6694         14.8004 
        15.9004 
 108871771.28946  20717610.175    84835136.04646  20717610.2934         39.3004 
        39.7004 
 125546167.34943  23890635.544    97828188.76243  23890633.0144         20.7004 
        20.5004 
 127468449.97343  24256435.133    99326073.13343  24256438.0374         20.2004 
        19.7004 
 15 12 31  1 13 30.0000000  0  8G02G07G05G09G17G06G13G30
 107964453.68345  20544952.582    84128150.10346  20544946.9344         35.0004 
        37.3004 
 124745462.45144  23738268.894    97204255.97144  23738267.2454         24.4004 
        25.0004 
 113026486.84346  21508226.118    88072584.96946  21508223.3824         37.1004 
        36.9004 
 116884902.03545  22242458.764    91079137.91745  22242459.4514         31.0004 
        32.4004 
 127886233.72642  24335953.374    99651591.14142  24335955.8594         12.7004 
        13.0004 
 108916126.29346  20726051.387    84869698.35546  20726050.8514         38.2004 
        38.1004 
 125444819.51943  23871349.597    97749216.44543  23871346.7914         20.1004 
        20.5004 
 127400410.51043  24243489.215    99273055.46443  24243490.4544         20.2004 
        21.4004 
 15 12 31  1 14  0.0000000  0  8G02G07G05G09G17G06G13G30
 107929336.09545  20538269.980    84100785.72845  20538264.4174         35.7004 
        35.9004 
 124703975.80644  23730375.438    97171928.69244  23730372.3614         24.9004 
        25.0004 
 112991018.95145  21501476.982    88044947.64146  21501473.7794         35.4004 
        36.8004 
 116973600.76945  22259336.349    91148253.74145  22259337.9654         31.0004 
        31.3004 
 128009512.89342  24359411.142    99747652.62142  24359414.6744         12.7004 
        13.0004 
 108960838.12746  20734559.490    84904538.70746  20734559.4164         36.3004 
        37.0004 
 125343573.88743  23852083.476    97670323.76143  23852081.4394         20.1004 
        20.5004 
 127332406.21443  24230547.531    99220065.22543  24230549.2814         21.6004 
        21.4004 
 15 12 31  1 14 30.0000000  0  8G02G07G05G09G17G06G13G30
 107894482.36946  20531637.745    84073626.95746  20531631.7744         36.7004 
        37.3004 
 124662780.92544  23722535.526    97139828.76444  23722533.4194         27.2004 
        27.3004 
 112955767.72846  21494768.143    88017479.13846  21494765.1664         36.0004 
        36.7004 
 117062634.72345  22276280.984    91217630.77045  22276280.4014         32.2004 
        32.5004 
 128132807.66941  24382873.453    99843726.25341  24382879.8224          8.2004 
         9.0004 
 109005907.73846  20743135.862    84939657.83946  20743135.6504         36.7004 
        37.2004 
 125242433.76343  23832836.955    97591513.27143  23832833.9434         20.4004 
        20.4004 
 127264440.69943  24217613.243    99167105.17443  24217615.3774         21.5004 
        21.8004 
 15 12 31  1 15  0.0000000  0  8G02G07G05G09G17G06G13G30
 107859892.74646  20525055.793    84046673.96846  20525049.4814         37.8004 
        39.3004 
 124621878.95544  23714751.959    97107957.07844  23714750.3024         27.7004 
        27.9004 
 112920731.15046  21488100.875    87990177.90446  21488097.7174         37.4004 
        38.7004 
 117151999.70145  22293287.308    91287265.75445  22293286.1114         33.5004 
        33.7004 
 128256114.33341  24406338.772    99939809.15141  24406345.3684          8.2004 
         9.0004 
 109051333.85846  20751780.364    84975054.77946  20751780.2564         38.6004 
        39.1004 
 125141399.61443  23813611.007    97512785.31543  23813606.8944         20.4004 
        20.1004 
 127196515.27943  24204688.208    99114176.36143  24204690.6134         21.5004 
        21.6004 
 15 12 31  1 15 30.0000000  0  8G02G07G05G09G17G06G13G30
 107825569.02746  20518524.336    84019928.18546  20518517.7394         38.8004 
        39.3004 
 124581272.12244  23707025.756    97076315.35644  23707023.4704         27.9004 
        28.1004 
 112885908.73946  21481474.545    87963043.55946  21481471.1654         38.3004 
        38.7004 
 117241692.88245  22310355.031    91357156.47645  22310354.5154         33.7004 
        33.9004 
 128379429.26441  24429806.694   100035898.49141  24429810.7184          7.8004 
         7.4004 
 109097116.59346  20760492.559    85010729.59146  20760492.3434         39.8004 
        40.3004 
 125040473.62943  23794404.613    97434141.65743  23794401.9054         19.9004 
        20.1004 
 127128632.64143  24191770.549    99061280.84643  24191771.4834         21.8004 
        21.6004 
 15 12 31  1 16  0.0000000  0  8G02G07G05G09G17G06G13G30
 107791518.05746  20512044.621    83993394.93646  20512037.9614         37.0004 
        37.4004 
 124540967.94544  23699355.512    97044909.47444  23699353.5774         27.1004 
        27.1004 
 112851305.31846  21474889.355    87936079.85146  21474886.5864         36.4004 
        36.8004 
 117331716.55345  22327485.253    91427304.71545  22327485.2844         33.2004 
        32.5004 
 128502754.97041  24453275.604   100131996.25441  24453279.2364          7.8004 
         7.4004 
 109143261.09946  20769273.649    85046686.30946  20769273.8494         37.9004 
        38.5004 
 124939663.09743  23775219.843    97355587.97043  23775219.9284         20.3004 
        20.3004 
 127060800.61643  24178862.244    99008424.77143  24178863.9024         22.3004 
        22.5004 
 15 12 31  1 16 30.0000000  0  8G02G07G05G09G17G06G13G30
 107757742.34246  20505616.957    83967076.18146  20505610.9724         38.4004 
        38.7004 
 124500969.53644  23691742.904    97013741.83144  23691741.8044         25.7004 
        25.7004 
 112816921.11746  21468346.761    87909286.97246  21468344.0724         37.3004 
        37.9004 
 117422068.81945  22344678.458    91497709.00845  22344678.3714         31.9004 
        32.3004 
 128626089.19341  24476744.562   100228100.65841  24476747.9634         11.7004 
        11.4004 
 109189768.37446  20778123.721    85082925.69246  20778123.8454         39.1004 
        39.8004 
 124838971.20543  23756059.931    97277126.75543  23756059.3064         20.3004 
        20.3004 
 126993022.80543  24165965.106    98955610.97343  24165965.4454         22.3004 
        22.7004 
 15 12 31  1 17  0.0000000  0  8G02G07G05G09G17G06G13G30
 107724239.90046  20499242.040    83940970.36146  20499235.6154         39.3004 
        39.5004 
 124461275.45944  23684189.730    96982811.34344  23684188.2754         24.7004 
        24.8004 
 112782751.71446  21461844.026    87882661.46046  21461842.2924         38.1004 
        38.3004 
 117512743.05145  22361934.732    91568364.18245  22361933.1174         31.2004 
        31.7004 
 128749425.38541  24500215.069   100324206.60741  24500217.9034         11.7004 
        11.4004 
 109236634.66146  20787041.989    85119444.83846  20787042.0684         39.9004 
        40.3004 
 124738396.51843  23736922.044    97198756.81443  23736920.3914         20.8004 
        20.8004 
 126925298.19743  24153078.260    98902838.65643  24153077.9214         22.7004 
        22.7004 
 15 12 31  1 17 30.0000000  0  8G02G07G05G09G17G06G13G30
 107691013.87546  20492918.688    83915079.93046  20492913.1654         38.6004 
        39.3004 
 124421889.37944  23676695.282    96952120.87544  23676691.7274         24.5004 
        24.8004 
 112748797.87546  21455383.333    87856203.92046  21455380.7564         37.4004 
        37.4004 
 117603737.76745  22379250.957    91639269.08645  22379248.8794         32.2004 
        32.3004 
 128872761.98542  24523686.698   100420312.86642  24523687.3024         12.3004 
        12.5004 
 109283861.38646  20796029.222    85156244.83546  20796029.2404         39.4004 
        40.0004 
 124637942.38243  23717805.737    97120480.79143  23717803.5344         21.9004 
        22.1004 
 126857630.86043  24140201.572    98850110.91943  24140202.4704         23.9004 
        23.7004 
 15 12 31  1 18  0.0000000  0  8G02G07G05G09G17G06G13G30
 107658065.31746  20486649.412    83889405.71246  20486643.4094         38.8004 
        39.7004 
 124382813.01244  23669259.003    96921671.72744  23669257.7954         25.3004 
        24.8004 
 112715058.84846  21448963.241    87829913.76646  21448959.6974         37.1004 
        37.5004 
 117695049.65845  22396626.906    91710421.14245  22396625.5404         32.7004 
        32.7004 
 128996095.39242  24547155.806   100516416.63642  24547156.4634         12.3004 
        12.5004 
 109331448.09246  20805084.561    85193325.34646  20805084.5314         39.5004 
        39.8004 
 124537610.34543  23698713.633    97042299.95943  23698710.7924         21.9004 
        22.1004 
 126790023.06944  24127334.838    98797429.55244  24127335.8714         24.3004 
        24.5004 
 15 12 31  1 18 30.0000000  0  8G02G07G05G09G17G06G13G30
 107625398.68046  20480432.727    83863951.17046  20480426.8974         38.8004 
        39.3004 
 124344051.74644  23661882.265    96891468.10744  23661881.6384         26.3004 
        25.6004 
 112681536.68646  21442584.404    87803792.61246  21442580.3674         37.2004 
        37.4004 
 117786678.77545  22414062.728    91781820.39145  22414062.0404         32.3004 
        32.4004 
 129119426.04741  24570625.259   100612518.28441  24570628.1134         10.3004 
        10.6004 
 109379397.65046  20814208.670    85230688.58746  20814208.7134         38.1004 
        38.4004 
 124437405.36043  23679645.495    96964218.12243  23679643.8394         21.6004 
        21.7004 
 126722480.44543  24114482.458    98744798.99143  24114483.4414         23.7004 
        23.8004 
 15 12 31  1 19  0.0000000  0  8G02G07G05G09G17G06G13G30
 107593017.27846  20474270.910    83838718.88946  20474264.5954         39.6004 
        39.9004 
 124305608.75244  23654567.859    96861512.50444  23654566.2194         27.2004 
        27.4004 
 112648232.46446  21436246.487    87777841.27446  21436242.9174         36.5004 
        36.8004 
 117878623.43145  22431559.090    91853465.50445  22431558.9454         32.2004 
        32.2004 
 129242751.72141  24594091.886   100708616.03841  24594095.8194         10.3004 
        10.6004 
 109427711.28746  20823402.342    85268335.53646  20823402.9844         39.6004 
        40.0004 
 124337330.91043  23660600.640    96886238.01343  23660601.3164         23.0004 
        23.2004 
 126655006.85143  24101641.278    98692222.20343  24101642.9844         23.7004 
        23.8004 
 15 12 31  1 19 30.0000000  0  8G02G07G05G09G17G06G13G30
 107560919.59646  20468162.804    83813707.70146  20468156.8674         38.6004 
        38.9004 
 124267483.38044  23647311.908    96831804.37844  23647311.0054         27.5004 
        27.5004 
 112615142.64246  21429949.213    87752056.99346  21429946.6074         36.6004 
        36.6004 
 117970877.81145  22449114.278    91925351.95645  22449113.4244         30.7004 
        31.0004 
 129366066.7124   24617559.968   100804705.4614   24617570.7194          1.0004 
         1.4004 
 109476385.96146  20832665.468    85306263.80646  20832665.2614         38.4004 
        39.1004 
 124237386.36743  23641582.083    96808359.12543  23641581.4994         23.1004 
        23.2004 
 126587602.03343  24088814.648    98639699.03143  24088816.4444         22.9004 
        23.0004 
 15 12 31  1 20  0.0000000  0  8G02G07G05G09G17G06G13G30
 107529105.30046  20462108.648    83788917.33246  20462102.5864         37.3004 
        37.9004 
 124229676.13544  23640117.275    96802344.15344  23640116.2634         27.3004 
        27.4004 
 112582264.59246  21423692.583    87726437.72746  21423690.4084         36.0004 
        36.1004 
 118063437.14245  22466728.160    91997476.06645  22466727.3974         31.5004 
        31.4004 
 129489365.520 5  24641023.611                                          35.100  
                
 109525419.79446  20841996.688    85344471.94646  20841996.2644         37.5004 
        38.4004 
 124137571.79743  23622587.728    96730581.53743  23622586.9164         23.1004 
        23.2004 
 126520266.87543  24076001.654    98587230.13643  24076002.7114         23.0004 
        23.2004 
 15 12 31  1 20 30.0000000  0  8G02G07G05G09G17G06G13G30
 107497576.07646  20456108.663    83764349.09846  20456103.0394         38.9004 
        39.2004 
 124192188.88744  23632983.600    96773133.26444  23632983.1294         26.9004 
        26.7004 
 112549597.48746  21417477.222    87700982.82846  21417474.3434         36.8004 
        37.1004 
 118156298.28845  22484399.529    92069835.36145  22484399.5194         32.1004 
        32.1004 
 129612645.892 5  24664482.287                                          35.900  
                
 109574812.42646  20851395.386    85382959.65146  20851395.7914         39.0004 
        40.2004 
 124037889.21043  23603620.339    96652906.76643  23603618.5854         22.4004 
        22.6004 
 126453003.72043  24063200.933    98534817.34243  24063203.1444         23.0004 
        23.2004 
 15 12 31  1 21  0.0000000  0  8G02G07G05G09G17G06G13G30
 107466334.06446  20450163.988    83740004.66846  20450157.8514         38.9004 
        39.3004 
 124155024.29044  23625910.591    96744173.79444  23625911.8734         26.0004 
        26.0004 
 112517141.34146  21411301.162    87675692.31246  21411297.9974         36.4004 
        36.7004 
 118249459.06445  22502127.148    92142428.12945  22502127.3614         32.4004 
        32.6004 
 129735905.311 5  24687937.729                                          35.300  
                
 109624564.50646  20860862.509    85421727.45646  20860863.1584         38.6004 
        39.0004 
 123938341.33544  23584676.173    96575337.01544  23584674.3554         24.1004 
        24.1004 
 126385816.12643  24050415.356    98482463.40043  24050419.2944         23.7004 
        23.8004 
 15 12 31  1 21 30.0000000  0  8G02G07G05G09G17G06G13G30
 107435387.23846  20444275.056    83715890.26946  20444269.2264         38.3004 
        38.4004 
 124118190.75244  23618900.968    96715472.32844  23618902.5304         25.4004 
        25.3004 
 112484902.02246  21405165.972    87650570.75846  21405162.9004         36.9004 
        37.1004 
 118342922.77945  22519911.908    92215256.95345  22519912.8454         31.7004 
        32.0004 
 129859146.927 5  24711390.478                                          34.900  
                
 109674682.15546  20870399.523    85460780.12246  20870399.8734         38.5004 
        38.3004 
 123838936.24544  23565760.130    96497878.52444  23565757.0244         24.1004 
        24.1004 
 126318712.91444  24037646.090    98430175.18944  24037648.4604         24.5004 
        24.6004 
 15 12 31  1 22  0.0000000  0  8G02G07G05G09G17G06G13G30
 107404733.25046  20438441.603    83692004.04546  20438435.8974         39.2004 
        39.8004 
 124081686.59744  23611954.289    96687027.50244  23611956.2314         25.3004 
        25.3004 
 112452874.93046  21399070.501    87625614.56946  21399067.9064         36.5004 
        36.6004 
 118436682.54645  22537754.766    92288316.47745  22537753.9064         31.6004 
        31.7004 
 129982364.1054   24734837.713   101285025.2924   24734835.3214          2.0004 
         2.9004 
 109725161.28346  20880005.957    85500114.46446  20880005.9534         38.8004 
        39.4004 
 123739672.26543  23546870.510    96420530.02143  23546868.2864         22.3004 
        22.2004 
 126251692.82444  24024893.673    98377951.77644  24024894.6444         24.1004 
        24.3004 
 15 12 31  1 22 30.0000000  0  8G02G07G05G09G17G06G13G30
 107374375.24746  20432664.730    83668348.46546  20432659.0354         39.7004 
        40.3004 
 124045514.89544  23605071.843    96658841.75844  23605071.6964         25.5004 
        25.6004 
 112421060.56346  21393016.596    87600824.13446  21393014.2064         36.7004 
        36.9004 
 118530736.70545  22555652.741    92361605.38145  22555652.7624         31.9004 
        31.9004 
 130105554.4874   24758278.362   101381017.4634   24758283.7884          1.0004 
         1.2004 
 109776002.98146  20889681.064    85539731.32046  20889680.7634         39.0004 
        39.4004 
 123640552.90743  23528009.181    96343294.19543  23528006.6354         22.4004 
        22.7004 
 126184759.77643  24012157.433    98325796.20244  24012156.8084         23.0004 
        24.3004 
 15 12 31  1 23  0.0000000  0  8G02G07G05G09G17G06G13G30
 107344316.21446  20426944.686    83644925.83446  20426938.8774         37.5004 
        37.8004 
 124009680.02944  23598253.641    96630918.48844  23598253.4924         25.9004 
        25.8004 
 112389460.21946  21387003.731    87576200.46946  21387000.5804         36.5004 
        36.7004 
 118625084.05145  22573606.750    92435122.75545  22573606.2524         31.6004 
        31.7004 
 130228717.224 5  24781716.320                                          30.100  
                
 109827208.83346  20899425.403    85579631.93646  20899424.8944         37.8004 
        38.0004 
 123541581.66043  23509175.912    96266173.76943  23509173.3444         23.3004 
        22.7004 
 126117918.19243  23999436.941    98273711.88843  23999437.9544         23.0004 
        23.1004 
 15 12 31  1 23 30.0000000  0  8G02G07G05G09G17G06G13G30
 107314553.87546  20421281.438    83621734.39046  20421275.1774         39.0004 
        39.5004 
 123974179.78744  23591498.752    96603255.96844  23591497.7094         26.5004 
        26.2004 
 112358069.28146  21381030.666    87551739.97946  21381027.2184         36.6004 
        37.6004 
 118719717.57845  22591614.308    92508863.11445  22591614.7474         31.0004 
        31.2004 
 130351845.448 5  24805146.877                                          30.100  
                
 109878774.59746  20909237.554    85619812.99846  20909237.7044         38.7004 
        39.2004 
 123442756.63043  23490369.868    96189167.30043  23490368.4734         23.3004 
        23.3004 
 126051166.70443  23986733.639    98221697.78343  23986735.5104         21.7004 
        21.9004 
 15 12 31  1 24  0.0000000  0  8G02G07G05G09G17G06G13G30
 107285089.65846  20415674.104    83598775.25346  20415668.0954         38.2004 
        38.4004 
 123939015.95244  23584807.554    96575855.57444  23584805.4744         26.9004 
        26.8004 
 112326886.78946  21375096.652    87527441.90646  21375093.4524         36.1004 
        37.9004 
 118814634.19345  22609676.807    92582824.07045  22609676.9234         30.3004 
        30.4004 
 130474935.489 4  24828573.436                                          29.100  
                
 109930699.95346  20919119.126    85660274.26946  20919119.4964         38.3004 
        38.9004 
 123344079.69243  23471592.808    96112276.22343  23471590.2434         23.0004 
        23.4004 
 125984507.91043  23974049.317    98169755.89343  23974050.9034         22.3004 
        21.9004 
 15 12 31  1 24 30.0000000  0  8G02G07G05G09G17G06G13G30
 107255928.56546  20410124.738    83576052.32146  20410119.3384         38.1004 
        39.3004 
 123904193.84244  23578180.120    96548721.47244  23578179.7394         27.2004 
        26.9004 
 112295915.40146  21369202.850    87503308.32946  21369200.0244         37.7004 
        37.9004 
 118909834.22945  22627792.994    92657005.86545  22627792.5444         30.5004 
        30.7004 
 130597989.150 4  24851986.552                                          26.600  
                
 109982987.94146  20929068.723    85701018.09846  20929069.3044         37.9004 
        39.0004 
 123245556.13144  23452843.907    96035504.65644  23452842.1394         24.6004 
        24.6004 
 125917947.65143  23961383.248    98117890.77743  23961385.9044         22.3004 
        22.3004 
 15 12 31  1 25  0.0000000  0  7G02G07G05G09G06G13G30
 107227073.99646  20404634.108    83553568.23446  20404628.3804         39.1004 
        39.4004 
 123869717.62444  23571620.097    96521856.89644  23571618.1744         26.2004 
        26.9004 
 112265156.65446  21363348.722    87479340.46046  21363346.7304         37.2004 
        37.7004 
 119005316.66744  22645962.381    92731407.71545  22645962.5104         29.7004 
        30.6004 
 110035640.30246  20939088.180    85742045.86546  20939088.6894         38.2004 
        38.5004 
 123147190.11644  23434125.300    95958855.85944  23434123.8624         24.0004 
        24.6004 
 125851490.60543  23948738.359    98066106.09643  23948739.7464         22.5004 
        22.7004 
 15 12 31  1 25 30.0000000  0  7G02G07G05G09G06G13G30
 107198525.33446  20399201.713    83531322.51546  20399195.6934         38.5004 
        39.1004 
 123835586.87444  23565125.268    96495261.51144  23565123.1074         26.2004 
        26.1004 
 112234607.19846  21357535.918    87455535.67146  21357532.9644         37.5004 
        38.1004 
 119101076.11545  22664185.870    92806025.43245  22664183.6024         30.1004 
        30.1004 
 110088654.33746  20949176.499    85783355.45846  20949176.6494         37.9004 
        38.4004 
 123048981.09644  23415436.305    95882329.41843  23415434.2704         24.0004 
        23.9004 
 125785136.95643  23936111.632    98014402.00043  23936112.2944         23.3004 
        23.4004 
 15 12 31  1 26  0.0000000  0  7G02G07G05G09G06G13G30
 107170285.71346  20393828.012    83509317.60346  20393822.1164         38.8004 
        39.4004 
 123801805.11644  23558696.928    96468938.07244  23558695.3204         25.8004 
        26.1004 
 112204268.28746  21351763.498    87431894.94646  21351759.6134         37.9004 
        38.5004 
 119197111.59344  22682459.496    92880858.23844  22682459.4824         29.2004 
        29.3004 
 110142031.76646  20959334.031    85824948.21446  20959334.3304         38.2004 
        38.6004 
 122950933.07143  23396779.478    95805928.36644  23396776.8244         23.8004 
        24.0004 
 125718891.36243  23923505.401    97962782.10843  23923504.6204         23.3004 
        23.4004 
 15 12 31  1 26 30.0000000  0  7G02G07G05G09G06G13G30
 107142354.86046  20388512.683    83487553.29045  20388506.6294         36.2004 
        35.6004 
 123768372.33744  23552336.514    96442886.55744  23552332.9994         26.2004 
        25.9004 
 112174137.19246  21346029.476    87408416.16146  21346026.0264         36.1004 
        36.8004 
 119293417.87244  22700784.369    92955902.04044  22700787.5144         29.1004 
        29.2004 
 110195770.08646  20969560.203    85866822.18146  20969560.1184         36.7004 
        36.5004 
 122853045.80644  23378151.905    95729652.61144  23378149.5374         24.7004 
        25.1004 
 125652754.23443  23910920.423    97911246.75443  23910920.0654         23.2004 
        23.2004 
 15 12 31  1 27  0.0000000  0  7G02G07G05G09G06G13G30
 107114739.00346  20383258.397    83466034.42346  20383251.5654         37.9004 
        38.4004 
 123735295.07544  23546041.443    96417112.08144  23546038.9364         26.5004 
        27.0004 
 112144217.93546  21340336.099    87385102.44346  21340332.9654         38.4004 
        39.0004 
 119389996.46244  22719164.210    93031158.02244  22719164.6464         28.0004 
        29.1004 
 110249873.41146  20979855.680    85908980.56746  20979855.9374         38.0004 
        38.4004 
 122755325.87944  23359556.066    95653507.22244  23359553.4294         24.3004 
        25.1004 
 125586732.63243  23898356.107    97859801.38243  23898357.0814         22.6004 
        22.6004 
 15 12 31  1 27 30.0000000  0  7G02G07G05G09G06G13G30
 107087435.41046  20378061.938    83444758.88046  20378055.7714         38.2004 
        38.4004 
 123702571.85244  23539814.788    96391613.48344  23539813.0204         26.9004 
        27.4004 
 112114505.84346  21334681.570    87361950.15746  21334679.0404         38.7004 
        39.3004 
 119486840.74644  22737593.457    93106621.07044  22737593.6124         28.1004 
        27.9004 
 110304337.86046  20990219.455    85951420.34846  20990220.5664         38.3004 
        38.8004 
 122657771.74944  23340992.184    95577491.02744  23340989.0954         24.6004 
        24.3004 
 125520825.65943  23885815.793    97808445.31343  23885816.4934         23.0004 
        22.6004 
 15 12 31  1 28  0.0000000  0  7G02G07G05G09G06G13G30
 107060441.51246  20372925.783    83423724.65646  20372919.0864         38.2004 
        38.9004 
 123670199.75244  23533653.950    96366388.49344  23533652.2044         27.6004 
        27.8004 
 112084995.66146  21329066.297    87338955.20246  21329063.6214         38.9004 
        39.5004 
 119583943.08144  22756070.791    93182285.17844  22756071.8524         28.1004 
        28.1004 
 110359158.42846  21000652.353    85994137.63146  21000652.6224         38.3004 
        38.9004 
 122560380.42244  23322459.145    95501601.66144  23322456.9304         24.7004 
        24.9004 
 125455031.25543  23873293.771    97757176.98543  23873297.0894         23.0004 
        23.5004 
 15 12 31  1 28 30.0000000  0  7G02G07G05G09G06G13G30
 107033762.48846  20367848.794    83402935.78546  20367842.5594         38.7004 
        39.2004 
 123638184.73444  23527561.447    96341441.72144  23527560.6774         27.5004 
        27.7004 
 112055691.39846  21323489.735    87316120.70146  21323486.8654         38.3004 
        38.8004 
 119681304.82744  22774598.516    93258151.43644  22774599.2454         27.7004 
        27.7004 
 110414339.06446  21011152.857    86037135.49046  21011153.1764         38.5004 
        39.2004 
 122463158.40244  23303958.635    95425844.23344  23303956.6414         24.7004 
        25.1004 
 125389356.42644  23860794.465    97706001.77844  23860798.4704         24.0004 
        24.0004 
 15 12 31  1 29  0.0000000  0  7G02G07G05G09G06G13G30
 107007403.73946  20362832.770    83382396.47546  20362826.7934         38.8004 
        39.4004 
 123606531.91044  23521538.097    96316777.19144  23521537.1264         27.3004 
        27.5004 
 112026594.96346  21317953.006    87293448.16046  21317949.8834         38.6004 
        39.3004 
 119778925.94944  22793176.547    93334219.81044  22793174.5104         27.4004 
        27.3004 
 110469882.43546  21021722.203    86080416.00746  21021722.4874         38.6004 
        39.2004 
 122366110.55344  23285490.868    95350222.50344  23285488.6974         25.2004 
        24.9004 
 125323806.76243  23848322.585    97654924.09943  23848324.6734         23.3004 
        23.2004 
 15 12 31  1 29 30.0000000  0  7G02G07G05G09G06G13G30
 106981368.49646  20357878.087    83362109.24746  20357872.5304         37.8004 
        38.2004 
 123575244.92844  23515585.207    96292397.72344  23515582.4514         27.5004 
        27.7004 
 111997707.51746  21312455.844    87270938.46946  21312452.5554         37.3004 
        37.8004 
 119876805.33544  22811800.479    93410489.41944  22811799.2314         26.8004 
        27.6004 
 110525789.99946  21032360.952    86123980.30446  21032361.5224         37.7004 
        38.6004 
 122269240.75944  23267057.979    95274739.53944  23267055.9024         25.1004 
        26.0004 
 125258386.75143  23835872.503    97603947.47943  23835876.9274         23.2004 
        23.2004 
 15 12 31  1 30  0.0000000  0  7G02G07G05G09G06G13G30
 106955654.89346  20352985.039    83342072.65146  20352979.3164         38.8004 
        39.3004 
 123544322.82244  23509699.325    96268302.57144  23509697.7744         26.9004 
        27.2004 
 111969025.66546  21306997.652    87248588.98146  21306994.5954         37.9004 
        38.2004 
 119974936.96444  22830473.172    93486955.60544  22830474.9074         26.1004 
        26.5004 
 110582058.35346  21043068.776    86167825.73846  21043068.9804         38.8004 
        39.2004 
 122172547.95144  23248656.996    95199394.44944  23248655.6134         25.9004 
        26.0004 
 125193096.02643  23823448.717    97553071.57843  23823453.0494         23.2004 
        23.3004 
 15 12 31  1 30 30.0000000  0  7G02G07G05G09G06G13G30
 106930264.74546  20348154.051    83322288.09346  20348147.8624         37.8004 
        39.1004 
 123513767.41044  23503884.637    96244493.16444  23503883.1334         26.4004 
        26.4004 
 111940548.70746  21301578.946    87226399.15246  21301576.1004         36.7004 
        37.1004 
 120073317.83444  22849194.770    93563615.96644  22849197.3644         26.3004 
        26.2004 
 110638687.11846  21053845.074    86211952.01146  21053844.8134         38.3004 
        38.6004 
 122076034.16844  23230291.179    95124188.87544  23230288.9564         25.8004 
        25.8004 
 125127937.24843  23811049.841    97502298.49843  23811053.3634         22.5004 
        22.4004 
 15 12 31  1 31  0.0000000  0  7G02G07G05G09G06G13G30
 106905201.24446  20343384.039    83302758.06046  20343378.5654         38.9004 
        39.6004 
 123483581.99544  23498140.155    96220972.07944  23498139.3044         25.4004 
        25.6004 
 111912277.19246  21296198.893    87204369.40646  21296196.0554         37.7004 
        38.1004 
 120171946.55144  22867964.777    93640469.46544  22867966.0364         26.4004 
        26.4004 
 110695677.43046  21064689.418    86256359.99946  21064689.9524         39.0004 
        39.7004 
 121979702.83644  23211960.002    95049125.47244  23211957.2164         25.7004 
        25.8004 
 125062914.65343  23798676.383    97451631.51343  23798678.3914         21.6004 
        22.4004 
 15 12 31  1 31 30.0000000  0  7G02G07G05G09G06G13G30
 106880470.60146  20338678.045    83283487.39446  20338672.1694         36.8004 
        37.2004 
 123453773.10944  23492466.806    96197744.39544  23492466.4974         26.1004 
        26.3004 
 111884215.84745  21290859.119    87182503.44045  21290856.4414         35.4004 
        35.6004 
 120270824.97644  22886779.312    93717517.53944  22886781.3264         26.5004 
        26.7004 
 110753033.78446  21075604.321    86301053.22346  21075604.4174         36.7004 
        37.4004 
 121883560.83344  23193664.456    94974209.59344  23193662.6634         25.8004 
        25.8004 
 124998035.70043  23786330.955    97401076.46943  23786332.2794         21.6004 
        21.5004 
 15 12 31  1 32  0.0000000  0  7G02G07G05G09G06G13G30
 106856070.93446  20334034.820    83264474.63746  20334029.2524         38.4004 
        39.3004 
 123424339.46644  23486865.076    96174809.11144  23486865.5264         25.5004 
        25.6004 
 111856359.86046  21285558.262    87160797.48946  21285555.7034         36.1004 
        36.8004 
 120369946.56944  22905642.405    93794755.09444  22905644.7964         26.5004 
        26.3004 
 110810752.13146  21086587.970    86346028.51546  21086587.9614         37.5004 
        38.5004 
 121787606.61644  23175405.465    94899440.05044  23175403.6994         25.3004 
        25.5004 
 124933299.49543  23774011.825    97350632.62743  23774014.1584         22.0004 
        23.0004 
 15 12 31  1 32 30.0000000  0  7G02G07G05G09G06G13G30
 106832004.77446  20329455.559    83245721.74846  20329449.3814         39.2004 
        39.7004 
 123395283.81544  23481335.599    96152168.38744  23481336.5834         26.2004 
        26.4004 
 111828710.29546  21280296.656    87139252.38146  21280293.8634         37.4004 
        37.8004 
 120469309.86844  22924550.954    93872180.99744  22924552.0634         26.2004 
        26.5004 
 110868833.54146  21097640.741    86391286.71346  21097640.6814         39.2004 
        39.4004 
 121691843.77744  23157181.972    94824819.61144  23157179.5394         26.2004 
        26.4004 
 124868710.18244  23761722.204    97300303.23043  23761723.2104         24.5004 
        23.0004 
 15 12 31  1 33  0.0000000  0  7G02G07G05G09G06G13G30
 106808271.55146  20324939.320    83227228.29846  20324933.2174         39.8004 
        39.9004 
 123366605.89144  23475879.064    96129822.00944  23475880.6984         26.6004 
        26.6004 
 111801264.19346  21275073.394    87117865.82046  21275070.6084         37.3004 
        37.7004 
 120568909.41844  22943504.128    93949790.97744  22943504.2904         26.4004 
        26.4004 
 110927275.08246  21108761.607    86436825.51046  21108761.6144         39.3004 
        39.5004 
 121596271.41744  23138994.818    94750347.62044  23138993.2764         26.2004 
        26.2004 
 124804267.93544  23749458.812    97250088.41544  23749460.3834         25.3004 
        25.2004 
 15 12 31  1 33 30.0000000  0  7G02G07G05G09G06G13G30
 106784873.73646  20320487.128    83208996.20846  20320480.9544         39.9004 
        39.8004 
 123338308.52344  23470494.605    96107772.16044  23470494.6584         26.4004 
        26.5004 
 111774021.57146  21269889.449    87096637.81346  21269886.3144         37.1004 
        37.7004 
 120668743.14744  22962502.172    94027583.46144  22962501.9894         26.3004 
        26.0004 
 110986077.22346  21119950.485    86482645.31646  21119951.3344         39.0004 
        39.2004 
 121500892.56844  23120844.586    94676026.43844  23120843.7134         26.1004 
        26.2004 
 124739976.32044  23737224.666    97199990.99244  23737225.8854         24.9004 
        25.1004 
 15 12 31  1 34  0.0000000  0  7G02G07G05G09G06G13G30
 106761817.30546  20316099.159    83191030.12146  20316093.3324         39.2004 
        39.5004 
 123310397.35244  23465185.190    96086023.23744  23465182.9774         26.0004 
        26.1004 
 111746985.78246  21264745.107    87075570.97446  21264741.6664         36.1004 
        36.3004 
 120768812.42944  22981543.990    94105559.45844  22981545.2574         25.4004 
        25.1004 
 111045243.80146  21131209.480    86528749.08946  21131210.2884         38.3004 
        38.6004 
 121405713.62344  23102733.058    94601861.01344  23102731.1244         26.2004 
        26.3004 
 124675842.36244  23725020.308    97150016.42744  23725021.3534         24.8004 
        24.8004 
 15 12 31  1 34 30.0000000  0  7G02G07G05G09G06G13G30
 106739097.12346  20311775.688    83173326.05546  20311769.8044         37.1004 
        36.8004 
 123282868.02344  23459947.979    96064571.85744  23459944.4264         26.1004 
        26.4004 
 111720150.45946  21259638.134    87054660.33446  21259635.6234         37.3004 
        36.6004 
 120869108.04544  23000629.973    94183711.84744  23000631.2684         24.9004 
        25.4004 
 111104768.02146  21142537.113    86575131.55746  21142537.4384         36.7004 
        37.0004 
 121310730.18044  23084658.849    94527847.94544  23084656.2994         26.7004 
        26.9004 
 124611862.38344  23712845.351    97100161.85544  23712844.2944         24.8004 
        24.9004 
 15 12 31  1 35  0.0000000  0  7G02G07G05G09G06G13G30
 106716721.75046  20307517.956    83155890.67846  20307511.8544         39.6004 
        39.9004 
 123255728.93544  23454783.557    96043424.55644  23454779.6304         27.0004 
        27.3004 
 111693521.49846  21254571.181    87033910.48846  21254568.5154         38.2004 
        38.7004 
 120969633.77944  23019761.462    94262043.54744  23019761.7914         25.6004 
        25.4004 
 111164656.23246  21153933.753    86621797.63846  21153934.7084         39.0004 
        39.1004 
 121215951.03044  23066623.139    94453994.02844  23066619.3344         26.6004 
        26.8004 
 124548045.86944  23700699.519    97050434.66743  23700700.3284         24.4004 
        23.8004 
 15 12 31  1 35 30.0000000  0  7G02G07G05G09G06G13G30
 106694694.94446  20303326.135    83138726.91246  20303320.1174         39.3004 
        39.7004 
 123228984.25344  23449695.272    96022584.63544  23449691.0094         27.6004 
        27.8004 
 111667100.30246  21249543.555    87013322.53446  21249540.6834         38.1004 
        38.5004 
 121070388.94444  23038933.859    94340554.00544  23038934.2784         26.2004 
        25.9004 
 111224910.14046  21165399.535    86668748.68046  21165400.3364         38.5004 
        38.8004 
 121121379.94944  23048625.458    94380302.29944  23048623.3794         26.4004 
        26.5004 
 124484397.70443  23688587.787    97000838.63543  23688589.0614         23.3004 
        23.8004 
 15 12 31  1 36  0.0000000  0  7G02G07G05G09G06G13G30
 106673015.34946  20299200.722    83121833.69846  20299194.9184         39.9004 
        39.9004 
 123202632.72144  23444679.052    96002051.04044  23444676.3644         27.9004 
        28.2004 
 111640883.38746  21244554.344    86992893.75746  21244551.6154         38.4004 
        38.9004 
 121171367.69244  23058149.009    94419238.70144  23058148.3454         26.3004 
        26.3004 
 111285526.31046  21176934.501    86715982.01846  21176935.2774         39.6004 
        39.7004 
 121027016.50044  23030669.696    94306772.30444  23030666.3164         26.1004 
        26.2004 
 124420917.63744  23676508.609    96951373.60443  23676510.6424         24.0004 
        23.6004 
 15 12 31  1 36 30.0000000  0  7G02G07G05G09G06G13G30
 106651685.89046  20295141.568    83105213.31246  20295136.1134         40.2004 
        40.3004 
 123176677.43644  23439740.318    95981826.20644  23439737.5004         27.7004 
        27.8004 
 111614871.82346  21239604.601    86972624.99146  21239601.6554         38.3004 
        38.6004 
 121272568.57444  23077406.617    94498096.49944  23077406.7114         26.0004 
        26.3004 
 111346505.80046  21188538.704    86763498.45746  21188539.5594         39.2004 
        39.5004 
 120932864.07544  23012752.698    94233406.77144  23012751.0714         26.5004 
        26.7004 
 124357609.88244  23664460.998    96902042.83644  23664463.0304         24.8004 
        24.8004 
 15 12 31  1 37  0.0000000  0  7G02G07G05G09G06G13G30
 106630703.01646  20291149.367    83088863.00446  20291143.5584         39.8004 
        40.1004 
 123151115.28944  23434874.400    95961907.69244  23434871.5734         27.3004 
        27.3004 
 111589059.70546  21234692.686    86952511.64746  21234689.6114         36.9004 
        37.9004 
 121373983.51744  23096706.144    94577121.10344  23096705.7854         25.6004 
        25.8004 
 111407842.81346  21200211.400    86811293.48746  21200211.0164         37.9004 
        38.6004 
 120838919.18644  22994874.989    94160202.95644  22994874.1164         27.3004 
        27.5004 
 124294471.91344  23652445.001    96852844.39944  23652447.9884         24.8004 
        25.0004 
 15 12 31  1 37 30.0000000  0  7G02G07G05G09G06G13G30
 106610074.82646  20287223.626    83072789.06746  20287217.7134         39.3004 
        39.4004 
 123125954.31744  23430085.414    95942301.78544  23430083.0744         26.9004 
        26.8004 
 111563453.03945  21229819.655    86932558.39646  21229816.8164         34.4004 
        36.0004 
 121475616.44644  23116046.387    94656315.54144  23116044.5744         25.9004 
        25.8004 
 111469543.69046  21211952.277    86859372.03746  21211952.6614         36.6004 
        37.0004 
 120745190.78744  22977040.439    94087167.83244  22977037.8754         28.2004 
        28.0004 
 124231513.22244  23640464.944    96803785.65644  23640466.4384         24.7004 
        25.0004 
 15 12 31  1 38  0.0000000  0  7G02G07G05G09G06G13G30
 106589797.53446  20283364.493    83056988.56646  20283359.1834         40.4004 
        40.5004 
 123101191.04044  23425371.877    95923005.77644  23425371.7294         26.0004 
        26.2004 
 111538045.94246  21224984.774    86912760.64846  21224982.4144         38.3004 
        38.5004 
 121577458.96144  23135427.653    94735673.30044  23135424.3344         25.1004 
        25.4004 
 111531602.43846  21223760.798    86907729.45646  21223762.0194         38.3004 
        38.5004 
 120651675.04644  22959244.214    94014298.41944  22959241.6344         28.3004 
        28.2004 
 124168731.03943  23628518.995    96754864.49043  23628519.0574         23.1004 
        23.6004 
 15 12 31  1 38 30.0000000  0  7G02G07G05G09G06G13G30
 106569872.72846  20279573.560    83041462.73246  20279568.0064         40.0004 
        40.4004 
 123076827.06844  23420736.989    95904020.89144  23420736.2814         26.4004 
        26.5004 
 111512837.65946  21220188.359    86893117.81946  21220185.8574         38.6004 
        38.8004 
 121679508.31044  23154847.283    94815192.21144  23154842.6544         25.9004 
        26.0004 
 111594018.63946  21235638.965    86956365.40646  21235639.3724         37.8004 
        38.3004 
 120558374.64944  22941489.262    93941596.78244  22941487.3594         27.8004 
        27.9004 
 124106128.16644  23616607.510    96706083.04943  23616606.7354         24.2004 
        23.9004 
 15 12 31  1 39  0.0000000  0  7G02G07G05G09G06G13G30
 106550306.27846  20275850.304    83026216.13746  20275844.3104         40.2004 
        40.2004 
 123052868.28144  23416177.153    95885351.70144  23416177.7274         26.3004 
        25.7004 
 111487831.85446  21215429.811    86873632.77046  21215427.0924         38.3004 
        38.8004 
 121781765.76644  23174306.436    94894873.34144  23174302.6894         25.5004 
        25.6004 
 111656795.94946  21247584.488    87005282.74046  21247585.9534         37.7004 
        38.2004 
 120465295.21144  22923776.975    93869067.32544  22923775.2224         27.4004 
        27.2004 
 124043711.50744  23604730.835    96657446.70544  23604729.6514         24.8004 
        24.8004 
 15 12 31  1 39 30.0000000  0  7G02G07G05G09G06G13G30
 106531097.96246  20272195.002    83011248.60746  20272189.2504         40.6004 
        41.0004 
 123029314.68444  23411695.843    95866998.24244  23411695.1354         25.7004 
        26.3004 
 111463026.46746  21210709.531    86854303.88746  21210706.7474         38.7004 
        39.0004 
 121884226.81944  23193804.106    94974713.09744  23193800.9134         25.5004 
        26.2004 
 111719932.13546  21259599.687    87054479.71046  21259600.1214         38.2004 
        38.6004 
 120372436.98144  22906106.760    93796710.24044  22906104.9444         27.6004 
        28.4004 
 123981482.07544  23592888.437    96608956.26044  23592888.8234         26.1004 
        26.1004 
 15 12 31  1 40  0.0000000  0  7G02G07G05G09G06G13G30
 106512253.48146  20268609.381    82996564.58346  20268603.3504         41.0004 
        40.9004 
 123006172.47744  23407292.098    95848965.35944  23407292.6024         26.1004 
        26.3004 
 111438425.29646  21206027.727    86835134.13246  21206025.1784         38.0004 
        38.4004 
 121986892.92744  23213341.081    95054712.64644  23213339.0544         26.1004 
        26.4004 
 111783431.03246  21271683.096    87103959.31646  21271683.0894         37.6004 
        38.0004 
 120279806.71544  22888480.238    93724530.80744  22888479.0954         28.2004 
        28.2004 
 123919446.94544  23581084.983    96560617.22244  23581083.6654         26.1004 
        25.9004 
 15 12 31  1 40 30.0000000  0  7G02G07G05G09G06G13G30
 106493768.83746  20265091.671    82982160.95546  20265085.7824         39.9004 
        40.1004 
 122983437.70544  23402966.957    95831249.96144  23402965.8404         26.4004 
        26.9004 
 111414022.03146  21201383.849    86816118.58846  21201381.0964         38.0004 
        38.3004 
 122089755.82644  23232913.693    95134865.50744  23232912.6014         26.1004 
        26.4004 
 111847286.56346  21283834.568    87153716.80346  21283834.7794         37.7004 
        38.0004 
 120187400.66744  22870896.341    93652526.06944  22870892.9914         27.8004 
        28.0004 
 123857603.34344  23569315.418    96512427.40744  23569315.2164         25.7004 
        25.9004 
 15 12 31  1 41  0.0000000  0  7G02G07G05G09G06G13G30
 106475647.45046  20261643.367    82968040.38946  20261637.3844         40.1004 
        40.7004 
 122961113.63344  23398718.306    95813854.59044  23398718.1654         27.2004 
        27.2004 
 111389817.54346  21196777.546    86797257.94546  21196774.8024         38.1004 
        38.4004 
 122192814.02944  23252524.971    95215170.58544  23252524.0384         24.1004 
        24.5004 
 111911499.59546  21296053.721    87203752.87646  21296054.2354         37.6004 
        38.0004 
 120095222.18944  22853355.029    93580698.66544  22853352.2994         27.7004 
        27.6004 
 123795955.40344  23557583.197    96464390.07744  23557584.7364         25.5004 
        25.5004 
 15 12 31  1 41 30.0000000  0  7G02G07G05G09G06G13G30
 106457892.00946  20258264.578    82954204.98246  20258258.7284         38.8004 
        39.1004 
 122939202.96644  23394549.061    95796781.34944  23394546.4964         27.0004 
        27.3004 
 111365812.65946  21192210.323    86778552.83546  21192206.8344         37.3004 
        37.6004 
 122296066.08143  23272171.834    95295626.70543  23272173.6614         23.5004 
        23.7004 
 111976070.94846  21308341.121    87254068.17146  21308341.9784         36.0004 
        36.5004 
 120003274.65744  22835858.388    93509051.21444  22835854.9044         27.1004 
        27.0004 
 123734507.25344  23545889.967    96416508.42744  23545892.1124         25.8004 
        25.8004 
 15 12 31  1 42  0.0000000  0  7G02G07G05G09G06G13G30
 106440499.68446  20254954.151    82940652.52046  20254949.0334         37.0004 
        37.6004 
 122917703.14344  23390457.264    95780028.27644  23390455.6764         26.9004 
        27.1004 
 111342002.82946  21187679.650    86759999.71546  21187676.6394         37.0004 
        36.6004 
 122399504.97543  23291855.169    95376228.43443  23291857.5924         23.5004 
        23.5004 
 112040995.82045  21320696.194    87304658.93446  21320696.8684         34.8004 
        36.2004 
 119911555.82744  22818404.245    93437581.98944  22818401.5214         27.1004 
        27.9004 
 123673257.35444  23534235.071    96368781.22544  23534236.4264         26.2004 
        26.2004 
 15 12 31  1 42 30.0000000  0  7G02G07G05G09G06G13G30
 106423472.13846  20251714.212    82927384.29846  20251708.6464         38.1004 
        38.8004 
 122896615.77344  23386445.075    95763596.59544  23386442.5594         26.4004 
        26.6004 
 111318387.30846  21183185.053    86741597.99946  21183182.6984         37.1004 
        37.9004 
 122503127.79643  23311574.521    95456973.45743  23311578.4244         23.5004 
        23.5004 
 112106273.56146  21333117.728    87355524.65946  21333119.0354         36.1004 
        36.6004 
 119820067.69744  22800995.064    93366292.51844  22800994.0384         28.0004 
        27.7004 
 123612208.41144  23522615.825    96321210.60744  23522618.7954         25.6004 
        25.8004 
 15 12 31  1 43  0.0000000  0  7G02G07G05G09G06G13G30
 106406812.73946  20248543.856    82914402.94246  20248538.4084         38.5004 
        39.6004 
 122875944.44644  23382511.694    95747489.11844  23382508.0394         27.4004 
        27.4004 
 111294967.27446  21178728.903    86723348.60246  21178726.0234         37.6004 
        38.3004 
 122606933.83643  23331327.673    95537861.28543  23331331.3224         23.4004 
        23.5004 
 112171905.63246  21345607.475    87406666.48346  21345608.0524         36.6004 
        36.8004 
 119728814.14144  22783629.395    93295185.86144  22783628.3874         28.8004 
        28.9004 
 123551365.22044  23511037.554    96273800.32044  23511040.9254         25.7004 
        25.6004 
 15 12 31  1 43 30.0000000  0  7G02G07G05G09G06G13G30
 106390527.82246  20245445.086    82901713.40046  20245439.6324         38.0004 
        38.9004 
 122855695.43044  23378659.100    95731710.71344  23378654.6214         27.8004 
        27.7004 
 111271747.43246  21174310.594    86705255.19546  21174307.5234         38.1004 
        38.5004 
 122710924.98743  23351117.125    95618893.35843  23351119.8154         23.5004 
        23.5004 
 112237896.12646  21358165.196    87458087.59646  21358165.9174         36.5004 
        37.0004 
 119637801.76744  22766310.057    93224267.12744  22766309.6744         28.3004 
        28.8004 
 123490735.20544  23499500.620    96226556.14444  23499503.6134         25.5004 
        25.6004 
 15 12 31  1 44  0.0000000  0  7G02G07G05G09G06G13G30
 106374617.46346  20242417.824    82889315.72146  20242412.0534         39.4004 
        38.7004 
 122835869.06544  23374884.956    95716261.67044  23374881.8094         27.4004 
        27.7004 
 111248725.47846  21169929.478    86687315.99146  21169926.3834         36.8004 
        36.7004 
 122815097.01743  23370940.585    95700066.38043  23370941.8664         23.5004 
        23.3004 
 112304242.94945  21370790.331    87509786.36845  21370791.2594         34.8004 
        35.7004 
 119547031.12644  22749037.939    93153536.77644  22749036.5524         28.3004 
        28.3004 
 123430319.58644  23488003.692    96179479.04044  23488005.8964         25.7004 
        25.8004 
 15 12 31  1 44 30.0000000  0  7G02G07G05G09G06G13G30
 106359084.17446  20239462.195    82877211.86746  20239455.9774         38.8004 
        39.4004 
 122816467.69044  23371192.541    95701143.78344  23371191.0994         27.2004 
        27.3004 
 111225901.91246  21165586.267    86669531.36746  21165583.1384         38.1004 
        38.5004 
 122919448.43843  23390797.947    95781379.14943  23390799.2904         23.3004 
        23.3004 
 112370946.71846  21383483.476    87561763.28946  21383484.2824         37.0004 
        37.2004 
 119456505.54344  22731811.623    93082997.35344  22731809.4594         28.8004 
        28.9004 
 123370122.39344  23476548.018    96132572.16444  23476550.5644         25.2004 
        25.3004 
 15 12 31  1 45  0.0000000  0  7G02G07G05G09G06G13G30
 106343927.22046  20236577.929    82865401.25546  20236571.8414         38.7004 
        38.6004 
 122797490.40544  23367580.197    95686356.36144  23367580.0444         27.7004 
        27.9004 
 111203273.87846  21161279.890    86651899.11846  21161276.7004         37.6004 
        38.1004 
 123023973.84743  23410687.908    95862827.49843  23410687.7154         22.9004 
        23.0004 
 112438004.27446  21396243.952    87614015.88246  21396245.2434         36.8004 
        37.0004 
 119366224.41744  22714631.231    93012648.43944  22714630.2414         29.2004 
        29.7004 
 123310143.82044  23465136.030    96085835.64044  23465136.8034         24.7004 
        24.7004 
 15 12 31  1 45 30.0000000  0  7G02G07G05G09G06G13G30
 106329148.66545  20233765.829    82853885.50246  20233759.4204         35.7004 
        37.4004 
 122778939.46744  23364049.488    95671901.13444  23364049.6994         27.1004 
        27.1004 
 111180841.29046  21157011.063    86634419.16746  21157008.3434         37.3004 
        36.9004 
 123128670.98743  23430611.423    95944409.68343  23430609.7314         21.6004 
        21.8004 
 112505415.50745  21409072.897    87666544.06946  21409073.0664         34.9004 
        36.0004 
 119276189.96844  22697497.497    92942491.73644  22697496.4894         28.6004 
        28.9004 
 123250387.01444  23453764.489    96039271.94944  23453765.4444         24.7004 
        24.7004 
 15 12 31  1 46  0.0000000  0  7G02G07G05G09G06G13G30
 106314750.07546  20231025.466    82842665.80946  20231019.4464         39.6004 
        39.9004 
 122760816.72744  23360600.255    95657779.60644  23360603.7404         26.5004 
        26.7004 
 111158604.06546  21152780.135    86617091.44346  21152777.0994         38.4004 
        38.9004 
 123233537.42343  23450568.464    96026123.75743  23450565.3444         21.6004 
        21.8004 
 112573179.98746  21421968.079    87719347.51046  21421967.8514         37.0004 
        37.6004 
 119186404.66044  22680413.253    92872529.18744  22680411.4164         29.2004 
        29.1004 
 123190855.11443  23442436.547    95992883.48944  23442436.6754         23.8004 
        24.0004 
 15 12 31  1 46 30.0000000  0  7G02G07G05G09G06G13G30
 106300733.73846  20228358.015    82831743.97946  20228352.4104         38.6004 
        39.2004 
 122743124.04444  23357236.067    95643993.14544  23357234.8914         26.4004 
        26.5004 
 111136562.36546  21148584.911    86599916.07746  21148583.1634         37.9004 
        38.8004 
 123338571.12243  23470555.678    96107968.18443  23470551.0684         21.1004 
        21.1004 
 112641297.87746  21434930.245    87772426.33846  21434930.4404         37.8004 
        37.0004 
 119096871.18045  22663374.233    92802762.83045  22663374.3374         30.3004 
        30.5004 
 123131551.53544  23431150.529    95946672.97344  23431151.6084         24.7004 
        24.8004 
 15 12 31  1 47  0.0000000  0  7G02G07G05G09G06G13G30
 106287097.34446  20225763.256    82821118.20646  20225757.6494         39.6004 
        40.1004 
 122725859.28744  23353951.148    95630540.14244  23353949.4104         26.7004 
        26.8004 
 111114711.74946  21144427.533    86582889.59246  21144425.1584         38.2004 
        38.5004 
 123443765.60843  23490573.082    96189937.88843  23490569.2674         21.1004 
        21.1004 
 112709764.66346  21447959.187    87825777.03346  21447959.5024         37.5004 
        37.9004 
 119007587.80244  22646384.554    92733191.40244  22646383.8224         29.8004 
        29.8004 
 123072475.23944  23419909.157    95900639.55844  23419911.1244         25.6004 
        25.9004 
 15 12 31  1 47 30.0000000  0  7G02G07G05G09G06G13G30
 106273848.64146  20223242.050    82810794.52246  20223236.5494         39.4004 
        39.6004 
 122709030.06844  23350749.525    95617426.52544  23350746.1444         27.5004 
        27.4004 
 111093057.85246  21140306.598    86566016.40846  21140304.2004         37.8004 
        37.9004 
 123549124.22643  23510621.081    96272035.51843  23510619.0174         19.3004 
        19.4004 
 112778585.83446  21461055.290    87879403.87946  21461055.7394         36.9004 
        37.3004 
 118918562.16145  22629444.072    92663820.77945  22629442.1474         30.3004 
        30.4004 
 123013635.07444  23408711.534    95854790.15844  23408712.4384         26.4004 
        26.5004 
 15 12 31  1 48  0.0000000  0  7G02G07G05G09G06G13G30
 106260981.74846  20220793.773    82800768.36146  20220787.9944         40.1004 
        40.7004 
 122692630.76644  23347628.288    95604647.91044  23347624.8304         28.1004 
        28.3004 
 111071593.18846  21136221.886    86549290.70046  21136219.1014         37.9004 
        38.3004 
 123654637.14143  23530696.787    96354253.34943  23530697.7094         19.3004 
        19.4004 
 112847753.54346  21474217.527    87933300.75346  21474218.5434         37.7004 
        37.8004 
 118829789.20245  22612551.192    92594647.06745  22612550.1184         30.3004 
        30.6004 
 122955026.62944  23397557.542    95809121.33144  23397560.2094         26.3004 
        26.5004 
 15 12 31  1 48 30.0000000  0  7G02G07G05G09G06G13G30
 106248505.93046  20218419.791    82791046.93746  20218413.9114         39.4004 
        40.1004 
 122676670.24644  23344589.916    95592211.18844  23344587.4724         28.2004 
        28.4004 
 111050324.87246  21132174.632    86532717.99746  21132171.7284         37.5004 
        38.0004 
 123760309.22942  23550806.108    96436595.23442  23550807.7534         17.6004 
        17.5004 
 112917274.72246  21487447.184    87987473.04746  21487447.8404         37.4004 
        37.8004 
 118741278.48245  22595707.783    92525677.70445  22595706.6004         30.6004 
        30.8004 
 122896660.25244  23386450.578    95763641.14244  23386453.8984         26.4004 
        26.3004 
 15 12 31  1 49  0.0000000  0  6G02G07G05G06G13G30
 106236417.90345  20216120.210    82781627.69445  20216113.3004         31.7004 
        31.9004 
 122661145.29044  23341635.803    95580113.90043  23341633.2364         25.6004 
        22.8004 
 111029247.36144  21128164.318    86516293.98244  21128160.8824         28.8004 
        29.2004 
 112987143.81744  21500743.310    88041916.47444  21500743.4394         28.0004 
        29.0004 
 118653027.37844  22578914.311    92456910.64444  22578912.8944         27.2004 
        26.4004 
 122838533.79343  23375389.881    95718347.89544  23375391.7904         21.6004 
        26.3004 
 15 12 31  1 49 30.0000000  0  6G02G07G05G06G13G30
 106224724.65746  20213894.200    82772516.04346  20213888.4554         38.9004 
        39.5004 
 122646062.91843  23338764.740    95568361.44944  23338763.8774         22.8004 
        26.0004 
 111008366.06246  21124190.680    86500022.83046  21124187.8714         37.6004 
        38.3004 
 113057365.88146  21514105.870    88096634.90446  21514105.8924         37.0004 
        37.4004 
 118565043.22143  22562171.257    92388351.56643  22562170.3894         23.2004 
        23.9004 
 122780655.77643  23364376.678    95673248.23643  23364378.8804         21.6004 
        20.2004 
 15 12 31  1 50  0.0000000  0  6G02G07G05G06G13G30
 106213427.64446  20211744.175    82763713.15346  20211738.7364         38.9004 
        39.1004 
 122631424.38544  23335977.857    95556954.85444  23335977.3764         28.6004 
        28.5004 
 110987680.33846  21120254.042    86483904.08746  21120251.7724         37.6004 
        38.0004 
 113127940.14046  21527534.931    88151627.77846  21527535.6364         36.9004 
        37.1004 
 118477328.00944  22545479.781    92320002.05745  22545478.6594         29.9004 
        30.2004 
 122723028.86444  23353410.981    95628344.27844  23353413.3404         26.9004 
        26.9004 
 15 12 31  1 50 30.0000000  0  6G02G07G05G06G13G30
 106202527.40446  20209670.230    82755219.43946  20209664.3404         37.3004 
        38.6004 
 122617230.22244  23333277.747    95545894.53444  23333276.2934         28.0004 
        28.5004 
 110967189.02146  21116354.916    86467936.83146  21116352.2964         37.0004 
        37.3004 
 113198865.06346  21541031.776    88206893.90646  21541032.4354         36.3004 
        36.5004 
 118389882.99545  22528839.491    92251863.11145  22528838.0914         30.1004 
        30.1004 
 122665654.96744  23342492.806    95583637.47344  23342495.0054         26.7004 
        26.9004 
 15 12 31  1 51  0.0000000  0  6G02G07G05G06G13G30
 106192025.25446  20207671.855    82747035.92146  20207665.6664         37.2004 
        38.6004 
 122603481.41644  23330662.106    95535181.25244  23330660.5954         28.2004 
        28.3004 
 110946891.21946  21112492.428    86452120.37146  21112489.2644         36.5004 
        37.3004 
 113270139.32445  21554594.502    88262432.25446  21554595.5894         35.8004 
        36.2004 
 118302709.27645  22512251.318    92183935.54845  22512249.3694         30.3004 
        30.6004 
 122608536.24844  23331623.075    95539129.47244  23331625.6814         26.4004 
        26.8004 
 15 12 31  1 51 30.0000000  0  6G02G07G05G06G13G30
 106181922.50544  20205749.917    82739163.63144  20205743.5014         29.5004 
        29.7004 
 122590179.29544  23328131.087    95524816.03844  23328128.7044         28.0004 
        28.3004 
 110926786.26444  21108666.599    86436454.20744  21108662.8784         27.9004 
        28.6004 
 113341762.00644  21568225.518    88318242.10844  21568225.7294         29.2004 
        27.2004 
 118215808.68645  22495714.110    92116220.80645  22495712.7784         30.3004 
        30.4004 
 122551675.21244  23320802.692    95494822.29144  23320803.4874         26.4004 
        26.3004 
 15 12 31  1 52  0.0000000  0  7G02G07G05G09G06G13G30
 106172228.04746  20203904.460    82731609.46546  20203898.8154         38.6004 
        38.7004 
 122577333.46043  23325685.368    95514806.36443  23325683.8174         22.3004 
        22.5004 
 110906882.04746  21104878.568    86420944.43446  21104875.4054         37.2004 
        37.9004 
 124504256.67742  23692372.908    97016305.09242  23692371.3104         13.8004 
        14.4004 
 113413740.75446  21581921.760    88374329.37846  21581922.5184         36.7004 
        36.9004 
 118129191.38145  22479231.715    92048726.78545  22479230.8474         30.6004 
        31.0004 
 122495083.03943  23310033.853    95450724.56643  23310035.3434         21.4004 
        21.7004 
 15 12 31  1 52 30.0000000  0  7G02G07G05G09G06G13G30
 106162944.28746  20202137.756    82724375.33746  20202132.2174         37.4004 
        37.8004 
 122564945.25244  23323328.067    95505153.30944  23323326.3214         26.8004 
        26.8004 
 110887178.03546  21101128.668    86405590.68346  21101126.0704         36.3004 
        36.4004 
 124611117.21242  23712707.219    97099573.01542  23712707.0584         17.1004 
        17.4004 
 113486074.93345  21595686.589    88430693.64245  21595686.8604         35.4004 
        35.8004 
 118042859.66345  22462802.249    91981455.32345  22462801.6244         30.3004 
        30.6004 
 122438762.50744  23299316.272    95406838.52644  23299317.3664         26.9004 
        26.9004 
 15 12 31  1 53  0.0000000  0  7G02G07G05G09G06G13G30
 106154062.98746  20200447.751    82717454.81546  20200441.9914         37.2004 
        37.9004 
 122553006.38744  23321056.217    95495850.38244  23321054.7264         26.9004 
        27.2004 
 110867664.47646  21097416.038    86390385.32246  21097412.9274         36.5004 
        37.7004 
 124718111.47742  23733067.545    97182945.12142  23733068.7114         17.3004 
        17.6004 
 113558754.38745  21609516.111    88487326.94345  21609517.7174         35.0004 
        35.4004 
 117956806.02745  22446427.586    91914400.53645  22446426.1794         31.0004 
        31.2004 
 122382706.98944  23288649.865    95363158.98744  23288651.4944         26.9004 
        27.4004 
 15 12 31  1 53 30.0000000  0  7G02G07G05G09G06G13G30
 106145591.91146  20198835.504    82710853.95446  20198829.8034         36.0004 
        36.8004 
 122541524.79344  23318871.836    95486903.73844  23318868.6904         26.9004 
        26.8004 
 110848346.97645  21093740.232    86375332.74446  21093737.3154         35.9004 
        37.0004 
 124825242.90043  23753454.027    97266424.10443  23753456.3054         20.9004 
        21.1004 
 113631784.48245  21623414.082    88544233.47345  21623414.3454         35.2004 
        35.5004 
 117871038.33645  22430106.221    91847568.54845  22430104.5104         30.5004 
        30.7004 
 122326925.27044  23278035.176    95319692.79644  23278035.5414         27.1004 
        27.4004 
 15 12 31  1 54  0.0000000  0  7G02G07G05G09G06G13G30
 106137530.08746  20197301.995    82704571.98646  20197295.6874         36.5004 
        37.4004 
 122530499.00944  23316773.492    95478312.29944  23316771.7454         26.6004 
        27.0004 
 110829223.16545  21090100.347    86360431.07746  21090097.7034         35.6004 
        36.0004 
 124932506.61743  23773866.503    97350006.16443  23773867.0104         20.9004 
        21.1004 
 113705162.11345  21637377.068    88601410.80945  21637377.8474         35.3004 
        35.3004 
 117785556.18545  22413840.091    91780959.08645  22413838.0974         30.7004 
        31.2004 
 122271417.83244  23267471.628    95276440.33144  23267472.1794         27.0004 
        27.3004 
 15 12 31  1 54 30.0000000  0  7G02G07G05G09G06G13G30
 106129874.10646  20195844.945    82698606.26246  20195838.8174         37.9004 
        38.2004 
 122519925.77844  23314762.260    95470073.47644  23314760.7514         27.5004 
        27.3004 
 110810287.77846  21086497.406    86345676.25046  21086494.2634         36.5004 
        37.3004 
 125039895.51843  23794301.040    97433685.77943  23794303.5834         22.0004 
        22.3004 
 113778881.95545  21651405.367    88658854.81645  21651406.6884         35.4004 
        35.8004 
 117700357.10145  22397627.871    91714570.19245  22397625.2104         30.8004 
        30.9004 
 122216182.84044  23256959.949    95233400.14744  23256961.5224         26.9004 
        27.1004 
 15 12 31  1 55  0.0000000  0  7G02G07G05G09G06G13G30
 106122629.34346  20194466.100    82692960.97146  20194460.4734         37.4004 
        38.2004 
 122509809.86444  23312836.409    95462191.02044  23312835.9864         28.2004 
        28.0004 
 110791544.00746  21082930.296    86331070.73246  21082927.5184         36.3004 
        37.1004 
 125147410.47443  23814758.962    97517463.62643  23814761.1874         22.2004 
        22.2004 
 113852946.66545  21665499.435    88716567.53145  21665501.0134         34.9004 
        35.3004 
 117615446.14845  22381469.463    91648405.82245  22381467.2294         31.8004 
        32.0004 
 122161226.45944  23246501.553    95190577.07244  23246504.4944         27.3004 
        27.1004 
 15 12 31  1 55 30.0000000  0  7G02G07G05G09G06G13G30
 106115793.96346  20193165.215    82687634.67446  20193159.8544         36.0004 
        36.6004 
 122500149.86644  23310998.459    95454663.80744  23310997.6434         28.6004 
        28.5004 
 110772988.72645  21079400.049    86316612.08746  21079396.7014         35.2004 
        36.6004 
 125255046.09843  23835242.424    97601335.50743  23835241.9784         22.2004 
        22.2004 
 113927352.59245  21679659.099    88774546.14645  21679659.0534         35.2004 
        35.7004 
 117530822.62445  22365366.382    91582465.43045  22365364.2074         31.6004 
        31.9004 
 122106548.55544  23236097.389    95147970.95944  23236098.4704         27.3004 
        27.4004 
 15 12 31  1 56  0.0000000  0  7G02G07G05G09G06G13G30
 106109372.93246  20191943.384    82682631.24646  20191938.0194         37.1004 
        38.1004 
 122490950.04244  23309245.643    95447495.17044  23309244.9014         27.8004 
        27.9004 
 110754624.64045  21075904.947    86302302.42146  21075902.1054         35.7004 
        36.2004 
 125362803.10843  23855747.858    97685301.95843  23855748.0814         21.2004 
        21.3004 
 114002102.20945  21693883.473    88832792.56545  21693883.7434         35.3004 
        35.7004 
 117446491.63545  22349318.603    91516752.98045  22349316.7314         31.9004 
        32.1004 
 122052155.13144  23225747.549    95105586.50644  23225747.9824         27.4004 
        28.0004 
 15 12 31  1 56 30.0000000  0  7G02G07G05G09G06G13G30
 106103367.55746  20190800.899    82677951.71346  20190795.2684         37.4004 
        38.1004 
 122482211.75144  23307584.424    95440686.15844  23307581.0224         27.4004 
        27.6004 
 110736451.42046  21072446.901    86288141.48546  21072443.8944         36.6004 
        37.2004 
 125470679.11743  23876275.250    97769361.14143  23876275.5594         21.0004 
        21.3004 
 114077194.82645  21708172.998    88891306.24845  21708173.3314         35.6004 
        35.5004 
 117362455.07345  22333326.726    91451269.96245  22333324.5024         31.6004 
        31.9004 
 121998049.05344  23215451.620    95063425.93344  23215452.1164         29.0004 
        29.0004 
 15 12 31  1 57  0.0000000  0  7G02G07G05G09G06G13G30
 106097780.63346  20189738.066    82673598.24346  20189731.8274         37.6004 
        38.2004 
 122473937.77544  23306009.767    95434238.95344  23306006.5884         27.9004 
        27.8004 
 110718470.22046  21069024.852    86274130.16946  21069022.0714         36.8004 
        37.5004 
 125578673.02743  23896826.050    97853512.20843  23896826.9474         21.0004 
        21.2004 
 114152631.03145  21722527.903    88950087.68146  21722528.9764         35.4004 
        36.1004 
 117278716.35845  22317392.045    91386019.02945  22317390.5844         31.7004 
        32.0004 
 121944234.43844  23205209.404    95021492.48044  23205211.7724         29.0004 
        28.9004 
 15 12 31  1 57 30.0000000  0  7G02G07G05G09G06G13G30
 106092610.80346  20188753.733    82669569.79446  20188747.9384         38.6004 
        39.0004 
 122466126.40044  23304525.055    95428152.21844  23304520.6544         29.2004 
        29.3004 
 110700677.61746  21065639.305    86260265.81846  21065636.3104         37.1004 
        37.8004 
 125686779.46643  23917398.917    97937750.95243  23917400.5304         21.5004 
        21.8004 
 114228407.17546  21736947.472    89009133.99446  21736949.2994         36.2004 
        36.5004 
 117195274.59745  22301513.297    91320999.50445  22301511.9284         32.1004 
        32.4004 
 121890711.17944  23195025.640    94979786.03144  23195027.4234         28.3004 
        28.6004 
 15 12 31  1 58  0.0000000  0  7G02G07G05G09G06G13G30
 106087861.11846  20187849.925    82665868.72546  20187844.0194         38.7004 
        39.4004 
 122458780.08144  23303125.993    95422427.87744  23303123.2344         28.9004 
        29.2004 
 110683074.84846  21062289.866    86246549.39146  21062286.3424         38.0004 
        38.7004 
 125794997.47843  23937993.219    98022076.66443  23937994.5494         22.6004 
        21.8004 
 114304523.94546  21751432.208    89068445.72746  21751433.0984         37.1004 
        37.2004 
 117112132.98445  22285692.947    91256213.85245  22285690.3214         32.6004 
        32.2004 
 121837483.55344  23184896.332    94938309.98544  23184898.0804         28.2004 
        28.4004 
 15 12 31  1 58 30.0000000  0  7G02G07G05G09G06G13G30
 106083531.56046  20187025.937    82662495.03046  20187020.4614         38.2004 
        38.9004 
 122451899.05544  23301816.883    95417066.08744  23301815.6964         29.1004 
        29.2004 
 110665660.69246  21058975.438    86232979.93346  21058972.5924         36.0004 
        36.7004 
 125903323.30743  23958606.433    98106486.38543  23958609.2924         22.6004 
        23.1004 
 114380979.19245  21765981.329    89128021.22245  21765982.0014         35.6004 
        35.9004 
 117029292.38745  22269928.156    91191662.77845  22269925.8864         33.1004 
        32.9004 
 121784552.94444  23174824.577    94897065.39644  23174826.2834         28.6004 
        28.8004 
 15 12 31  1 59  0.0000000  0  7G02G07G05G09G06G13G30
 106079627.06446  20186283.066    82659452.55646  20186277.7234         38.8004 
        39.2004 
 122445487.73944  23300596.415    95412070.29244  23300594.7944         28.3004 
        28.4004 
 110648438.06846  21055698.387    86219559.72046  21055695.2784         37.1004 
        37.8004 
 126011758.05443  23979240.098    98190980.96143  23979242.5464         23.2004 
        23.1004 
 114457775.71446  21780595.435    89187862.62046  21780595.8134         36.6004 
        36.6004 
 116946758.09445  22254222.712    91127350.37545  22254220.3374         32.3004 
        32.7004 
 121731925.73544  23164807.908    94856057.24244  23164811.2524         28.2004 
        28.4004 
 15 12 31  1 59 30.0000000  0  8G02G07G05G09G06G13G30G15
 106076145.30445  20185620.743    82656739.48645  20185615.0504         35.3004 
        35.9004 
 122439543.63444  23299463.032    95407438.56044  23299464.1004         27.6004 
        27.7004 
 110631403.00945  21052456.445    86206285.67246  21052453.7024         35.2004 
        36.1004 
 126120295.55143  23999893.729    98275555.59543  23999895.6424         22.7004 
        22.4004 
 114534908.87746  21795273.321    89247966.33745  21795273.7694         36.8004 
        35.7004 
 116864528.25745  22238574.297    91063275.21145  22238572.5054         33.0004 
        33.2004 
 121679600.87444  23154851.690    94815284.69344  23154854.7284         28.5004 
        28.4004 
 132782247.91042  25267623.488   103466691.83443  25267623.1124         17.5004 
        20.0004 
 15 12 31  2  0  0.0000000  0  8G02G07G05G09G06G13G30G15
 106073090.16046  20185039.172    82654358.85146  20185033.3694         38.6004 
        38.8004 
 122434070.56644  23298422.614    95403173.85844  23298422.4374         26.7004 
        26.6004 
 110614557.58946  21049251.493    86193159.36846  21049247.9984         38.2004 
        38.8004 
 126228935.95543  24020568.295    98360210.41443  24020567.8824         22.7004 
        22.4004 
 114612380.42946  21810015.161    89308333.74646  21810016.7794         37.1004 
        37.3004 
 116782607.56445  22222984.982    90999440.93345  22222983.7204         33.3004 
        33.5004 
 121627583.67944  23144952.246    94774751.89644  23144955.6204         28.8004 
        28.9004 
 132680901.88142  25248338.049   103387720.90242  25248337.3184         17.5004 
        17.4004 
 15 12 31  2  0 30.0000000  0  8G02G07G05G09G06G13G30G15
 106070459.59646  20184538.832    82652309.06046  20184532.5964         38.2004 
        38.8004 
 122429065.89544  23297471.532    95399274.17144  23297467.6424         26.2004 
        26.3004 
 110597898.23446  21046081.010    86180178.05646  21046077.9334         37.8004 
        38.3004 
 126337673.32743  24041260.973    98444940.78343  24041258.5214         21.7004 
        21.1004 
 114690186.04146  21824821.870    89368961.44646  21824822.3874         36.7004 
        37.0004 
 116700994.08845  22207455.341    90935846.05745  22207453.0674         33.9004 
        33.8004 
 121575873.36845  23135114.175    94734458.23945  23135115.0194         30.3004 
        30.3004 
 132579625.41042  25229065.718   103308804.18442  25229064.3714         16.1004 
        16.0004 
 15 12 31  2  1  0.0000000  0  8G02G07G05G09G06G13G30G15
 106068258.85246  20184119.979    82650594.20446  20184113.9484         38.4004 
        39.2004 
 122424534.64344  23296609.043    95395743.39644  23296603.7094         25.9004 
        25.9004 
 110581428.27946  21042946.585    86167344.34146  21042943.7644         38.2004 
        38.6004 
 126446508.97943  24061967.981    98529747.74343  24061967.8004         18.4004 
        21.1004 
 114768328.56445  21839690.443    89429851.68745  21839692.7814         35.5004 
        35.8004 
 116619693.40745  22191984.212    90872494.91645  22191982.0354         32.9004 
        32.9004 
 121524476.33445  23125332.596    94694408.71345  23125334.2394         30.3004 
        30.4004 
 132478423.66342  25209807.466   103229945.66842  25209808.1234         16.1004 
        16.0004 
 15 12 31  2  1 30.0000000  0  8G02G07G05G09G06G13G30G15
 106066485.45446  20183782.608    82649212.34146  20183776.7014         38.8004 
        39.0004 
 122420474.31844  23295837.188    95392579.59144  23295832.1054         25.9004 
        26.3004 
 110565144.02746  21039847.841    86154655.31546  21039845.0194         37.6004 
        38.1004 
 126555437.06743  24082692.871    98614626.71842  24082696.0944         18.4004 
        17.0004 
 114846803.62446  21854624.456    89491001.04946  21854625.8924         36.0004 
        36.2004 
 116538704.02845  22176573.082    90809386.34245  22176569.8484         33.5004 
        33.7004 
 121473391.79044  23115612.271    94654602.69444  23115613.1774         29.6004 
        29.7004 
 132377294.94842  25190564.214   103151144.05242  25190562.9234         15.1004 
        15.3004 
 15 12 31  2  2  0.0000000  0  8G02G07G05G09G06G13G30G15
 106065144.61746  20183527.219    82648167.53446  20183521.7394         38.4004 
        39.2004 
 122416889.86244  23295154.251    95389786.57344  23295150.1904         27.6004 
        27.5004 
 110549048.94846  21036784.782    86142113.70746  21036782.0734         37.9004 
        38.3004 
 126664458.95042  24103439.618    98699578.76842  24103441.9994         14.8004 
        17.0004 
 114925614.18445  21869622.062    89552411.84146  21869622.9584         35.9004 
        36.3004 
 116458031.60145  22161221.381    90746524.75445  22161218.5694         33.2004 
        33.6004 
 121422626.27744  23105950.850    94615045.27244  23105952.5704         29.0004 
        29.0004 
 132276244.86642  25171334.669   103072403.64242  25171332.6504         15.1004 
        15.3004 
 15 12 31  2  2 30.0000000  0  8G02G07G05G09G06G13G30G15
 106064238.01146  20183354.664    82647461.09246  20183349.5454         39.6004 
        39.8004 
 122413782.57144  23294562.695    95387365.38644  23294560.1084         28.2004 
        28.5004 
 110533143.20246  21033758.193    86129719.62046  21033755.1574         37.7004 
        38.9004 
 126773572.69042  24124208.291    98784602.44042  24124207.9674         14.8004 
        14.3004 
 115004759.62745  21884683.206    89614083.56645  21884683.5424         35.4004 
        35.7004 
 116377678.03345  22145929.439    90683911.62045  22145927.6914         33.2004 
        33.5004 
 121372182.72344  23096351.467    94575738.73444  23096354.3984         27.9004 
        28.2004 
 132175275.24242  25152120.823   102993725.88842  25152119.6054         15.7004 
        15.9004 
 15 12 31  2  3  0.0000000  0  8G02G07G05G09G06G13G30G15
 106063766.02746  20183265.233    82647093.31545  20183259.5124         38.1004 
        35.2004 
 122411152.48444  23294061.834    95385316.04344  23294060.5164         29.0004 
        29.3004 
 110517425.31946  21030767.100    86117471.93346  21030764.3664         37.2004 
        37.7004 
 126882774.82342  24144990.421    98869694.99942  24144987.8234         15.2004 
        14.3004 
 115084238.08946  21899808.002    89676014.80346  21899807.3924         36.3004 
        36.8004 
 116297644.52545  22130699.453    90621547.89345  22130696.9154         33.1004 
        33.1004 
 121322062.89544  23086814.363    94536684.45344  23086816.2314         28.1004 
        28.4004 
 132074386.86242  25132922.418   102915111.43942  25132920.1324         15.7004 
        15.9004 
 15 12 31  2  3 30.0000000  0  8G02G07G05G09G06G13G30G15
 106063729.69046  20183258.397    82647065.00546  20183251.8554         38.4004 
        39.1004 
 122409000.47844  23293651.582    95383639.22444  23293652.5834         27.5004 
        27.1004 
 110501894.94646  21027812.015    86105370.34646  21027809.3494         38.4004 
        38.8004 
 126992062.89942  24165787.692    98954854.53242  24165787.1034         15.2004 
        15.0004 
 115164048.42546  21914994.813    89738204.60946  21914995.8104         36.5004 
        36.6004 
 116217932.64245  22115531.149    90559434.76345  22115528.7054         33.8004 
        33.9004 
 121272269.23444  23077339.094    94497884.27744  23077340.6444         26.8004 
        27.1004 
 131973581.16542  25113740.304   102836561.41642  25113738.7164         16.7004 
        16.9004 
 15 12 31  2  4  0.0000000  0  8G02G07G05G09G06G13G30G15
 106064129.20846  20183334.042    82647376.32946  20183327.7334         38.7004 
        39.3004 
 122407325.96745  23293334.052    95382334.48845  23293332.5794         30.0004 
        30.0004 
 110486550.55646  21024892.474    86093413.69046  21024889.3054         38.7004 
        39.4004 
 127101433.27342  24186600.163    99040078.18042  24186598.6634         14.6004 
        15.0004 
 115244188.54145  21930245.341    89800651.40146  21930245.9034         35.7004 
        36.1004 
 116138542.97245  22100424.518    90497572.71645  22100421.5984         33.7004 
        34.0004 
 121222803.17245  23067926.112    94459339.38145  23067927.0394         30.0004 
        30.2004 
 131872858.76842  25094571.724   102758076.33942  25094573.5494         17.5004 
        16.9004 
 15 12 31  2  4 30.0000000  0  8G02G07G05G09G06G13G30G15
 106064970.61146  20183494.131    82648031.98546  20183488.7834         39.1004 
        39.5004 
 122406134.85344  23293106.863    95381406.42144  23293105.3154         29.8004 
        29.7004 
 110471396.84646  21022008.260    86081605.61846  21022005.5074         38.5004 
        39.1004 
 127210888.49042  24207427.274    99125367.95442  24207425.7974         14.6004 
        15.5004 
 115324662.30345  21945558.105    89863358.18145  21945559.5464         35.4004 
        35.6004 
 116059482.13845  22085379.472    90435966.91245  22085376.7454         33.7004 
        34.1004 
 121173672.25945  23058576.545    94421055.62945  23058578.2034         30.3004 
        30.2004 
 131772226.22142  25075422.278   102679661.29042  25075423.0604         17.5004 
        17.7004 
 15 12 31  2  5  0.0000000  0  8G02G07G05G09G06G13G30G15
 106066251.87646  20183737.492    82649030.38546  20183733.0184         38.5004 
        39.3004 
 122405425.06144  23292971.613    95380853.42144  23292968.9904         29.3004 
        29.5004 
 110456430.24646  21019160.448    86069943.34546  21019157.2724         39.0004 
        39.3004 
 127320422.84342  24228271.064    99210719.38842  24228268.9284         15.7004 
        15.5004 
 115405465.43045  21960934.483    89926321.61345  21960936.3414         35.8004 
        35.9004 
 115980748.66545  22070396.708    90374616.17445  22070395.0474         34.6004 
        34.7004 
 121124875.72544  23049290.490    94383032.42244  23049290.7834         29.8004 
        29.8004 
 131671681.79842  25056290.616   102601314.89042  25056291.0934         17.6004 
        17.7004 
 15 12 31  2  5 30.0000000  0  8G02G07G05G09G06G13G30G15
 106067972.32346  20184065.246    82650371.00046  20184059.7114         37.9004 
        39.9004 
 122405195.64944  23292928.410    95380674.73344  23292925.0344         28.9004 
        28.6004 
 110441648.56246  21016347.092    86058425.17146  21016344.4004         38.3004 
        38.9004 
 127430032.31542  24249127.933    99296129.33442  24249129.0464         15.7004 
        16.3004 
 115486595.20845  21976373.782    89989539.56645  21976374.2204         35.0004 
        35.5004 
 115902342.33545  22055476.343    90313520.35345  22055474.2844         32.9004 
        33.1004 
 121076414.50544  23040068.946    94345270.47944  23040068.7224         28.2004 
        28.9004 
 131571225.55242  25037174.652   102523037.19443  25037176.4654         17.6004 
        18.4004 
 15 12 31  2  6  0.0000000  0  8G02G07G05G09G06G13G30G15
 106070136.10746  20184476.886    82652057.08746  20184471.0744         39.2004 
        39.8004 
 122405449.90744  23292975.865    95380872.93144  23292972.7244         27.7004 
        28.0004 
 110427054.27146  21013569.844    86047053.00946  21013567.1414         37.3004 
        37.9004 
 127539717.21942  24270001.594    99381598.06042  24270003.8024         17.1004 
        16.3004 
 115568053.36245  21991874.088    90053013.41445  21991875.9294         34.6004 
        35.9004 
 115824268.01145  22040618.628    90252683.24345  22040616.7304         33.5004 
        33.5004 
 121028293.96244  23030911.561    94307773.98744  23030912.1224         27.0004 
        27.8004 
 131470861.63943  25018075.317   102444831.42943  25018076.7834         18.3004 
        18.4004 
 15 12 31  2  6 30.0000000  0  8G02G07G05G09G06G13G30G15
 106072744.43646  20184973.474    82654089.55846  20184967.7714         37.9004 
        38.3004 
 122406188.65644  23293116.716    95381448.64244  23293114.1644         27.2004 
        27.6004 
 110412647.04446  21010828.939    86035826.61846  21010825.5964         38.4004 
        39.1004 
 127649475.08043  24290885.468    99467123.67743  24290889.9824         19.0004 
        18.0004 
 115649838.82945  22007438.345    90116742.28445  22007439.1624         35.4004 
        35.7004 
 115746526.92645  22025825.897    90192105.79345  22025823.2914         34.2004 
        34.4004 
 120980516.54644  23021819.339    94270544.86144  23021819.9854         27.2004 
        26.9004 
 131370591.83843  24998996.877   102366699.00042  24998994.9874         18.3004 
        17.7004 
 15 12 31  2  7  0.0000000  0  8G02G07G05G09G06G13G30G15
 106075794.66846  20185554.159    82656466.36546  20185548.3644         38.9004 
        39.2004 
 122407409.35144  23293349.084    95382399.88644  23293348.0964         27.2004 
        27.3004 
 110398423.32846  21008121.987    86024743.22446  21008118.7764         38.4004 
        38.8004 
 127759300.25443  24311784.659    99552701.74943  24311789.4464         19.0004 
        19.3004 
 115731947.14445  22023062.587    90180722.73345  22023063.2734         35.3004 
        35.3004 
 115669117.65345  22011095.223    90131786.89845  22011092.9464         34.1004 
        34.4004 
 120933081.46644  23012793.668    94233582.50144  23012793.2224         27.9004 
        28.4004 
 131270414.47542  24979933.527   102288638.67742  24979930.1754         16.4004 
        17.7004 
 15 12 31  2  7 30.0000000  0  8G02G07G05G09G06G13G30G15
 106079291.41546  20186219.555    82659191.10346  20186213.6194         38.5004 
        39.1004 
 122409116.40044  23293673.114    95383730.08744  23293674.1944         26.5004 
        26.8004 
 110384386.07446  21005450.852    86013805.12446  21005447.7834         39.2004 
        39.2004 
 127869193.63343  24332697.510    99638332.97443  24332700.0724         18.3004 
        19.3004 
 115814380.58945  22038749.600    90244956.53345  22038749.6344         35.1004 
        35.4004 
 115592045.05045  21996428.435    90071730.35345  21996426.5514         34.2004 
        34.6004 
 120885994.61244  23003832.820    94196891.46044  23003833.6454         29.0004 
        28.8004 
 131170334.22442  24960888.011   102210654.12742  24960886.6194         16.4004 
        16.4004 
 15 12 31  2  8  0.0000000  0  8G02G07G05G09G06G13G30G15
 106083239.53746  20186970.573    82662267.56546  20186964.6744         38.2004 
        39.3004 
 122411313.83744  23294090.751    95385442.41444  23294091.1114         27.0004 
        26.8004 
 110370538.33646  21002815.424    86003014.69846  21002812.3664         38.1004 
        38.5004 
 127979156.53843  24353622.115    99724018.36743  24353624.4274         18.3004 
        18.2004 
 115897141.71245  22054497.968    90309445.66845  22054499.0894         34.7004 
        35.0004 
 115515314.62345  21981826.919    90011940.44745  21981824.4294         33.8004 
        34.1004 
 120839262.16644  22994940.744    94160476.56944  22994941.8254         29.8004 
        29.8004 
 131070356.58742  24941862.795   102132749.57043  24941861.2934         17.2004 
        18.7004 
 15 12 31  2  8 30.0000000  0  8G02G07G05G09G06G13G30G15
 106087633.49346  20187806.159    82665691.44046  20187800.8834         38.8004 
        39.6004 
 122413995.71144  23294603.201    95387532.22544  23294599.8254         27.3004 
        27.8004 
 110356873.32846  21000214.662    85992366.65946  21000212.1134         38.5004 
        39.0004 
 128089179.83243  24374560.339    99809750.79943  24374560.2094         18.5004 
        18.2004 
 115980222.59345  22070307.288    90374183.98045  22070308.6824         34.4004 
        34.8004 
 115438921.27045  21967290.244    89952413.19045  21967287.7634         34.3004 
        34.5004 
 120792879.81145  22986113.397    94124334.50044  22986116.3384         30.0004 
        29.7004 
 130970476.14543  24922855.860   102054920.74243  24922855.2454         20.3004 
        18.7004 
 15 12 31  2  9  0.0000000  0  8G02G07G05G09G06G13G30G15
 106092478.06346  20188728.565    82669466.43146  20188722.7684         38.4004 
        38.8004 
 122417166.64744  23295205.419    95390003.13844  23295202.8444         28.0004 
        28.2004 
 110343394.48146  20997650.890    85981863.68646  20997647.2614         38.7004 
        39.3004 
 128199265.02343  24395509.629    99895531.44043  24395509.4434         18.5004 
        19.1004 
 116063626.02845  22086178.915    90439173.61345  22086180.4574         35.0004 
        35.5004 
 115362870.40145  21952818.190    89893152.81245  21952815.9014         34.5004 
        34.8004 
 120746853.91344  22977354.729    94088470.21444  22977356.7144         29.3004 
        29.4004 
 130870698.65743  24903868.781   101977172.10843  24903867.0714         20.3004 
        21.2004 
 15 12 31  2  9 30.0000000  0  8G02G07G05G09G06G13G30G15
 106097773.27946  20189736.444    82673592.57146  20189730.4284         38.4004 
        38.8004 
 122420826.20844  23295903.112    95392854.79844  23295899.5834         28.2004 
        28.2004 
 110330100.77146  20995120.362    85971504.98946  20995117.6164         38.9004 
        39.3004 
 128309408.82343  24416468.112    99981357.75843  24416469.1654         18.8004 
        19.1004 
 116147349.91545  22102111.010    90504412.95545  22102111.4664         34.8004 
        35.1004 
 115287162.59845  21938411.308    89834159.76945  21938409.2754         34.7004 
        35.0004 
 120701186.04244  22968665.633    94052884.92244  22968665.7894         29.0004 
        29.1004 
 130771024.76543  24884901.968   101899504.20043  24884899.1504         20.3004 
        21.2004 
 15 12 31  2 10  0.0000000  0  8G02G07G05G09G06G13G30G15
 106103519.65546  20190829.901    82678070.26446  20190824.1804         38.7004 
        39.2004 
 122424974.38144  23296691.805    95396087.18644  23296688.9324         29.3004 
        29.4004 
 110316991.09146  20992626.070    85961289.68246  20992622.9834         38.9004 
        39.4004 
 128419608.37843  24437438.775   100067227.49143  24437438.9664         18.3004 
        18.4004 
 116231392.55145  22118103.931    90569900.68345  22118104.5494         34.8004 
        35.1004 
 115211799.28945  21924070.265    89775435.15545  21924067.5694         34.5004 
        34.8004 
 120655878.12144  22960042.484    94017580.13144  22960043.6974         28.9004 
        28.9004 
 130671455.17543  24865953.706   101821917.59343  24865953.5244         20.3004 
        18.2004 
 15 12 31  2 10 30.0000000  0  8G02G07G05G09G06G13G30G15
 106109717.53746  20192009.283    82682899.77846  20192003.6274         38.5004 
        39.0004 
 122429611.33545  23297573.505    95399700.44045  23297572.8364         30.2004 
        30.4004 
 110304064.48546  20990165.638    85951217.02046  20990163.1224         39.5004 
        39.6004 
 128529860.60143  24458419.476   100153138.27543  24458419.1544         18.3004 
        18.6004 
 116315752.07445  22134157.189    90635635.31645  22134158.0524         35.2004 
        35.4004 
 115136780.86145  21909794.781    89716979.28745  21909792.3004         35.1004 
        35.1004 
 120610931.83744  22951490.309    93982557.13345  22951491.5714         29.7004 
        30.1004 
 130571990.52242  24847025.411   101744412.78543  24847027.1954         17.0004 
        18.2004 
 15 12 31  2 11  0.0000000  0  8G02G07G05G09G06G13G30G15
 106116374.09946  20193275.973    82688086.71246  20193270.3794         39.3004 
        39.4004 
 122434743.35745  23298550.452    95403699.45145  23298548.2444         30.3004 
        30.5004 
 110291326.69346  20987741.670    85941291.48446  20987739.0604         39.5004 
        39.8004 
 128640169.28043  24479411.238   100239093.03143  24479409.5104         18.8004 
        18.6004 
 116400433.32645  22150271.287    90701620.65645  22150272.2424         35.5004 
        35.5004 
 115062115.14245  21895586.077    89658798.26945  21895583.9184         35.0004 
        35.2004 
 120566355.72045  22943007.435    93947822.60145  22943007.9494         30.0004 
        30.2004 
 130472638.78143  24828119.330   101666995.96343  24828119.6244         20.6004 
        18.7004 
 15 12 31  2 11 30.0000000  0  8G02G07G05G09G06G13G30G15
 106123485.80046  20194628.770    82693628.29346  20194623.6414         39.0004 
        39.3004 
 122440367.01245  23299619.430    95408081.56045  23299617.3124         30.2004 
        30.3004 
 110278773.19846  20985352.871    85931509.55846  20985350.1184         39.1004 
        39.5004 
 128750527.74743  24500412.304   100325086.55143  24500409.5684         18.8004 
        19.9004 
 116485430.79645  22166445.748    90767852.41245  22166447.4384         34.9004 
        35.1004 
 114987799.39745  21881444.508    89600889.95545  21881442.2604         35.3004 
        35.7004 
 120522147.79444  22934594.890    93913374.98744  22934594.7824         29.7004 
        29.9004 
 130373397.22743  24809234.201   101589664.95243  24809233.4434         20.6004 
        21.9004 
 15 12 31  2 12  0.0000000  0  8G02G07G05G09G06G13G30G15
 106131053.46946  20196069.131    82699525.16846  20196063.6874         39.1004 
        39.2004 
 122446482.71045  23300783.997    95412847.06345  23300782.0124         30.2004 
        30.4004 
 110266403.55146  20982999.439    85921870.89846  20982995.9244         39.3004 
        39.5004 
 128860933.62143  24521422.039   100411117.03443  24521419.3624         20.1004 
        19.9004 
 116570743.26745  22182680.771    90834329.60145  22182682.6244         35.1004 
        35.3004 
 114913835.08745  21867369.357    89543255.48645  21867367.5424         35.1004 
        35.5004 
 120478310.51844  22926252.897    93879216.19544  22926252.7574         29.7004 
        29.8004 
 130274267.20843  24790370.856   101512420.83543  24790371.7964         21.6004 
        21.9004 
 15 12 31  2 12 30.0000000  0  8G02G07G05G09G06G13G30G15
 106139081.20746  20197597.046    82705780.53046  20197591.3164         39.1004 
        39.7004 
 122453093.66845  23302043.325    95417998.49545  23302039.5604         30.3004 
        30.3004 
 110254220.44446  20980680.999    85912377.58546  20980677.2584         39.1004 
        39.4004 
 128971387.47743  24542439.787   100497184.91343  24542438.7194         19.9004 
        20.4004 
 116656372.33145  22198974.483    90901053.51745  22198975.8504         34.6004 
        34.7004 
 114840226.60645  21853361.627    89485898.30245  21853360.3064         35.7004 
        35.5004 
 120434849.00545  22917983.023    93845350.24245  22917982.1644         30.2004 
        30.3004 
 130175253.10643  24771529.996   101435266.99343  24771530.5254         19.9004 
        20.3004 
 15 12 31  2 13  0.0000000  0  8G02G07G05G09G06G13G30G15
 106147567.54746  20199212.365    82712393.25046  20199206.2424         38.3004 
        38.0004 
 122460197.88145  23303394.634    95423534.29545  23303391.3794         30.0004 
        30.2004 
 110242220.64246  20978397.604    85903027.10946  20978394.1654         38.5004 
        40.0004 
 129081884.30743  24563467.317   100583286.26543  24563467.8394         19.9004 
        20.4004 
 116742313.99845  22215329.644    90968020.99745  22215330.3714         35.1004 
        35.3004 
 114766972.69145  21839422.153    89428817.38246  21839419.9734         35.5004 
        36.2004 
 120391762.89245  22909783.445    93811776.81745  22909782.7924         30.5004 
        30.6004 
 130076353.77743  24752711.133   101358202.59443  24752710.8994         19.9004 
        21.1004 
 15 12 31  2 13 30.0000000  0  8G02G07G05G09G06G13G30G15
 106156508.62946  20200913.706    82719360.31346  20200907.5744         39.2004 
        39.6004 
 122467791.37745  23304839.479    95429451.34945  23304837.7334         30.5004 
        30.6004 
 110230399.94046  20976148.038    85893816.18546  20976144.5444         39.2004 
        39.5004 
 129192417.52042  24584502.031   100669415.96543  24584500.9744         17.7004 
        18.4004 
 116828562.97245  22231741.975    91035227.92245  22231742.8264         35.1004 
        35.3004 
 114694070.94745  21825549.533    89372010.89145  21825547.3544         35.4004 
        35.7004 
 120349050.50945  22901655.331    93778494.60245  22901655.4384         31.2004 
        31.3004 
 129977566.66643  24733911.669   101281225.62643  24733911.9344         21.7004 
        21.1004 
 15 12 31  2 14  0.0000000  0  8G02G07G05G09G06G13G30G15
 106165909.99746  20202702.391    82726686.03846  20202696.3244         37.9004 
        39.5004 
 122475879.51645  23306378.273    95435753.82245  23306376.8384         30.1004 
        30.2004 
 110218762.47746  20973933.122    85884748.04846  20973930.3314         37.7004 
        38.8004 
 129302989.78442  24605540.276   100755576.13742  24605543.3084         17.7004 
        16.7004 
 116915122.64845  22248214.011    91102676.96645  22248214.5764         34.7004 
        35.0004 
 114621527.60345  21811744.770    89315483.66846  21811742.2184         35.1004 
        36.0004 
 120306718.83845  22893600.559    93745509.04645  22893599.7514         31.4004 
        31.7004 
 129878898.03743  24715134.323   101204340.94043  24715135.4644         21.9004 
        22.3004 
 15 12 31  2 14 30.0000000  0  8G02G07G05G09G06G13G30G15
 106175772.62446  20204578.673    82734371.18446  20204573.2224         39.1004 
        39.6004 
 122484462.63144  23308011.010    95442442.00345  23308009.4154         29.8004 
        30.1004 
 110207308.18446  20971753.959    85875822.63446  20971750.7634         39.1004 
        39.4004 
 129413598.61542  24626582.952   100841764.80542  24626590.6334         16.3004 
        16.7004 
 117001991.72245  22264745.011    91170367.12145  22264745.2344         34.8004 
        35.0004 
 114549343.69645  21798009.057    89259236.53846  21798006.9194         35.9004 
        36.3004 
 120264770.14045  22885616.926    93712821.89645  22885617.0144         31.5004 
        31.8004 
 129780349.33943  24696379.054   101127549.70343  24696381.9254         21.9004 
        22.3004 
 15 12 31  2 15  0.0000000  0  8G02G07G05G09G06G13G30G15
 106186100.15046  20206544.506    82742418.58846  20206538.6774         37.8004 
        38.6004 
 122493543.78244  23309738.417    95449518.26944  23309737.3994         29.3004 
        29.7004 
 110196039.18246  20969609.766    85867041.61446  20969606.0354         38.5004 
        39.1004 
 129524244.48542  24647642.873   100927982.33642  24647645.2144         16.3004 
        14.9004 
 117089171.47345  22281334.286    91238299.33945  22281336.0824         34.4004 
        34.5004 
 114477523.32745  21784341.728    89203272.68046  21784339.2224         35.3004 
        36.0004 
 120223209.35145  22877707.514    93680437.00645  22877707.4924         30.6004 
        31.1004 
 129681924.61943  24677650.713   101050855.06643  24677653.0234         20.7004 
        20.9004 
 15 12 31  2 15 30.0000000  0  8G02G07G05G09G06G13G30G15
 106196888.26846  20208597.929    82750824.89246  20208591.5384         38.7004 
        39.0004 
 122503117.59044  23311561.273    95456978.42244  23311557.8924         29.0004 
        29.3004 
 110184949.66546  20967499.206    85858400.44846  20967495.5514         38.2004 
        38.8004 
 129634919.57742  24668706.939   101014222.63142  24668705.6864         14.8004 
        14.9004 
 117176655.13645  22297981.653    91306468.38145  22297983.2154         34.0004 
        34.0004 
 114406062.84845  21770743.018    89147589.24445  21770740.5184         35.2004 
        35.8004 
 120182033.31645  22869873.398    93648351.92145  22869872.4854         30.8004 
        30.6004 
 129583619.96943  24658944.148   100974253.98943  24658946.3564         21.1004 
        21.3004 
 15 12 31  2 16  0.0000000  0  8G02G07G05G09G06G13G30G15
 106208145.57046  20210740.244    82759596.80146  20210734.1174         39.2004 
        39.8004 
 122513192.93244  23313477.756    95464829.40044  23313474.8744         29.4004 
        29.6004 
 110174047.47946  20965424.843    85849905.24146  20965421.0874         39.2004 
        39.4004 
 129745629.95642  24689776.172   101100490.41142  24689773.4614         14.8004 
        15.5004 
 117264449.70745  22314688.424    91374879.69645  22314690.3974         33.8004 
        34.3004 
 114334971.65145  21757214.586    89092193.55145  21757212.4564         35.5004 
        35.8004 
 120141252.57045  22862113.245    93616574.85145  22862111.9044         31.1004 
        31.2004 
 129485445.26343  24640263.693   100897754.13743  24640263.8814         21.1004 
        21.3004 
 15 12 31  2 16 30.0000000  0  8G02G07G05G09G06G13G30G15
 106219870.42946  20212971.175    82768733.03346  20212965.2494         39.1004 
        39.8004 
 122523767.51944  23315490.969    95473069.38644  23315487.1994         29.7004 
        29.7004 
 110163330.05146  20963384.375    85841554.00546  20963381.5964         39.1004 
        39.3004 
 129856370.80542  24710848.395   101186781.92642  24710846.4074         15.5004 
        15.5004 
 117352551.31145  22331454.092    91443530.21945  22331455.1734         33.9004 
        34.2004 
 114264248.69345  21743756.757    89037084.81645  21743754.3764         35.5004 
        35.9004 
 120100866.77745  22854427.456    93585105.53645  22854427.1654         31.3004 
        31.4004 
 129387399.20043  24621605.950   100821354.48843  24621606.8694         20.2004 
        20.3004 
 15 12 31  2 17  0.0000000  0  8G02G07G05G09G06G13G30G15
 106232060.61646  20215290.579    82778231.86146  20215284.9114         37.3004 
        38.1004 
 122534839.01045  23317598.026    95481696.59545  23317595.9914         30.1004 
        30.5004 
 110152794.38346  20961379.966    85833344.41746  20961376.6464         38.1004 
        39.3004 
 129967136.84742  24731926.739   101273093.08042  24731924.8094         15.5004 
        14.5004 
 117440955.60945  22348276.925    91512416.61545  22348277.5304         33.6004 
        34.0004 
 114193892.36045  21730369.055    88982261.75246  21730366.4864         35.4004 
        36.3004 
 120060875.20245  22846816.557    93553943.37345  22846816.1514         31.1004 
        31.0004 
 129289480.52243  24602972.494   100745054.15243  24602973.2264         20.2004 
        21.4004 
 15 12 31  2 17 30.0000000  0  8G02G07G05G09G06G13G30G15
 106244713.69246  20217698.681    82788091.38946  20217692.7074         39.6004 
        39.9004 
 122546403.70245  23319798.410    95490708.08145  23319797.0174         30.4004 
        30.7004 
 110142436.55946  20959409.207    85825273.41046  20959405.7714         39.5004 
        40.1004 
 130077922.59342  24753008.420   101359419.60042  24753006.2934         13.8004 
        14.5004 
 117529657.91945  22365155.938    91581535.23245  22365156.8414         33.2004 
        33.4004 
 114123900.93246  21717049.402    88927723.02646  21717046.6904         36.0004 
        36.5004 
 120021276.84845  22839280.753    93523087.62145  22839281.0774         30.5004 
        30.8004 
 129191687.37143  24584362.969   100668851.64543  24584363.5274         21.6004 
        21.4004 
 15 12 31  2 18  0.0000000  0  8G02G07G05G09G06G13G30G15
 106257836.12746  20220195.690    82798316.64846  20220189.8854         38.8004 
        39.4004 
 122558468.08445  23322094.226    95500108.94145  23322092.0134         30.4004 
        30.6004 
 110132262.26146  20957472.919    85817345.40046  20957469.6024         39.3004 
        40.4004 
 130188731.75842  24774095.946   101445764.37941  24774091.0584         13.8004 
        11.2004 
 117618662.89345  22382093.920    91650889.67645  22382094.6524         33.7004 
        33.8004 
 114054281.76346  21703801.776    88873474.36246  21703798.9114         36.2004 
        36.6004 
 119982079.89945  22831822.564    93492544.63445  22831821.6074         30.6004 
        30.8004 
 129094027.09043  24565778.915   100592752.68743  24565779.8244         23.0004 
        22.9004 
 15 12 31  2 18 30.0000000  0  8G02G07G05G09G06G13G30G15
 106271428.67646  20222782.169    82808908.23446  20222776.5994         39.3004 
        40.2004 
 122571031.82845  23324483.840    95509898.90145  23324482.9454         30.0004 
        30.2004 
 110122270.79846  20955571.689    85809559.85246  20955568.5594         40.0004 
        40.3004 
 130299561.67441  24795185.380   101532125.34141  24795180.6854         10.6004 
        11.2004 
 117707968.68145  22399087.649    91720478.54045  22399089.1734         33.3004 
        33.6004 
 113985035.75745  21690623.962    88819516.48245  21690621.3934         35.2004 
        35.8004 
 119943286.12545  22824439.657    93462315.77745  22824439.3604         30.1004 
        30.4004 
 128996500.70043  24547219.578   100516758.07043  24547219.2104         23.0004 
        21.0004 
 15 12 31  2 19  0.0000000  0  8G02G07G05G09G06G13G30G15
 106285495.64546  20225459.347    82819869.49346  20225453.2174         38.9004 
        39.5004 
 122584099.41344  23326971.764    95520081.46744  23326968.1284         29.5004 
        29.7004 
 110112465.76246  20953705.547    85801919.57146  20953702.7444         39.5004 
        39.9004 
 130410413.94341  24816278.260   101618503.70841  24816275.6144         10.6004 
         8.9004 
 117797577.79645  22416140.088    91790303.76345  22416141.1964         33.2004 
        33.4004 
 113916167.87546  21677519.596    88765853.23346  21677516.4424         36.2004 
        36.8004 
 119904901.51444  22817134.344    93432405.74745  22817134.9284         29.9004 
        30.2004 
 128899113.80343  24528688.918   100440872.14843  24528687.8584         20.6004 
        21.0004 
 15 12 31  2 19 30.0000000  0  8G02G07G05G09G06G13G30G15
 104724614.41646  19928432.955    81603598.39846  19928427.3954         39.1004 
        39.6004 
 121022247.09044  23029759.589    94303053.69144  23029757.7864         29.5004 
        29.6004 
 108527422.80046  20652082.024    84566821.16246  20652079.0754         39.4004 
        40.0004 
 128945866.43141  24537582.633   100477297.80841  24537581.6794          8.3004 
         8.9004 
 116312068.09845  22133457.522    90632763.67245  22133458.1834         33.8004 
        34.0004 
 112272253.51346  21364692.829    87484881.04046  21364690.5334         36.4004 
        36.5004 
 118291503.31745  22510116.180    92175212.40545  22510115.1374         30.2004 
        30.6004 
 127226440.68143  24210390.136    99137490.45643  24210388.7934         21.2004 
        21.0004 
 15 12 31  2 20  0.0000000  0  8G02G07G05G09G06G13G30G15
 104739630.34646  19931291.042    81615299.11246  19931284.9914         39.3004 
        39.9004 
 121036320.06744  23032438.467    94314019.65244  23032436.4994         29.4004 
        29.6004 
 108517988.03346  20650286.842    84559469.41246  20650283.5404         39.5004 
        40.0004 
 129056755.05141  24558685.216   100563704.49241  24558683.3594          8.3004 
         8.7004 
 116402277.69145  22150622.718    90703056.78645  22150624.2584         34.0004 
        33.9004 
 112204144.25046  21351731.946    87431808.92746  21351729.2054         36.6004 
        37.2004 
 118253941.76345  22502968.491    92145943.72045  22502968.0544         31.0004 
        31.2004 
 127129334.96643  24191911.889    99061823.66843  24191910.8594         23.0004 
        23.2004 
 15 12 31  2 20 30.0000000  0  8G02G07G05G09G06G13G30G15
 104755121.56046  19934239.087    81627370.18446  19934232.8664         39.0004 
        39.9004 
 121050895.79745  23035212.580    94325377.34745  23035210.2574         30.0004 
        30.1004 
 108508737.19446  20648526.323    84552260.98746  20648523.1914         39.2004 
        39.7004 
 129167658.21741  24579791.077   100650122.48341  24579789.0144          9.0004 
         8.7004 
 116492785.05345  22167845.720    90773581.94045  22167847.1004         33.1004 
        33.3004 
 112136415.92246  21338843.595    87379033.64946  21338840.7574         36.8004 
        37.1004 
 118216794.54945  22495899.204    92116997.88645  22495899.7524         31.0004 
        31.0004 
 127032371.79543  24173458.355    98986268.00043  24173460.0744         23.0004 
        23.2004 
 15 12 31  2 21  0.0000000  0  8G02G07G05G09G06G13G30G15
 104771081.98446  19937275.436    81639806.88346  19937270.0844         38.9004 
        39.2004 
 121065967.80845  23038082.054    94337121.78445  23038078.5184         30.6004 
        30.7004 
 108499664.12746  20646799.682    84545191.08946  20646796.5524         39.2004 
        39.6004 
 129278567.23841  24600895.394   100736545.02641  24600896.4774          9.0004 
        10.5004 
 116583582.27845  22185123.834    90844332.98345  22185126.0404         32.7004 
        33.1004 
 112069063.53446  21326027.139    87326551.30746  21326023.4524         36.5004 
        36.9004 
 118180057.43345  22488908.564    92088371.62145  22488908.1164         30.4004 
        31.0004 
 126935546.17443  24155033.759    98910819.55443  24155033.8594         22.3004 
        22.3004 
 15 12 31  2 21 30.0000000  0  8G02G07G05G09G06G13G30G15
 104787521.02846  19940403.671    81652616.53446  19940398.3224         38.2004 
        38.9004 
 121081544.58645  23041044.676    94349259.52145  23041043.3854         30.2004 
        30.7004 
 108490776.88246  20645108.239    84538265.98646  20645105.3234         38.5004 
        39.3004 
 129389488.48341  24622002.671   100822977.09241  24622004.4424         10.3004 
        10.5004 
 116674676.43745  22202459.367    90915315.36345  22202460.4904         32.9004 
        33.0004 
 112002096.49446  21313283.403    87274369.23646  21313280.1024         36.4004 
        36.8004 
 118143740.96245  22481997.662    92060073.11145  22481997.1994         31.0004 
        31.2004 
 126838867.54143  24136636.873    98835485.59843  24136636.5474         23.1004 
        23.4004 
 15 12 31  2 22  0.0000000  0  8G02G07G05G09G06G13G30G15
 104804436.92446  19943622.875    81665797.75946  19943617.3494         38.7004 
        39.7004 
 121097624.13644  23044102.612    94361789.03344  23044102.8414         29.4004 
        29.4004 
 108482073.34346  20643452.317    84531484.03346  20643449.0104         38.8004 
        39.4004 
 129500417.58941  24643109.817   100909415.30641  24643116.8044         10.3004 
        10.5004 
 116766063.93445  22219850.696    90986526.33245  22219850.2044         33.1004 
        33.2004 
 111935514.20346  21300612.926    87222486.95746  21300610.4214         36.9004 
        37.4004 
 118107845.12845  22475166.827    92032102.36945  22475165.8924         30.6004 
        31.0004 
 126742335.71043  24118266.857    98760266.02243  24118265.9544         23.1004 
        23.4004 
 15 12 31  2 22 30.0000000  0  8G02G07G05G09G06G13G30G15
 104821827.29646  19946932.223    81679348.70346  19946926.5714         38.6004 
        39.0004 
 121114203.66544  23047258.991    94374708.15744  23047256.7364         28.8004 
        28.7004 
 108473549.89746  20641830.551    84524842.41046  20641827.1014         39.2004 
        39.5004 
 129611349.36441  24664218.360   100995855.61542  24664226.4474         11.9004 
        12.0004 
 116857740.17345  22237294.801    91057962.28745  22237296.2314         32.9004 
        33.0004 
 111869314.69346  21288015.957    87170902.95746  21288013.3924         37.3004 
        37.4004 
 118072368.87845  22468415.790    92004458.59145  22468415.0174         30.4004 
        30.6004 
 126645948.78243  24099923.412    98685159.39243  24099923.4494         22.6004 
        22.3004 
 15 12 31  2 23  0.0000000  0  8G02G07G05G09G06G13G30G15
 104839696.24146  19950332.686    81693272.57846  19950326.8194         38.3004 
        38.9004 
 121131286.81044  23050508.860    94388019.68544  23050506.7484         28.6004 
        28.6004 
 108465210.00046  20640243.243    84518343.81346  20640240.3684         39.2004 
        39.5004 
 129722285.21641  24685327.145   101082299.12142  24685335.6494         11.9004 
        12.0004 
 116949707.34045  22254795.163    91129624.92645  22254798.0594         32.5004 
        33.1004 
 111803503.05446  21275492.441    87119621.20346  21275488.9424         37.1004 
        37.5004 
 118037317.86645  22461746.207    91977146.17145  22461744.5384         30.4004 
        30.6004 
 126549711.91143  24081610.940    98610169.75943  24081611.4904         19.3004 
        22.3004 
 15 12 31  2 23 30.0000000  0  7G02G07G05G06G13G30G15
 104858044.82246  19953824.222    81707570.18946  19953818.5064         36.8004 
        37.8004 
 121148873.54444  23053856.915    94401723.66444  23053854.0844         28.5004 
        28.7004 
 108457053.53046  20638691.184    84511988.14546  20638688.0964         39.1004 
        39.0004 
 117041964.15845  22272351.726    91201513.29045  22272353.5114         32.9004 
        32.7004 
 111738080.61146  21263042.585    87068642.70645  21263039.9354         36.9004 
        35.6004 
 118002694.50345  22455157.719    91950166.98245  22455157.2554         31.2004 
        31.4004 
 126453626.75644  24063326.988    98535298.32543  24063328.0254         24.3004 
        19.9004 
 15 12 31  2 24  0.0000000  0  7G02G07G05G06G13G30G15
 104876872.20846  19957406.729    81722240.89546  19957400.9514         38.4004 
        39.1004 
 121166962.81044  23057299.761    94415819.21944  23057297.0204         27.8004 
        29.1004 
 108449079.42246  20637173.697    84505774.58246  20637170.6234         38.8004 
        39.3004 
 117134508.14044  22289962.346    91273625.42944  22289964.9044         29.0004 
        29.5004 
 111673047.49446  21250667.216    87017967.60846  21250664.3254         36.6004 
        37.2004 
 117968499.69544  22448650.331    91923521.72144  22448650.5664         28.8004 
        29.4004 
 126357693.46844  24045072.435    98460545.22144  24045070.5624         24.3004 
        24.9004 
 15 12 31  2 24 30.0000000  0  7G02G07G05G06G13G30G15
 104896183.63646  19961081.912    81737288.78546  19961075.7434         38.5004 
        39.2004 
 121185559.21744  23060838.919    94430309.96345  23060835.1214         29.8004 
        30.0004 
 108441291.93946  20635691.319    84499706.43746  20635688.4934         39.1004 
        39.3004 
 117227342.41145  22307628.424    91345963.75445  22307631.0664         33.0004 
        33.1004 
 111608409.62546  21238367.353    86967600.48046  21238363.6184         36.6004 
        36.9004 
 117934740.14445  22442225.942    91897215.61945  22442226.2184         31.9004 
        31.9004 
 126261918.43643  24026845.244    98385915.41243  24026843.6724         22.5004 
        21.2004 
 15 12 31  2 25  0.0000000  0  7G02G07G05G06G13G30G15
 104915977.95646  19964848.974    81752712.95546  19964842.5474         38.7004 
        38.8004 
 121204661.25444  23064472.832    94445194.72244  23064470.7714         29.5004 
        29.6004 
 108433689.06846  20634245.215    84493782.13746  20634241.9494         39.1004 
        39.3004 
 117320463.71045  22325348.744    91418525.72345  22325351.2434         33.2004 
        33.2004 
 111544166.39246  21226141.318    86917540.87146  21226139.0894         36.6004 
        37.2004 
 117901416.14945  22435884.013    91871248.91445  22435884.8724         31.6004 
        31.7004 
 126166301.39943  24008650.792    98311408.75943  24008651.4264         22.5004 
        21.2004 
 15 12 31  2 25 30.0000000  0  7G02G07G05G06G13G30G15
 104936259.85746  19968707.743    81768517.06246  19968702.0474         38.6004 
        39.0004 
 121224272.36244  23068204.892    94460476.16244  23068202.2714         29.4004 
        27.7004 
 108426274.73446  20632834.228    84488004.76446  20632830.9164         38.9004 
        39.2004 
 117413874.66145  22343124.052    91491313.40444  22343125.5934         30.5004 
        28.9004 
 111480323.08146  21213992.592    86867792.89546  21213989.7454         36.2004 
        36.9004 
 117868533.76245  22429625.911    91845626.32544  22429627.6914         31.4004 
        29.0004 
 126070847.69143  23990486.423    98237029.42743  23990487.1664         19.3004 
        21.0004 
 15 12 31  2 26  0.0000000  0  7G02G07G05G06G13G30G15
 104957025.38746  19972658.760    81784698.00846  19972653.5254         38.6004 
        38.7004 
 121244388.40244  23072032.204    94476151.05744  23072030.1564         29.2004 
        29.3004 
 108419044.28146  20631458.269    84482370.66546  20631454.7014         39.1004 
        39.6004 
 117507569.32845  22360954.525    91564322.17445  22360954.9684         31.4004 
        31.7004 
 111416876.62446  21201919.083    86818354.15046  21201916.4194         36.5004 
        36.7004 
 117836090.60645  22423452.998    91820345.98945  22423453.3774         31.5004 
        31.6004 
 125975554.45744  23972352.878    98162775.12544  23972352.7444         25.0004 
        25.8004 
 15 12 31  2 26 30.0000000  0  7G02G07G05G06G13G30G15
 104978277.13846  19976703.190    81801257.81746  19976697.6404         39.1004 
        39.5004 
 121265011.29544  23075956.429    94492220.90244  23075952.7684         28.7004 
        28.9004 
 108411999.98446  20630117.882    84476881.61846  20630114.2384         39.3004 
        39.6004 
 117601548.40545  22378837.406    91637552.53945  22378839.7544         32.0004 
        32.2004 
 111353830.17746  21189922.317    86769227.10946  21189918.9284         36.8004 
        36.9004 
 117804090.82645  22417363.453    91795411.14545  22417363.8564         32.1004 
        32.3004 
 125880425.00644  23954250.453    98088648.43144  23954248.3954         26.0004 
        24.7004 
 15 12 31  2 27  0.0000000  0  7G02G07G05G06G13G30G15
 105000011.34046  19980840.006    81818193.57746  19980833.2044         37.9004 
        36.1004 
 121286137.22844  23079977.026    94508682.72444  23079973.5034         28.8004 
        29.2004 
 108405137.70146  20628811.600    84471534.41346  20628808.2054         37.6004 
        37.9004 
 117695806.43845  22396773.759    91711000.25645  22396776.8544         30.6004 
        30.7004 
 111291181.16845  21177999.715    86720409.76146  21177996.9094         35.5004 
        36.3004 
 117772532.39845  22411358.626    91770820.23745  22411358.5144         31.2004 
        31.4004 
 125785456.92443  23936177.093    98014647.46744  23936176.4764         21.0004 
        24.7004 
 15 12 31  2 27 30.0000000  0  8G02G07G05G09G06G13G30G15
 105022228.97846  19985067.514    81835506.04246  19985061.3274         39.4004 
        38.7004 
 121307766.06544  23084092.589    94525536.43244  23084089.8504         28.9004 
        29.1004 
 108398457.30746  20627540.340    84466328.92146  20627536.8124         38.5004 
        39.6004 
 130720656.53341  24875315.051   101860253.12142  24875312.5704         11.2004 
        14.6004 
 117790342.01645  22414764.002    91784664.28445  22414766.0334         32.0004 
        32.2004 
 111228930.86446  21166153.332    86671903.09246  21166151.1504         36.1004 
        36.5004 
 117741417.54045  22405437.280    91746574.95445  22405437.5314         31.7004 
        31.7004 
 125690651.97944  23918136.984    97940773.62643  23918137.0654         24.2004 
        20.8004 
 15 12 31  2 28  0.0000000  0  8G02G07G05G09G06G13G30G15
 105044934.31145  19989386.930    81853198.52145  19989382.3564         35.6004 
        35.5004 
 121329901.48344  23088304.539    94542784.85544  23088302.5894         28.3004 
        28.5004 
 108391962.48746  20626305.159    84461268.03446  20626301.1764         38.7004 
        36.2004 
 130831541.02742  24896415.081   101946656.56342  24896412.9854         13.4004 
        15.4004 
 117885157.50645  22432806.380    91858546.43345  22432808.9744         31.6004 
        31.8004 
 111167084.31345  21154385.277    86623711.04046  21154382.3604         35.7004 
        36.4004 
 117710752.00745  22399602.189    91722679.79545  22399602.0394         31.1004 
        31.2004 
 125596015.23444  23900127.830    97867030.85644  23900128.8734         26.6004 
        26.1004 
 15 12 31  2 28 30.0000000  0  8G02G07G05G09G06G13G30G15
 105068124.30845  19993800.488    81871268.64945  19993794.7034         30.7004 
        31.0004 
 121352539.81344  23092612.872    94560425.17344  23092612.2474         28.5004 
        28.5004 
 108385649.70345  20625103.009    84456349.01945  20625099.7974         32.0004 
        31.1004 
 130942407.75742  24917512.310   102033046.17142  24917506.9324         13.5004 
        15.4004 
 117980247.98345  22450901.792    91932642.84045  22450903.6324         31.3004 
        31.1004 
 111105639.06745  21142692.547    86575831.70945  21142689.5164         30.6004 
        32.3004 
 117680534.39245  22393851.270    91699133.67245  22393850.5884         30.9004 
        31.1004 
 125501544.44544  23882149.850    97793417.41744  23882150.8794         26.6004 
        26.1004 
 15 12 31  2 29  0.0000000  0  8G02G07G05G09G06G13G30G15
 105091798.08145  19998306.719    81889715.74745  19998299.8024         31.3004 
        31.9004 
 121375679.74844  23097016.566    94578456.33744  23097014.9154         25.8004 
        27.3004 
 108379517.39745  20623936.495    84451570.61745  20623932.7614         31.0004 
        31.7004 
 131053253.36442  24938602.978   102119419.33142  24938599.2564         13.5004 
        15.4004 
 118075610.55644  22469048.477    92006951.27244  22469049.9284         27.7004 
        27.5004 
 111044595.05844  21131075.970    86528265.00445  21131072.8634         29.9004 
        30.7004 
 117650765.27044  22388185.017    91675936.99944  22388187.0414         26.4004 
        27.5004 
 125407240.80144  23864204.940    97719934.21543  23864204.1334         24.4004 
        21.5004 
 15 12 31  2 29 30.0000000  0  8G02G07G05G09G06G13G30G15
 105115956.90545  20002903.617    81908540.81845  20002897.0924         31.1004 
        31.7004 
 121399321.85644  23101514.981    94596878.78844  23101512.3384         24.3004 
        24.2004 
 108373566.56544  20622803.933    84446933.63345  20622799.9784         29.9004 
        30.7004 
 131164076.82641  24959690.372   102205775.23841  24959689.1844          9.6004 
         9.1004 
 118171244.56244  22487247.616    92081471.21344  22487248.1384         26.6004 
        26.9004 
 110983954.02745  21119536.149    86481012.32545  21119533.3954         30.0004 
        30.0004 
 117621447.31344  22382606.293    91653091.88344  22382606.9494         26.5004 
        26.4004 
 125313105.70743  23846292.050    97646582.26543  23846290.5684         19.8004 
        21.5004 
 15 12 31  2 30  0.0000000  0  8G02G07G05G09G06G13G30G15
 105140604.44246  20007592.847    81927746.67446  20007587.7584         38.6004 
        39.1004 
 121423469.13644  23106110.480    94615694.87344  23106107.6214         24.9004 
        24.6004 
 108367800.23646  20621705.760    84442440.40146  20621702.9744         37.9004 
        38.5004 
 131274879.50541  24980774.814   102292114.97441  24980774.7134          9.6004 
         9.1004 
 118267151.79044  22505497.943    92156204.01545  22505500.3064         29.9004 
        30.2004 
 110923720.67246  21108073.914    86434077.31646  21108071.1424         36.9004 
        37.4004 
 117592585.79744  22377115.100    91630602.45044  22377115.2394         29.8004 
        29.9004 
 125219143.83643  23828411.184    97573365.27743  23828411.1174         19.8004 
        21.7004 
 15 12 31  2 30 30.0000000  0  8G02G07G05G09G06G13G30G15
 105165738.25646  20012376.617    81947331.46446  20012370.4494         39.4004 
        40.0004 
 121448118.88344  23110801.526    94634902.49444  23110799.5404         27.3004 
        27.3004 
 108362216.00746  20620643.906    84438089.06546  20620640.1904         38.2004 
        38.1004 
 131385656.84641  25001855.092   102378434.96841  25001856.7454          8.0004 
         8.5004 
 118363327.93945  22523800.460    92231146.38145  22523801.7614         31.8004 
        31.6004 
 110863893.34145  21096689.902    86387458.68245  21096686.1474         34.1004 
        34.6004 
 117564179.92045  22371709.970    91608468.06545  22371709.9904         31.8004 
        32.1004 
 125125354.02243  23810562.910    97500282.36944  23810563.6554         23.9004 
        25.4004 
 15 12 31  2 31  0.0000000  0  8G02G07G05G09G06G13G30G15
 105191359.21646  20017251.699    81967295.84846  20017245.9854         38.7004 
        39.2004 
 121473271.07344  23115587.676    94654501.62844  23115585.7564         28.5004 
        28.6004 
 108356813.72046  20619615.240    84433879.52446  20619612.3844         38.0004 
        38.9004 
 131496407.21941  25022930.976   102464733.95241  25022932.0564          8.0004 
         8.5004 
 118459771.77845  22542151.935    92306297.37145  22542154.2804         31.1004 
        30.9004 
 110804473.31146  21085382.116    86341157.42446  21085379.5554         37.1004 
        37.8004 
 117536231.83345  22366390.946    91586690.40345  22366390.7864         31.9004 
        32.1004 
 125031738.14544  23792748.599    97427335.07144  23792748.8374         25.2004 
        24.4004 
 15 12 31  2 31 30.0000000  0  8G02G07G05G09G06G13G30G15
 105217467.53546  20022219.866    81987639.98646  20022214.2884         39.6004 
        40.0004 
 121498924.90144  23120469.839    94674491.65944  23120468.0664         28.6004 
        28.8004 
 108351593.22846  20618622.515    84429811.62846  20618618.9824         38.8004 
        39.3004 
 131607128.55642  25044001.498   102551010.32142  25044001.8214         12.0004 
        12.0004 
 118556481.67645  22560555.644    92381655.65045  22560556.9514         30.4004 
        30.4004 
 110745461.61846  21074152.911    86295174.34646  21074149.8174         37.5004 
        37.9004 
 117508743.28245  22361160.094    91565270.83645  22361159.4964         31.5004 
        31.6004 
 124938297.50444  23774967.033    97354524.25444  23774968.1854         24.5004 
        24.4004 
 15 12 31  2 32  0.0000000  0  8G02G07G05G09G06G13G30G15
 105244063.07946  20027280.878    82008363.78646  20027274.9274         39.3004 
        40.2004 
 121525080.13244  23125447.001    94694872.39444  23125444.3754         28.8004 
        29.0004 
 108346553.97046  20617663.969    84425884.96546  20617660.1794         38.3004 
        38.9004 
 131717818.72942  25065064.861   102637262.39842  25065064.8284         12.0004 
        12.0004 
 118653455.68445  22579009.598    92457219.75145  22579011.7754         31.9004 
        32.1004 
 110686859.16746  21063000.539    86249510.16346  21062997.5744         38.0004 
        38.3004 
 117481715.77345  22356017.241    91544210.50545  22356016.0864         31.3004 
        31.4004 
 124845033.22044  23757220.860    97281850.81044  23757218.1294         25.7004 
        25.6004 
 15 12 31  2 32 30.0000000  0  8G02G07G05G09G06G13G30G15
 105271147.64046  20032434.736    82029468.63346  20032428.8834         39.9004 
        40.5004 
 121551737.92144  23130518.198    94715644.74044  23130516.6694         27.8004 
        27.8004 
 108341697.57546  20616739.225    84422100.78946  20616735.8364         38.8004 
        39.2004 
 131828477.36641  25086121.957   102723489.90841  25086123.0534         10.7004 
        10.6004 
 118750693.70645  22597513.204    92532989.57345  22597515.4664         31.6004 
        31.9004 
 110628668.37246  21051927.474    86204166.73546  21051924.5204         37.3004 
        38.0004 
 117455152.64745  22350962.362    91523512.02745  22350961.3944         31.5004 
        31.8004 
 124751947.79944  23739507.015    97209316.72844  23739505.2004         24.3004 
        25.2004 
 15 12 31  2 33  0.0000000  0  8G02G07G05G09G06G13G30G15
 105298721.61046  20037681.982    82050954.83946  20037676.0244         39.7004 
        40.2004 
 121578897.87744  23135686.049    94736808.36544  23135684.1374         27.1004 
        27.2004 
 108337023.97646  20615849.816    84418459.05846  20615846.6924         38.6004 
        38.9004 
 131939102.57541  25107175.061   102809691.37941  25107174.3584         10.7004 
        10.6004 
 118848194.27845  22616067.244    92608963.96945  22616068.8984         30.7004 
        30.9004 
 110570890.35046  21040933.088    86159144.95746  21040929.1734         37.9004 
        38.2004 
 117429055.69245  22345995.842    91503176.81345  22345995.4704         32.1004 
        32.3004 
 124659042.89444  23721826.782    97136923.36143  23721827.0034         24.3004 
        22.8004 
 15 12 31  2 33 30.0000000  0  7G02G07G05G06G13G30G15
 105326780.32846  20043021.675    82072818.78746  20043015.7794         40.3004 
        40.5004 
 121606554.81744  23140949.961    94758359.25244  23140947.2644         26.4004 
        26.5004 
 108332528.01946  20614994.461    84414955.73846  20614991.3404         38.9004 
        39.3004 
 118945950.87445  22634669.860    92685137.88245  22634670.9814         31.0004 
        31.0004 
 110513521.10246  21030016.251    86114441.69046  21030012.5524         38.2004 
        38.7004 
 117403421.89845  22341118.070    91483202.49045  22341118.1444         32.5004 
        32.7004 
 124566315.56043  23704181.839    97064668.40744  23704181.9164         22.5004 
        24.4004 
 15 12 31  2 34  0.0000000  0  7G02G07G05G06G13G30G15
 105355332.37046  20048454.732    82095067.13046  20048449.1044         39.6004 
        40.8004 
 121634716.58644  23146309.471    94780303.49144  23146305.4174         26.8004 
        26.9004 
 108328218.22146  20614174.587    84411597.46146  20614171.1044         38.2004 
        38.8004 
 119043970.38645  22653322.024    92761516.62945  22653323.7604         30.8004 
        31.3004 
 110456570.23846  21019178.895    86070064.43946  21019175.0924         38.1004 
        38.7004 
 117378261.48845  22336330.567    91463597.04745  22336330.0544         32.7004 
        32.9004 
 124473775.15044  23686572.855    96992559.07644  23686572.4374         25.4004 
        27.2004 
 15 12 31  2 34 30.0000000  0  7G02G07G05G06G13G30G15
 105384373.40446  20053981.315    82117696.49646  20053975.4054         40.7004 
        40.9004 
 121663378.08344  23151762.609    94802637.13944  23151759.8744         26.7004 
        26.8004 
 108324090.13346  20613388.452    84408380.78346  20613385.3224         38.7004 
        39.5004 
 119142246.48645  22672022.521    92838095.29944  22672024.4844         30.0004 
        29.6004 
 110400033.98546  21008420.186    86026010.26346  21008417.2914         38.3004 
        38.8004 
 117353571.39245  22331632.134    91444358.08545  22331631.7144         32.8004 
        32.8004 
 124381418.52744  23668998.402    96920592.91144  23668996.2664         27.1004 
        27.2004 
 15 12 31  2 35  0.0000000  0  7G02G07G05G06G13G30G15
 105413903.94446  20059600.237    82140707.30446  20059594.6314         39.3004 
        39.8004 
 121692539.33144  23157311.760    94825360.19844  23157311.5944         27.0004 
        27.3004 
 108320143.80146  20612637.729    84405305.73246  20612634.4404         38.5004 
        38.0004 
 119240777.79444  22690773.579    92914872.87544  22690774.9894         29.7004 
        29.7004 
 110343913.66746  20997740.228    85982280.18346  20997737.9004         38.1004 
        38.0004 
 117329353.71045  22327024.244    91425487.23945  22327023.6854         32.8004 
        32.9004 
 124289247.12344  23651456.818    96848771.08044  23651455.2854         25.2004 
        26.0004 
 15 12 31  2 35 30.0000000  0  7G02G07G05G06G13G30G15
 105443922.54646  20065312.712    82164098.41246  20065306.8244         38.8004 
        39.7004 
 121722198.29644  23162956.505    94848471.08344  23162955.0704         27.9004 
        28.0004 
 108316377.46446  20611921.180    84402370.93946  20611917.5464         36.6004 
        37.4004 
 119339561.03245  22709571.945    92991846.75445  22709573.1264         30.2004 
        30.5004 
 110288208.64446  20987140.332    85938873.71146  20987137.0014         36.7004 
        37.6004 
 117305608.41045  22322505.286    91406984.46645  22322504.1524         32.3004 
        32.7004 
 124197261.02243  23633952.091    96777093.68543  23633952.3744         22.6004 
        22.8004 
 15 12 31  2 36  0.0000000  0  7G02G07G05G06G13G30G15
 105474433.06746  20071119.002    82187872.84346  20071112.7964         39.9004 
        40.5004 
 121752358.11944  23168695.941    94871972.26344  23168693.6054         28.3004 
        28.1004 
 108312794.65646  20611239.271    84399579.15446  20611235.9054         38.7004 
        38.5004 
 119438598.35645  22728417.793    93069018.60845  22728420.0294         30.7004 
        30.6004 
 110232923.36746  20976620.087    85895794.29946  20976616.9954         37.0004 
        38.1004 
 117282341.00345  22318077.764    91388854.08545  22318076.7984         32.1004 
        32.3004 
 124105464.99544  23616485.648    96705564.36344  23616484.3504         25.4004 
        25.0004 
 15 12 31  2 36 30.0000000  0  7G02G07G05G06G13G30G15
 105505435.30546  20077018.805    82212030.42446  20077012.4034         39.3004 
        39.8004 
 121783018.20444  23174530.361    94895863.24444  23174526.9594         27.9004 
        27.9004 
 108309395.41346  20610592.063    84396930.40746  20610589.1064         37.9004 
        38.3004 
 119537887.93345  22747312.984    93146387.01345  22747313.7144         31.3004 
        31.5004 
 110178058.74246  20966178.808    85853042.66646  20966175.8114         37.6004 
        37.5004 
 117259552.91845  22313741.109    91371097.20445  22313740.2704         31.6004 
        31.8004 
 124013860.38544  23599054.431    96634184.21644  23599053.8694         27.9004 
        27.9004 
 15 12 31  2 37  0.0000000  0  7G02G07G05G06G13G30G15
 105536933.15646  20083012.163    82236574.19646  20083006.4784         39.6004 
        40.2004 
 121814181.11944  23180459.482    94920146.06144  23180456.9924         27.7004 
        27.5004 
 108306183.09546  20609981.073    84394427.31046  20609977.6964         37.1004 
        37.8004 
 119637431.47645  22766254.299    93223953.34245  22766255.9264         30.2004 
        30.7004 
 110123619.12546  20955819.701    85810622.21746  20955816.8774         37.5004 
        36.5004 
 117237249.27245  22309496.578    91353717.80745  22309497.0304         32.5004 
        32.5004 
 123922451.90544  23581658.502    96562956.93144  23581658.7584         28.0004 
        28.1004 
 15 12 31  2 37 30.0000000  0  7G02G07G05G06G13G30G15
 105568920.86946  20089098.945    82261499.68246  20089093.4854         37.9004 
        38.6004 
 121845841.02744  23186484.485    94944816.16944  23186481.6994         27.4004 
        27.8004 
 108303152.08046  20609404.397    84392065.49646  20609400.9014         36.4004 
        37.7004 
 119737221.74444  22785243.032    93301711.90444  22785244.9244         29.2004 
        29.4004 
 110069599.61446  20945540.311    85768529.12146  20945537.1484         36.5004 
        37.1004 
 117215426.00745  22305343.248    91336712.72145  22305344.3764         32.9004 
        33.1004 
 123831235.34344  23564299.658    96491879.20644  23564299.6304         26.5004 
        26.6004 
 15 12 31  2 38  0.0000000  0  7G02G07G05G06G13G30G15
 105601398.39046  20095279.329    82286806.83846  20095273.9614         39.2004 
        39.5004 
 121877997.15844  23192604.257    94969872.92144  23192600.1944         28.1004 
        28.1004 
 108300301.77746  20608861.745    84389844.49646  20608858.8054         37.9004 
        38.3004 
 119837256.69544  22804278.721    93379661.12444  22804281.5584         28.8004 
        28.7004 
 110016000.98646  20935340.811    85726763.98946  20935337.3484         38.0004 
        37.8004 
 117194084.44045  22301281.552    91320082.99045  22301282.9704         32.9004 
        33.1004 
 123740211.58744  23546980.107    96420951.68244  23546978.2044         24.9004 
        25.0004 
 15 12 31  2 38 30.0000000  0  7G02G07G05G06G13G30G15
 105634366.37246  20101553.270    82312496.16146  20101547.4114         39.0004 
        39.4004 
 121910649.37344  23198817.984    94995316.26244  23198814.8504         28.3004 
        28.5004 
 108297632.87046  20608353.987    84387764.84746  20608351.0084         37.8004 
        38.4004 
 119937535.33544  22823362.239    93457800.22144  22823363.7664         28.9004 
        28.9004 
 109962825.04846  20925221.627    85685328.22546  20925218.5864         37.2004 
        37.9004 
 117173226.82945  22297312.688    91303830.34645  22297314.1144         33.5004 
        33.6004 
 123649382.74444  23529696.565    96350176.02244  23529694.8764         29.4004 
        27.6004 
 15 12 31  2 39  0.0000000  0  7G02G07G05G06G13G30G15
 105667829.32746  20107921.337    82338571.18346  20107914.8744         39.2004 
        39.8004 
 121943801.54644  23205125.701    95021149.17444  23205124.1394         28.4004 
        28.4004 
 108295150.33346  20607881.641    84385830.41946  20607878.0074         37.9004 
        38.9004 
 120038060.62944  22842491.988    93536131.51844  22842493.9694         28.9004 
        29.0004 
 109910076.64546  20915183.794    85644225.60646  20915180.7854         37.9004 
        38.3004 
 117152859.34745  22293436.769    91287959.63845  22293438.1384         32.7004 
        32.8004 
 123558754.55344  23512449.829    96279556.80544  23512449.2714         29.0004 
        29.2004 
 15 12 31  2 39 30.0000000  0  7G02G07G05G06G13G30G15
 105701783.14946  20114381.752    82365028.70446  20114376.4424         36.3004 
        40.1004 
 121977449.09844  23211528.365    95047368.07244  23211526.9444         28.1004 
        28.2004 
 108292849.81646  20607443.885    84384037.83146  20607440.1684         37.7004 
        36.2004 
 120138826.66744  22861667.682    93614650.38744  22861669.2234         29.5004 
        29.7004 
 109857752.54845  20905226.743    85603453.62345  20905223.6924         35.3004 
        35.8004 
 117132979.34145  22289654.362    91272468.78045  22289654.4104         32.9004 
        33.1004 
 123468324.24644  23495239.488    96209091.80744  23495238.9794         27.9004 
        27.6004 
 15 12 31  2 40  0.0000000  0  7G02G07G05G06G13G30G15
 105736229.59646  20120936.862    82391870.08146  20120931.2974         39.0004 
        38.5004 
 122011593.11944  23218025.745    95073973.82944  23218024.1664         28.0004 
        28.1004 
 108290732.97746  20607041.044    84382388.36146  20607037.2544         38.3004 
        37.5004 
 120239833.46545  22880888.625    93693356.89045  22880890.7144         30.6004 
        30.8004 
 109805855.46145  20895351.159    85563014.37645  20895348.3164         34.4004 
        35.0004 
 117113590.10845  22285963.948    91257360.35945  22285964.4494         32.6004 
        32.7004 
 123378094.98944  23478070.025    96138783.46044  23478069.1664         26.4004 
        26.3004 
 15 12 31  2 40 30.0000000  0  7G02G07G05G06G13G30G15
 105771169.40946  20127586.251    82419095.89946  20127580.1314         39.8004 
        39.9004 
 122046233.68044  23224618.926    95100966.51544  23224616.0274         28.5004 
        29.1004 
 108288800.68746  20606673.381    84380882.70746  20606669.9304         38.2004 
        38.5004 
 120341080.26645  22900154.847    93772250.39545  22900157.0994         30.3004 
        30.4004 
 109754387.14846  20885557.633    85522909.22746  20885553.8724         36.9004 
        37.4004 
 117094693.99445  22282368.080    91242636.18945  22282368.0794         32.1004 
        32.2004 
 123288069.22844  23460939.336    96068633.62944  23460936.9684         26.5004 
        26.8004 
 15 12 31  2 41  0.0000000  0  7G02G07G05G06G13G30G15
 105806598.91446  20134328.055    82446703.29946  20134322.2324         39.0004 
        37.7004 
 122081366.23344  23231303.925    95128342.59744  23231300.7684         29.1004 
        29.3004 
 108287049.14746  20606339.944    84379517.88646  20606336.3594         36.4004 
        36.9004 
 120442561.31544  22919465.889    93851326.44544  22919468.7954         29.6004 
        29.7004 
 109703344.28646  20875844.364    85483135.61046  20875840.9544         36.1004 
        37.1004 
 117076288.53745  22278866.117    91228294.33145  22278864.9024         31.7004 
        32.0004 
 123198243.94444  23443847.652    95998640.03344  23443844.7304         26.7004 
        26.8004 
 15 12 31  2 41 30.0000000  0  7G02G07G05G06G13G30G15
 105842524.69046  20141164.020    82474697.40346  20141158.7464         40.0004 
        39.4004 
 122116996.68844  23238084.046    95156106.58644  23238079.3964         29.2004 
        28.4004 
 108285484.83146  20606042.183    84378298.95346  20606039.0024         37.4004 
        37.9004 
 120544281.62344  22938822.191    93930588.90644  22938824.8394         27.9004 
        28.1004 
 109652734.64346  20866213.050    85443699.56246  20866210.3524         36.8004 
        37.2004 
 117058381.96645  22275458.652    91214341.21945  22275457.0754         30.8004 
        31.1004 
 123108627.41844  23426790.420    95928809.19644  23426792.4024         27.1004 
        27.4004 
 15 12 31  2 42  0.0000000  0  7G02G07G05G06G13G30G15
 105878944.54346  20148094.541    82503076.50846  20148089.1994         37.3004 
        38.2004 
 122153122.41744  23244956.283    95184256.54144  23244955.1484         27.3004 
        28.0004 
 108284106.03046  20605780.050    84377224.58546  20605776.4474         37.9004 
        37.5004 
 120646237.51144  22958223.652    94010034.95844  22958226.3154         28.6004 
        28.7004 
 109602556.75346  20856664.378    85404599.95346  20856661.4514         36.5004 
        37.7004 
 117040973.68545  22272147.042    91200776.39145  22272144.3794         32.2004 
        32.4004 
 123019218.69644  23409776.544    95859140.28244  23409777.3714         26.3004 
        26.4004 
 15 12 31  2 42 30.0000000  0  7G02G07G05G06G13G30G15
 105915856.06246  20155118.606    82531838.72746  20155113.3284         38.3004 
        38.8004 
 122189740.13844  23251924.404    95212789.84844  23251923.5864         26.4004 
        26.5004 
 108282910.17346  20605552.175    84376292.76646  20605548.8374         36.4004 
        37.0004 
 120748424.78344  22977670.342    94089661.28844  22977672.6204         28.4004 
        28.7004 
 109552808.98746  20847197.270    85365835.49446  20847194.2794         36.4004 
        37.1004 
 117024062.64845  22268927.987    91187599.02945  22268926.4294         31.9004 
        32.1004 
 122930016.91144  23392802.929    95789632.57644  23392802.2224         27.6004 
        27.5004 
 15 12 31  2 43  0.0000000  0  7G02G07G05G06G13G30G15
 105953256.41246  20162236.080    82560981.85146  20162230.2834         39.3004 
        39.3004 
 122226846.38444  23258987.817    95241703.81844  23258984.8864         27.0004 
        26.9004 
 108281894.84346  20605358.926    84375501.61346  20605355.7804         37.5004 
        37.8004 
 120850838.97844  22997159.776    94169464.43144  22997160.6864         28.4004 
        28.6004 
 109503489.44146  20837812.511    85327404.71146  20837809.2034         37.2004 
        37.6004 
 117007647.58245  22265804.607    91174808.13345  22265803.0804         32.4004 
        32.1004 
 122841020.09744  23375867.521    95720284.57344  23375866.8504         26.8004 
        27.6004 
 15 12 31  2 43 30.0000000  0  7G02G07G05G06G13G30G15
 105991144.18846  20169445.877    82590504.79146  20169440.0424         39.7004 
        39.9004 
 122264439.09544  23266140.617    95270996.85344  23266138.6284         27.9004 
        27.9004 
 108281058.82846  20605199.832    84374850.18446  20605196.6774         37.8004 
        38.2004 
 120953477.19344  23016690.470    94249442.15644  23016693.2214         28.5004 
        28.4004 
 109454597.60246  20828509.084    85289307.20646  20828505.4044         37.6004 
        38.0004 
 116991728.75545  22262775.083    91162403.89245  22262773.8194         33.0004 
        32.9004 
 122752228.68044  23358969.470    95651096.60544  23358970.2654         26.8004 
        26.0004 
 15 12 31  2 44  0.0000000  0  7G02G07G05G06G13G30G15
 106029527.81846  20176750.047    82620414.10946  20176744.0864         39.2004 
        39.1004 
 122302525.99244  23273389.198    95300674.94544  23273386.6824         27.6004 
        27.8004 
 108280410.07846  20605075.862    84374344.68446  20605073.1764         37.7004 
        38.3004 
 121056345.98544  23036266.079    94329599.54244  23036269.1644         27.8004 
        27.9004 
 109406142.36446  20819287.970    85251549.91646  20819284.8094         37.5004 
        38.0004 
 116976315.84245  22259841.914    91150393.87245  22259840.6564         32.6004 
        32.7004 
 122663652.17644  23342112.478    95582076.14944  23342115.8934         24.6004 
        24.1004 
 15 12 31  2 44 30.0000000  0  7G02G07G05G06G13G30G15
 106068403.95846  20184147.915    82650707.20946  20184142.0034         37.9004 
        37.9004 
 122341103.50844  23280731.026    95330735.35944  23280726.1254         27.6004 
        27.9004 
 108279945.83846  20604987.912    84373982.95046  20604984.6194         36.0004 
        36.4004 
 121159440.59744  23055884.086    94409932.89744  23055887.9014         27.8004 
        28.0004 
 109358121.66446  20810150.228    85214131.21746  20810146.6764         36.7004 
        37.4004 
 116961407.13445  22257004.366    91138776.73945  22257003.6124         32.0004 
        31.9004 
 122575288.97744  23325299.216    95513221.91344  23325300.9474         24.2004 
        25.2004 
 15 12 31  2 45  0.0000000  0  7G02G07G05G06G13G30G15
 106107774.25146  20191639.754    82681385.36046  20191633.9624         38.9004 
        39.9004 
 122380172.02544  23288165.448    95361178.37344  23288160.8734         28.1004 
        28.2004 
 108279668.44146  20604934.948    84373766.81346  20604931.7484         37.2004 
        37.8004 
 121262761.06144  23075544.716    94490442.23544  23075549.2234         27.7004 
        27.8004 
 109310537.96846  20801094.514    85177053.05146  20801091.7374         37.6004 
        38.0004 
 116947005.82345  22254263.733    91127554.98945  22254263.0854         32.5004 
        32.5004 
 122487142.41844  23308526.619    95444536.45744  23308526.8234         29.2004 
        28.3004 
 15 12 31  2 45 30.0000000  0  7G02G07G05G06G13G30G15
 106147635.02946  20199225.108    82712445.70846  20199219.4314         38.9004 
        39.6004 
 122419727.70144  23295691.496    95392000.97744  23295687.6864         26.9004 
        27.1004 
 108279574.25546  20604918.084    84373693.42146  20604914.0254         37.6004 
        38.0004 
 121366302.33044  23095247.943    94571123.61744  23095252.4104         26.9004 
        27.1004 
 109263388.31046  20792122.906    85140313.08446  20792119.2794         37.9004 
        38.0004 
 116933109.88445  22251619.287    91116727.02445  22251619.5014         32.2004 
        32.3004 
 122399210.13544  23291794.611    95376017.93944  23291791.8014         28.1004 
        28.7004 
 15 12 31  2 46  0.0000000  0  7G02G07G05G06G13G30G15
 106187989.05146  20206903.729    82743890.39346  20206898.5274         38.5004 
        39.4004 
 122459772.32144  23303311.410    95423204.58544  23303307.0384         26.0004 
        26.1004 
 108279666.11746  20604935.000    84373765.00246  20604931.3024         37.5004 
        37.5004 
 121470065.24344  23114994.745    94651977.70344  23114997.0474         27.4004 
        27.6004 
 109216676.14946  20783233.960    85103914.03546  20783230.2444         37.9004 
        38.2004 
 116919723.25645  22249071.980    91106295.92045  22249071.9864         32.8004 
        33.0004 
 122311495.92744  23275100.183    95307669.35544  23275099.2194         27.1004 
        28.6004 
 15 12 31  2 46 30.0000000  0  7G02G07G05G06G13G30G15
 106228832.33946  20214676.199    82775716.32446  20214670.7854         39.3004 
        39.6004 
 122500301.34044  23311022.399    95454785.65644  23311019.4934         24.3004 
        24.5004 
 108279940.24746  20604987.463    84373978.61246  20604983.3414         37.7004 
        38.3004 
 121574044.48444  23134781.737    94733000.36944  23134783.9734         27.5004 
        27.6004 
 109170398.60746  20774427.196    85067853.65346  20774424.0414         38.7004 
        39.1004 
 116906843.63645  22246620.727    91096259.88345  22246620.7534         32.8004 
        32.8004 
 122223997.47144  23258450.880    95239488.92344  23258449.2164         25.2004 
        25.8004 
 15 12 31  2 47  0.0000000  0  7G02G07G05G06G13G30G15
 106270170.41346  20222542.318    82807927.80946  20222537.0954         39.4004 
        39.1004 
 122541319.63344  23318828.863    95486747.96744  23318825.6014         24.3004 
        24.5004 
 108280402.81546  20605075.084    84374339.05446  20605071.3184         38.2004 
        38.5004 
 121678244.02544  23154609.745    94814194.66644  23154611.9504         27.7004 
        28.0004 
 109124562.18846  20765705.125    85032137.00146  20765702.1824         38.7004 
        39.2004 
 116894478.06245  22244267.929    91086624.41645  22244268.2004         33.2004 
        33.2004 
 122136721.85544  23241843.721    95171482.07944  23241841.7634         26.4004 
        25.6004 
 15 12 31  2 47 30.0000000  0  7G02G07G05G06G13G30G15
 106311999.03946  20230502.683    82840521.54646  20230497.0674         38.8004 
        39.2004 
 122582822.28443  23326728.161    95519087.68343  23326723.7534         23.5004 
        23.6004 
 108281049.85146  20605198.418    84374843.22946  20605194.8334         36.9004 
        38.7004 
 121782658.10444  23174479.334    94895556.13344  23174482.0154         27.5004 
        27.9004 
 109079163.17046  20757065.990    84996761.17146  20757062.7304         38.3004 
        37.8004 
 116882623.76445  22242012.055    91077387.34045  22242012.2114         33.2004 
        33.4004 
 122049666.69444  23225277.975    95103647.02244  23225276.3894         29.8004 
        29.9004 
 15 12 31  2 48  0.0000000  0  7G02G07G05G06G13G30G15
 106354316.04046  20238554.792    82873495.83246  20238549.3534         38.9004 
        39.3004 
 122624806.28443  23334716.673    95551802.48643  23334712.5524         23.3004 
        23.4004 
 108281879.72446  20605355.727    84375489.88846  20605352.9314         38.4004 
        38.7004 
 121887282.89844  23194388.118    94977081.78844  23194391.1474         27.3004 
        27.6004 
 109034200.36246  20748509.674    84961725.25646  20748506.5514         38.9004 
        39.3004 
 116871279.94145  22239852.496    91068548.03345  22239853.7944         32.8004 
        33.7004 
 121962830.77244  23208752.411    95035982.78944  23208751.5624         29.6004 
        29.5004 
 15 12 31  2 48 30.0000000  0  7G02G07G05G06G13G30G15
 106397126.11846  20246701.445    82906854.34346  20246695.4394         37.9004 
        38.6004 
 122667275.90943  23342801.246    95584895.71043  23342793.8834         23.8004 
        23.9004 
 108282897.25746  20605549.815    84376282.76746  20605546.3294         37.2004 
        38.1004 
 121992121.78944  23214338.657    95058774.28044  23214341.4604         27.2004 
        27.4004 
 108989679.48946  20740037.380    84927033.70646  20740034.1044         38.3004 
        38.7004 
 116860452.96245  22237793.189    91060111.46245  22237792.5764         33.2004 
        33.3004 
 121876220.31444  23192269.245    94968494.27644  23192270.5504         28.4004 
        28.9004 
 15 12 31  2 49  0.0000000  0  7G02G07G05G06G13G30G15
 106440428.42846  20254941.413    82940596.41046  20254935.8044         37.3004 
        38.7004 
 122710229.92943  23350973.682    95618366.37443  23350967.9724         23.5004 
        23.9004 
 108284102.32246  20605778.902    84377221.77346  20605775.6834         36.6004 
        37.3004 
 122097172.55644  23234329.722    95140631.89644  23234331.3474         26.8004 
        27.0004 
 108945600.86246  20731649.235    84892686.76646  20731646.0004         37.7004 
        37.9004 
 116850143.64445  22235832.143    91052078.27745  22235831.0864         33.4004 
        33.7004 
 121789836.52144  23175832.814    94901182.32244  23175829.9134         27.8004 
        27.9004 
 15 12 31  2 49 30.0000000  0  7G02G07G05G06G13G30G15
 106484216.48946  20263274.629    82974716.98346  20263268.9224         38.5004 
        38.4004 
 122753660.50243  23359237.340    95652208.37243  23359233.5214         23.5004 
        23.6004 
 108285488.65946  20606043.049    84378302.03846  20606039.6134         37.8004 
        38.4004 
 122202427.00244  23254359.326    95222648.19144  23254361.2584         26.9004 
        27.1004 
 108901958.25846  20723345.024    84858679.59046  20723341.4584         38.1004 
        38.4004 
 116840346.59245  22233967.948    91044444.25945  22233966.3304         32.8004 
        33.1004 
 121703674.06644  23159436.808    94834042.81444  23159434.6324         28.4004 
        28.4004 
 15 12 31  2 50  0.0000000  0  7G02G07G05G06G13G30G15
 106528492.67646  20271699.640    83009217.90646  20271694.4764         36.9004 
        38.0004 
 122797569.43943  23367590.770    95686423.12443  23367586.9014         22.2004 
        22.0004 
 108287059.01546  20606341.512    84379525.69746  20606338.5324         36.8004 
        37.4004 
 122307885.94944  23274427.805    95304823.81144  23274429.2234         26.6004 
        27.0004 
 108858755.29546  20715123.393    84825014.99346  20715120.0874         37.0004 
        37.6004 
 116831065.61145  22232201.327    91037212.37045  22232200.5564         32.9004 
        33.1004 
 121617736.81744  23143082.499    94767078.78044  23143081.7574         29.2004 
        29.5004 
 15 12 31  2 50 30.0000000  0  7G02G07G05G06G13G30G15
 106573258.10146  20280218.265    83044100.05646  20280212.7714         37.9004 
        38.3004 
 122841957.71943  23376040.279    95721011.38943  23376034.2784         21.2004 
        22.0004 
 108288815.43946  20606675.958    84380894.33546  20606672.7054         37.4004 
        38.2004 
 122413549.34944  23294535.520    95387158.78244  23294538.5004         26.8004 
        26.6004 
 108815993.79146  20706986.365    84791694.39346  20706982.6034         38.3004 
        38.6004 
 116822303.68445  22230534.766    91030384.92445  22230532.9564         33.5004 
        33.2004 
 121532027.67445  23126773.286    94700292.51945  23126772.6724         30.0004 
        30.2004 
 15 12 31  2 51  0.0000000  0  7G02G07G05G06G13G30G15
 106618514.01146  20288829.912    83079364.39846  20288824.3774         37.4004 
        38.4004 
 122886825.49643  23384579.134    95755973.27443  23384576.5304         21.2004 
        21.6004 
 108290759.91446  20607045.800    84382409.50846  20607042.6144         37.9004 
        38.3004 
 122519417.03144  23314680.734    95469652.91144  23314684.3224         26.8004 
        27.1004 
 108773676.29046  20698933.116    84758719.76646  20698930.1534         37.9004 
        38.1004 
 116814063.44245  22228966.957    91023963.99745  22228965.1124         34.4004 
        34.4004 
 121446549.72344  23110508.019    94633686.40045  23110505.7474         29.7004 
        30.0004 
 15 12 31  2 51 30.0000000  0  7G02G07G05G06G13G30G15
 106664256.16846  20297535.145    83115007.63946  20297528.6004         36.5004 
        36.9004 
 122932168.48443  23393205.309    95791305.41643  23393203.5754         22.7004 
        22.8004 
 108292888.41046  20607451.183    84384068.07246  20607447.5714         36.1004 
        36.7004 
 122625483.40444  23334864.849    95552301.87044  23334867.4904         26.0004 
        26.6004 
 108731799.46646  20690964.464    84726088.52546  20690961.1924         37.2004 
        37.3004 
 116806342.16645  22227496.898    91017947.47745  22227496.6044         34.2004 
        34.0004 
 121361300.29845  23094284.156    94567258.34445  23094283.7094         30.0004 
        30.1004 
 15 12 31  2 52  0.0000000  0  7G02G07G05G06G13G30G15
 106710478.97045  20306330.659    83151025.40945  20306324.8654         32.0004 
        32.3004 
 122977979.74143  23401923.026    95827002.47243  23401921.4104         20.9004 
        22.8004 
 108295195.87445  20607889.850    84385866.09545  20607886.5924         32.2004 
        32.2004 
 122731741.11244  23355085.222    95635099.93644  23355088.3594         25.0004 
        25.6004 
 108690358.17145  20683078.814    84693796.65645  20683075.3544         31.6004 
        32.2004 
 116799135.48344  22226125.113    91012331.92444  22226124.8524         29.3004 
        29.8004 
 121276275.14844  23078104.647    94501005.01644  23078104.5134         28.3004 
        28.4004 
 15 12 31  2 52 30.0000000  0  7G02G07G05G06G13G30G15
 106757188.20345  20315218.959    83187422.21345  20315213.8424         34.6004 
        35.5004 
 123024264.34343  23410732.212    95863068.36843  23410728.1204         20.9004 
        20.5004 
 108297688.67145  20608364.595    84387808.52945  20608361.1314         35.3004 
        35.4004 
 122838194.76844  23375343.182    95718050.63844  23375344.9984         24.7004 
        24.4004 
 108649359.18445  20675276.590    84661849.44846  20675273.2014         35.0004 
        36.0004 
 116792450.73445  22224852.711    91007123.06945  22224852.1144         32.5004 
        32.7004 
 121191481.47044  23061969.364    94434932.06344  23061967.2624         28.8004 
        29.3004 
 15 12 31  2 53  0.0000000  0  7G02G07G05G06G13G30G15
 106804382.51146  20324200.022    83224196.99746  20324194.1784         36.2004 
        36.6004 
 123071020.88143  23419629.504    95899501.98643  23419624.3964         19.8004 
        20.5004 
 108300366.00346  20608873.286    84389894.76146  20608870.6874         36.5004 
        37.0004 
 122944841.56044  23395637.581    95801151.84344  23395639.4174         25.3004 
        25.6004 
 108608802.16546  20667558.814    84630246.61846  20667555.3084         36.3004 
        37.1004 
 116786288.01745  22223679.960    91002320.97845  22223680.2424         32.5004 
        32.8004 
 121106920.01244  23045877.581    94369040.08444  23045875.9654         28.6004 
        28.8004 
 15 12 31  2 53 30.0000000  0  7G02G07G05G06G13G30G15
 106852066.43045  20333273.750    83261353.29445  20333268.1964         32.1004 
        32.6004 
 123118252.80243  23428616.483    95936306.07143  23428612.9094         19.8004 
        19.7004 
 108303233.37945  20609419.068    84392129.08745  20609416.1934         34.6004 
        35.6004 
 123051684.88344  23415967.851    95884406.21044  23415971.0894         25.3004 
        25.2004 
 108568692.66545  20659926.064    84598992.49745  20659922.3884         32.2004 
        35.2004 
 116780653.56145  22222607.627    90997930.53145  22222608.5334         31.9004 
        32.2004 
 121022596.86144  23029831.468    94303333.81344  23029830.3834         28.2004 
        28.4004 
 15 12 31  2 54  0.0000000  0  7G02G07G05G06G13G30G15
 106900234.45145  20342440.080    83298886.80646  20342434.2174         35.2004 
        36.0004 
 123165954.08643  23437693.999    95973475.90343  23437691.3924         19.2004 
        20.1004 
 108306285.91346  20610000.481    84394507.68546  20609997.1644         36.1004 
        36.3004 
 123158717.77044  23436334.643    95967808.28144  23436339.6204         24.3004 
        25.2004 
 108529025.98346  20652377.945    84568083.43446  20652374.3434         36.1004 
        36.1004 
 116775543.17845  22221635.328    90993948.45845  22221635.6934         32.5004 
        32.6004 
 120938508.13444  23013829.078    94237810.16944  23013828.5084         28.6004 
        28.9004 
 15 12 31  2 54 30.0000000  0  7G02G07G05G06G13G30G15
 106948888.68246  20351698.449    83336799.19246  20351692.7614         37.9004 
        38.4004 
 123214126.23043  23446861.986    96011012.61243  23446857.9174         21.3004 
        20.1004 
 108309526.51746  20610617.079    84397032.83946  20610613.7074         37.5004 
        37.9004 
 123265941.08043  23456739.310    96051358.70643  23456742.1424         23.3004 
        23.6004 
 108489805.11746  20644913.893    84537521.75646  20644911.2504         37.3004 
        37.2004 
 116770960.46245  22220763.023    90990377.55545  22220763.1524         31.9004 
        32.1004 
 120854657.69344  22997872.855    94172472.23744  22997871.4004         28.7004 
        28.4004 
 15 12 31  2 55  0.0000000  0  7G02G07G05G06G13G30G15
 106998024.37745  20361048.941    83375086.74445  20361043.1274         33.5004 
        33.9004 
 123262763.87743  23456114.706    96048912.08243  23456111.8674         21.3004 
        21.7004 
 108312950.73145  20611268.709    84399701.05545  20611265.2694         32.9004 
        33.6004 
 123373348.49144  23477180.259    96135052.59243  23477182.6094         24.2004 
        23.8004 
 108451026.29245  20637534.818    84507304.52346  20637531.5164         33.7004 
        36.1004 
 116766901.93745  22219989.939    90987215.10745  22219989.9404         32.7004 
        33.9004 
 120771042.15144  22981961.982    94107317.31844  22981960.3064         29.7004 
        29.9004 
 15 12 31  2 55 30.0000000  0  7G02G07G05G06G13G30G15
 107047647.66945  20370491.243    83413754.24146  20370486.2014         32.9004 
        36.8004 
 123311872.37143  23465462.281    96087178.45043  23465457.7624         20.9004 
        20.4004 
 108316565.91145  20611956.739    84402518.07645  20611953.4714         33.3004 
        33.8004 
 123480945.33744  23497656.068    96218894.07944  23497656.8984         24.2004 
        24.3004 
 108412696.93645  20630241.032    84477437.52445  20630237.6564         33.0004 
        33.5004 
 116763375.64545  22219319.809    90984467.38945  22219319.1854         31.1004 
        31.5004 
 120687669.96944  22966096.958    94042352.05244  22966095.9804         29.3004 
        29.2004 
 15 12 31  2 56  0.0000000  0  7G02G07G05G06G13G30G15
 107097751.04045  20380025.609    83452795.82245  20380020.6734         34.7004 
        35.3004 
 123361443.64943  23474892.940    96125805.40243  23474893.5844         19.8004 
        20.4004 
 108320365.03845  20612679.881    84405478.43045  20612676.2464         34.2004 
        35.5004 
 123588722.34444  23518166.224    96302875.92444  23518167.4134         24.3004 
        24.9004 
 108374810.10545  20623031.342    84447915.34945  20623027.6274         34.0004 
        34.7004 
 116760375.07245  22218748.673    90982129.31645  22218747.8514         31.8004 
        32.0004 
 120604535.11644  22950276.684    93977571.74344  22950274.9594         29.1004 
        28.7004 
 15 12 31  2 56 30.0000000  0  7G02G07G05G06G13G30G15
 107148337.38645  20389652.112    83492213.75145  20389646.8134         35.5004 
        33.3004 
 123411479.88243  23484415.579    96164794.66643  23484412.4064         19.8004 
        19.4004 
 108324352.01445  20613438.078    84408585.16445  20613435.0274         35.0004 
        32.6004 
 123696681.30044  23538709.548    96386999.59044  23538712.9164         24.7004 
        24.9004 
 108337369.66545  20615906.720    84418741.02045  20615902.8734         32.3004 
        32.8004 
 116757904.66145  22218278.409    90980204.37445  22218277.2604         31.1004 
        31.4004 
 120521641.93644  22934502.306    93912979.72444  22934501.0744         28.0004 
        28.4004 
 15 12 31  2 57  0.0000000  0  7G02G07G05G06G13G30G15
 107199408.90146  20399371.073    83532009.72546  20399365.2104         37.4004 
        37.8004 
 123461982.59942  23494025.075    96204147.43243  23494021.7294         17.8004 
        19.4004 
 108328529.84646  20614233.311    84411840.61346  20614229.9714         36.3004 
        38.0004 
 123804823.14044  23559288.282    96471265.73444  23559292.1534         24.2004 
        24.5004 
 108300378.62146  20608867.397    84389916.86846  20608863.9144         37.2004 
        37.6004 
 116755968.10045  22217910.095    90978695.41945  22217908.9724         32.3004 
        32.1004 
 120438994.49144  22918774.090    93848579.22744  22918773.9514         28.5004 
        29.1004 
 15 12 31  2 57 30.0000000  0  7G02G07G05G06G13G30G15
 107250959.59245  20409181.226    83572179.08945  20409175.1194         34.5004 
        35.0004 
 123512945.40242  23503723.068    96243858.67642  23503722.8264         17.8004 
        17.8004 
 108332893.75345  20615063.518    84415241.06245  20615060.5014         33.9004 
        34.3004 
 123913140.73744  23579899.030    96555668.82944  23579905.1474         24.6004 
        24.5004 
 108263832.35745  20601912.853    84361439.27945  20601909.5284         34.5004 
        35.0004 
 116754560.91445  22217642.633    90977598.95345  22217641.0494         33.4004 
        33.5004 
 120356588.77845  22903093.961    93784367.07044  22903091.9774         30.1004 
        29.7004 
 15 12 31  2 58  0.0000000  0  7G02G07G05G06G13G30G15
 107302991.02245  20419081.777    83612723.05145  20419076.2874         35.1004 
        35.9004 
 123564368.93143  23513511.295    96283928.91242  23513508.6744         19.2004 
        17.8004 
 108337445.72345  20615929.875    84418788.06345  20615926.8854         34.9004 
        35.4004 
 124021634.22643  23600544.806    96640208.96844  23600549.4284         23.6004 
        24.1004 
 108227732.54145  20595043.274    84333309.57345  20595040.2804         34.3004 
        35.4004 
 116753685.86845  22217476.213    90976917.13245  22217474.7964         30.8004 
        31.2004 
 120274427.99844  22887459.074    93720345.79644  22887455.8284         28.4004 
        29.2004 
 15 12 31  2 58 30.0000000  0  7G02G07G05G06G13G30G15
 107355500.76445  20429074.015    83653639.72846  20429068.5654         34.8004 
        37.3004 
 123616250.29443  23523384.725    96324355.93343  23523381.6984         21.7004 
        20.5004 
 108342184.14945  20616831.593    84422480.35246  20616828.4594         34.2004 
        37.2004 
 124130300.04043  23621222.777    96724883.39944  23621227.4034         23.6004 
        24.1004 
 108192078.45945  20588258.745    84305527.19545  20588255.1014         34.6004 
        35.3004 
 116753342.07745  22217410.482    90976649.26945  22217409.6024         32.4004 
        32.7004 
 120192511.30444  22871871.455    93656514.71044  22871869.1994         28.3004 
        28.8004 
 15 12 31  2 59  0.0000000  0  7G02G07G05G06G13G30G15
 107408486.93145  20439156.962    83694927.64745  20439151.4594         34.5004 
        34.2004 
 123668586.64443  23533343.050    96365137.49343  23533342.4834         21.7004 
        22.7004 
 108347108.39645  20617768.586    84426317.42745  20617765.4094         34.4004 
        35.0004 
 124239135.18143  23641933.302    96809689.76043  23641937.6414         23.4004 
        23.6004 
 108156868.94945  20581558.690    84278091.22945  20581554.8154         34.4004 
        34.2004 
 116753529.14845  22217445.720    90976795.06845  22217445.8034         31.0004 
        31.7004 
 120110838.89344  22856329.183    93592873.96944  22856328.0554         28.4004 
        28.9004 
 15 12 31  2 59 30.0000000  0  7G02G07G05G06G13G30G15
 107461951.62146  20449331.023    83736588.43446  20449325.4554         37.1004 
        36.7004 
 123721380.14543  23543389.335    96406275.24343  23543387.7644         22.6004 
        22.7004 
 108352221.44445  20618741.677    84430301.62945  20618738.2454         31.4004 
        32.4004 
 124348140.62143  23662677.369    96894628.81043  23662680.5374         22.6004 
        22.7004 
 108122107.31945  20574943.475    84251004.26345  20574939.8964         34.6004 
        32.2004 
 116754250.62245  22217583.484    90977357.26345  22217581.9234         32.1004 
        31.2004 
 120029414.55044  22840834.093    93529426.55744  22840834.0544         29.3004 
        29.7004 
 15 12 31  3  0  0.0000000  0  7G02G07G05G06G13G30G15
 107515894.70046  20459595.901    83778621.98846  20459590.6634         36.0004 
        36.9004 
 123774629.69043  23553523.392    96447768.38843  23553519.2894         21.9004 
        22.7004 
 108357524.25346  20619750.516    84434433.70146  20619747.2634         36.1004 
        36.6004 
 124457315.12943  23683454.221    96979699.57043  23683456.2084         22.6004 
        23.2004 
 108087794.12746  20568413.638    84224266.73146  20568410.2364         36.7004 
        36.5004 
 116755507.87345  22217822.493    90978336.95445  22217822.1864         32.0004 
        33.0004 
 119948239.95645  22825387.673    93466173.73445  22825385.9624         30.0004 
        30.6004 
 15 12 31  3  0 30.0000000  0  7G02G07G05G06G13G30G15
 107570319.26146  20469952.851    83821030.72446  20469947.1714         37.8004 
        38.1004 
 123828337.46943  23563741.492    96489618.56843  23563735.4034         21.9004 
        20.0004 
 108363020.76446  20620797.012    84438716.70746  20620793.0224         36.6004 
        36.4004 
 124566660.41743  23704261.898    97064903.43843  23704264.6974         23.1004 
        23.2004 
 108053933.43946  20561970.078    84197881.79746  20561966.6114         37.0004 
        37.5004 
 116757305.22645  22218164.440    90979737.47445  22218164.6944         33.0004 
        32.8004 
 119867320.09945  22809988.758    93403119.40245  22809987.4054         30.9004 
        30.7004 
 15 12 31  3  1  0.0000000  0  7G02G07G05G06G13G30G15
 107625220.99346  20480400.085    83863811.27746  20480394.7024         38.1004 
        38.7004 
 123882498.70542  23574045.700    96531822.07743  23574040.8874         16.2004 
        20.0004 
 108368707.94546  20621879.225    84443148.28546  20621875.4964         37.3004 
        38.1004 
 124676171.03644  23725100.287    97150236.13044  23725104.0714         24.4004 
        24.3004 
 108020521.88745  20555612.631    84171846.84046  20555608.8734         33.3004 
        38.2004 
 116759639.70245  22218608.962    90981556.55645  22218609.1594         33.4004 
        33.7004 
 119786652.30945  22794637.746    93340261.49445  22794636.4864         30.0004 
        30.3004 
 15 12 31  3  1 30.0000000  0  7G02G07G05G06G13G30G15
 107680596.52045  20490937.492    83906961.02145  20490932.5774         35.8004 
        35.1004 
 123937109.44842  23584440.263    96574375.87542  23584437.8694         16.2004 
        12.9004 
 108374582.96545  20622996.828    84447726.23145  20622993.5524         33.2004 
        34.6004 
 124785842.39944  23745970.318    97235694.08844  23745974.4074         24.0004 
        24.2004 
 107987557.03145  20549339.295    84146159.95646  20549335.9744         33.7004 
        36.0004 
 116762509.34245  22219154.697    90983792.63445  22219155.3534         32.3004 
        33.3004 
 119706234.92545  22779335.420    93277598.70545  22779332.4834         30.2004 
        30.4004 
 15 12 31  3  2  0.0000000  0  7G02G07G05G06G13G30G15
 107736454.95146  20501567.090    83950487.06646  20501562.1664         38.7004 
        39.5004 
 123992178.17642  23594919.432    96617286.52042  23594918.9884         12.7004 
        12.9004 
 108380656.24246  20624152.315    84452458.65946  20624149.3404         38.0004 
        38.6004 
 124895682.63543  23766873.173    97321283.60743  23766876.1494         23.4004 
        23.4004 
 107955049.00946  20543153.404    84120829.05346  20543149.8304         38.6004 
        38.8004 
 116765924.70145  22219803.947    90986453.94345  22219804.6164         32.6004 
        32.3004 
 119626079.14745  22764082.822    93215139.72545  22764080.0794         30.0004 
        30.5004 
 15 12 31  3  2 30.0000000  0  7G02G07G05G06G13G30G15
 107792790.28446  20512287.687    83994384.71546  20512281.8944         38.1004 
        38.5004 
 124047698.21542  23605485.026    96660548.83842  23605483.6714         12.7004 
        16.7004 
 108386922.80046  20625345.198    84457341.71146  20625341.8744         37.3004 
        37.6004 
 125005684.81043  23787805.685    97406999.28043  23787809.5024         23.4004 
        23.4004 
 107922993.01946  20537053.519    84095850.37946  20537049.7874         38.1004 
        38.4004 
 116769881.32845  22220557.541    90989537.03645  22220557.0724         33.5004 
        33.6004 
 119546181.00845  22748878.141    93152881.51945  22748876.0464         31.1004 
        31.5004 
 15 12 31  3  3  0.0000000  0  7G02G07G05G06G13G30G15
 107849602.09845  20523098.547    84038653.64445  20523092.9234         31.7004 
        32.4004 
 124103668.92343  23616139.870    96704162.34143  23616136.6804         19.8004 
        22.2004 
 108393383.68445  20626574.253    84462376.18545  20626571.0204         31.3004 
        32.5004 
 125115847.38144  23808769.287    97492839.93044  23808772.9014         24.5004 
        24.6004 
 107891389.26145  20531039.250    84071224.09545  20531035.5554         31.2004 
        31.8004 
 116774380.18345  22221414.231    90993042.65245  22221412.8034         31.0004 
        33.7004 
 119466542.08045  22733722.578    93090825.31845  22733720.3004         30.8004 
        30.9004 
