     2.11           OBSERVATION DATA    G (GPS)             RINEX VERSION / TYPE
AndroidGNSSReceiver RITSUMEIKAN KUBOLAB 1548141089718       PGM / RUN BY / DATE
flounder                                                    MARKER NAME
GRitzLogger         KUBOLAB                                 OBSERVER / AGENCY
0                   Android Receiver                        REC # / TYPE / VERS
0                   Android Anttena                         ANT # / TYPE
        0.0000        0.0000        0.0000                  APPROX POSITION XYZ
        0.0000        0.0000        0.0000                  ANTENNA: DELTA H/E/N
1     0                                                     WAVELENGTH FACT L1/2
3         L1    C1    S1                                    # / TYPES OF OBSERV
1.000                                                       INTERVAL
  2019     1    22     7     7   42.9998367     GPS         TIME OF FIRST OBS
                                                            END OF HEADER

 19  1 22  7  7 42.9998369  0  7G 3G14G16G22G25G29G31
     -2218.3591   24573923.024          33.035  
       613.1831   20349882.668          35.255  
    -15863.0811   23895619.502          31.736  
      1801.6111   24611040.632          34.793  
     13137.9891   22866960.830          38.236  
      -391.1521   21474305.849          42.799  
     -5043.9021   20950158.004          43.275  
 19  1 22  7  7 43.9998369  0  7G 3G14G16G22G25G29G31
     -2770.1281   24573821.394          32.720  
       736.6781   20349923.440          35.564  
    -19154.7081   23894991.442          34.181  
      2193.1261   24611088.297          36.561  
     16122.5751   22867525.937          38.021  
      -469.6141   21474291.156          43.247  
        -9.3781   20949960.747          44.145  
 19  1 22  7  7 44.9998369  0  7G 3G14G16G22G25G29G31
     -3324.8651   24573746.751          32.014  
       869.0801   20349933.937          35.441  
    -22445.3171   23894363.671          34.210  
      2585.6981   24611175.836          35.166  
     19106.0161   22868098.540          37.897  
      -548.3841   21474275.870          43.113  
     -1062.5801   20949761.378          44.078  
 19  1 22  7  7 45.9998369  0  7G 3G14G16G22G25G29G31
     -3886.1381   24573660.407          30.214  
      1003.5821   20349961.211          36.406  
    -25735.6141   23893735.611          37.204  
      2975.5181   24611253.481          36.552  
     22090.6281   22868656.153          38.197  
      -625.3261   21474262.075          43.066  
     -2110.712    20949557.821          44.574  
 19  1 22  7  7 46.9998369  0  7G 3G14G16G22G25G29G31
     -4435.2621   24573508.712          30.416  
      1137.6461   20349989.690          36.485  
    -29024.9591   23893117.437          37.091  
      3366.6551   24611313.440          36.286  
     25074.3881   22869236.259          38.058  
        -0.5811   21474258.481          43.328  
     -3160.4431   20949363.853          44.588  
 19  1 22  7  7 47.9998369  0  7G 3G14G16G22G25G29G31
     -4987.1241   24573413.975          30.255  
      1272.2011   20350019.373          35.926  
    -32315.2201   23892480.976          36.430  
      3760.2851   24611389.889          36.029  
     28060.8771   22869797.467          39.270  
       -77.4831   21474233.893          42.770  
     -4207.3371   20949158.194          43.969  
 19  1 22  7  7 48.9998369  0  8G 3G14G16G22G25G26G29G31
     -5534.7581   24573304.257          35.558  
      1406.5231   20350038.263          35.183  
    -35610.8111   23891867.007          33.500  
      4152.4371   24611473.528          37.331  
     31045.4021   22870372.173          38.893  
    -14715.5841   21773605.449          41.803  
      -154.0281   21474218.005          42.722  
     -5257.9111   20948961.835          43.929  
 19  1 22  7  7 49.9998369  0  8G 3G14G16G22G25G26G29G31
     -6083.9041   24573219.711          33.318  
      1541.5811   20350067.038          35.157  
    -38902.6411   23891228.146          35.101  
      4546.8411   24611541.584          36.692  
     34031.3941   22870934.279          38.896  
    -16871.2661   21773189.034          41.054  
      -228.1401   21474207.517          42.364  
     -6304.2781   20948756.472          43.852  
 19  1 22  7  7 50.9998369  0  8G 3G14G16G22G25G26G29G31
     -6637.6791   24573080.013          33.991  
      1675.9651   20350088.921          35.120  
    -42193.8841   23890619.866          32.572  
      4939.0181   24611612.336          37.150  
     37016.5251   22871499.989          38.162  
    -19030.3891   21772783.413          40.540  
      -303.9441   21474191.323          42.072  
     -7354.9881   20948563.412          43.572  
 19  1 22  7  7 51.9998369  0  8G 3G14G16G22G25G26G29G31
     -7176.9691   24572996.069          34.895  
      1810.2611   20350123.106          36.205  
    -45480.7491   23889975.910          36.057  
      5337.1451   24611690.880          37.655  
     40002.2011   22872067.496          38.994  
    -21193.6781   21772369.703          40.397  
      -376.1091   21474182.930          42.348  
     -8398.8411   20948364.645          43.385  
 19  1 22  7  7 52.9998369  0  8G 3G14G16G22G25G26G29G31
     -7728.7001   24572892.039          34.455  
      1944.4171   20350139.291          34.971  
    -48768.0041   23889358.940          34.812  
      5735.3831   24611767.922          35.669  
     42987.6221   22872638.302          38.409  
    -23351.0811   21771958.689          40.329  
      -448.5231   21474169.144          42.244  
     -9442.7731   20948166.481          43.936  
 19  1 22  7  7 53.9998369  0  8G 3G14G16G22G25G26G29G31
     -8285.8011   24572803.898          32.843  
      2079.7251   20350169.270          35.339  
    -52055.1671   23888737.468          37.759  
      6134.6251   24611839.276          36.655  
     45969.2271   22873209.107          39.060  
    -25507.9391   21771553.068          40.238  
      -516.2921   21474154.155          43.010  
    -10486.1571   20947967.426          43.226  
 19  1 22  7  7 54.9998369  0  8G 3G14G16G22G25G26G29G31
     -8832.6131   24572681.886          33.241  
      2213.8551   20350192.654          35.283  
       -65.4651   23888105.508          35.653  
      6532.3211   24611936.107          37.192  
     48953.6031   22873776.309          38.411  
    -27658.0691   21771144.445          39.580  
      -590.0251   21474136.460          43.629  
    -11531.594    20947767.464          43.943  
 19  1 22  7  7 55.9998369  0  8G 3G14G16G22G25G26G29G31
     -9381.2761   24572577.255          34.958  
      2352.5261   20350216.639          35.211  
     -3354.3441   23887472.650          34.744  
      6931.5201   24611996.965          36.556  
     51939.4871   22874346.817          39.406  
    -29814.6741   21770736.136          39.781  
      -659.8341   21474129.270          44.240  
    -12576.6851   20947569.299          42.808  
 19  1 22  7  7 56.9998369  0  8G 3G14G16G22G25G26G29G31
     -9924.4621   24572478.626          34.429  
      2493.9471   20350256.207          34.706  
     -6640.0741   23886842.784          33.872  
      7327.4691   24612080.909          37.299  
     54926.4231   22874908.933          39.918  
    -31968.8071   21770316.423          39.467  
      -728.2131   21474111.585          43.250  
    -13619.5481   20947371.135          43.153  
 19  1 22  7  7 57.9998369  0  8G 3G14G16G22G25G26G29G31
    -10466.7851   24572382.990          31.534  
      2631.2111   20350276.895          35.974  
     -9925.5901   23886232.402          35.398  
      7722.8261   24612151.365          36.658  
     57912.6681   22875479.729          40.703  
    -34125.0281   21769912.302          40.260  
      -796.0571   21474092.695          44.200  
    -14659.3051   20947173.572          43.838  
