     2.11           OBSERVATION DATA    G (GPS)             RINEX VERSION / TYPE
AndroidGNSSReceiver RITSUMEIKAN KUBOLAB 1548141230995       PGM / RUN BY / DATE
flounder                                                    MARKER NAME
GRitzLogger         KUBOLAB                                 OBSERVER / AGENCY
0                   Android Receiver                        REC # / TYPE / VERS
0                   Android Anttena                         ANT # / TYPE
        0.0000        0.0000        0.0000                  APPROX POSITION XYZ
        0.0000        0.0000        0.0000                  ANTENNA: DELTA H/E/N
1     0                                                     WAVELENGTH FACT L1/2
3         L1    C1    S1                                    # / TYPES OF OBSERV
1.000                                                       INTERVAL
  2019     1    22     7     9    1.9998410     GPS         TIME OF FIRST OBS
                                                            END OF HEADER
 19  1 22  7  9  1.9998410  0  8G 3G14G16G22G25G26G31G32
    -32683.742    24567156.414          45.497  
      9915.898    20353433.412          40.517  
   -219709.531    23847538.193          40.941  
     25989.155    24618410.435          35.415  
    134724.214    22913153.458          33.229  
   -135126.904    21745010.344          45.846  
    -81253.963    20935718.507          43.761  
    113084.535    20833227.262          42.248  
 19  1 22  7  9  2.9998410  0  8G 3G14G16G22G25G26G31G32
    -33191.172    24567057.184          43.184  
     10096.685    20353457.999          37.068  
   -222977.821    23846918.823          39.986  
     26420.9571   24618464.696          31.988  
    137721.676    22913749.741          31.736  
   -137258.187    21744611.319          42.574  
    -82285.963    20935521.843          42.906  
    114927.541    20833571.721          40.676  
 19  1 22  7  9  3.9998410  0  8G 3G14G16G22G25G26G31G32
    -33699.014    24566966.050          43.131  
     10276.929    20353510.464          36.395  
   -226246.846    23846286.262          40.414  
     26849.622    24618539.942          30.707  
    140718.253    22914343.929          30.123  
   -139390.157    21744202.102          41.159  
    -83318.799    20935332.674          44.609  
    116769.829    20833927.574          42.714  
 19  1 22  7  9  4.9998410  0  8G 3G14G16G22G25G26G31G32
    -34206.265    24566877.010          44.776  
     10457.665    20353544.936          37.784  
   -229515.604    23845663.891          40.415  
     27278.937    24618614.594          30.876  
    143714.852    22914920.432          26.992  
   -141521.742    21743801.882          43.241  
    -84351.439    20935137.511          44.611  
    118612.601    20834298.418          42.182  
 19  1 22  7  9  5.9998410  0  7G 3G14G16G22G26G31G32
    -34713.142    24566777.780          44.734  
     10639.641    20353582.411          37.037  
   -232783.237    23845049.015          41.386  
     27708.264    24618717.122          36.931  
   -143652.385    21743390.868          42.022  
    -85383.864    20934940.542          42.555  
    120456.810    20834635.983          42.331  
 19  1 22  7  9  6.9998410  0  7G 3G14G16G22G26G31G32
    -35222.2871   24566680.346          40.157  
     10823.0521   20353617.782          37.810  
   -236050.048    23844426.051          39.752  
     28135.748    24618797.760          43.227  
   -145783.1901   21742985.543          42.890  
    -86412.7521   20934733.390          40.544  
    122304.7571   20834993.338          42.292  
 19  1 22  7  9  7.9998410  0  8G 3G14G16G22G26G29G31G32
    -35731.0581   24566579.615          39.305  
     11005.4341   20353642.073          37.023  
   -239317.3851   23843806.682          38.110  
     28562.323    24618884.400          43.638  
   -147919.6541   21742578.726          43.234  
       -39.7091   21474800.511          36.229  
    -87442.8931   20934542.424          39.230  
    124154.8751   20835337.500          42.476  
 19  1 22  7  9  8.9998410  0  8G 3G14G16G22G26G29G31G32
    -36239.6291   24566485.480          41.659  
     11192.8381   20353682.243          37.415  
   -242585.464    23843181.912          39.752  
     28988.423    24618964.148          42.609  
   -150052.3531   21742176.106          43.365  
       -46.0451   21474809.201          35.600  
    -88482.3131   20934349.355          39.025  
    126004.3821   20835693.353          42.655  
 19  1 22  7  9  9.9998410  0  8G 3G14G16G22G26G29G31G32
    -36749.9781   24566384.452          40.736  
     11379.6711   20353711.019          37.043  
   -245853.1971   23842557.447          38.189  
     29414.916    24619042.098          43.183  
   -152186.0211   21741770.790          44.295  
       -55.1301   21474793.914          34.356  
    -89516.3621   20934146.391          40.017  
    127854.6221   20836046.511          42.880  
 19  1 22  7  9 10.9998410  0  8G 3G14G16G22G26G29G31G32
    -37259.1971   24566288.519          41.358  
     11566.2361   20353754.793          37.227  
   -249120.9331   23841931.778          39.158  
     29841.946    24619122.439          42.718  
   -154318.317    21741363.973          42.886  
       -65.8751   21474791.515          35.651  
    -90550.6211   20933964.124          41.062  
    129708.9261   20836391.266          42.350  
 19  1 22  7  9 11.9998410  0  8G 3G14G16G22G26G29G31G32
    -37765.5871   24566192.578          40.950  
     11754.6501   20353781.177          37.054  
   -252388.7471   23841324.694          39.172  
     30269.352    24619206.680          44.302  
   -156448.5161   21740953.552          42.571  
       -75.7721   21474785.817          35.547  
    -91585.2941   20933754.869          39.143  
    131553.9881   20836750.418          42.836  
 19  1 22  7  9 12.9998410  0  8G 3G14G16G22G26G29G31G32
    -38273.985    24566093.347          41.349  
     11942.2631   20353824.943          37.056  
   -255655.9071   23840694.532          39.194  
     30697.603    24619286.427          44.005  
   -158579.0601   21740553.628          43.318  
       -82.8051   21474798.713          35.452  
    -92622.8471   20933558.502          39.385  
    133408.0301   20837102.676          43.044  
 19  1 22  7  9 13.9998410  0  8G 3G14G16G22G26G29G31G32
    -38781.193    24566000.416          40.483  
     12134.5631   20353854.625          37.450  
   -258921.7941   23840074.560          38.517  
     31126.572    24619367.972          44.870  
   -160707.710    21740147.108          44.230  
       -89.4661   21474789.718          37.114  
    -93656.9531   20933363.339          39.339  
    135264.0381   20837446.542          41.899  
 19  1 22  7  9 14.9998410  0  8G 3G14G16G22G26G29G31G32
    -39287.7311   24565901.185          41.302  
     12325.6681   20353899.891          37.655  
   -262187.969    23839447.696          39.787  
     31556.477    24619454.010          43.993  
   -162832.7941   21739746.294          43.964  
       -97.3561   21474795.712          37.417  
    -94694.1051   20933163.377          38.827  
    137117.042    20837806.889          42.806  
 19  1 22  7  9 15.9998410  0  8G 3G14G16G22G26G29G31G32
    -39795.1051   24565807.652          40.435  
     12520.8671   20353927.768          36.995  
   -265453.9851   23838828.327          39.327  
     31986.977    24619533.156          45.118  
   -164963.9791   21739335.874          44.077  
      -105.5251   21474793.609          37.839  
    -95724.1191   20932968.213          39.076  
    138972.5211   20838155.849          42.063  
 19  1 22  7  9 16.9998410  0  8G 3G14G16G22G26G29G31G32
    -40298.8201   24565708.413          40.896  
     12713.0791   20353965.548          37.347  
   -268718.1921   23838211.051          39.308  
     32418.491    24619618.592          44.825  
   -167093.1961   21738933.253          44.362  
      -110.0831   21474794.516          36.972  
    -96755.2121   20932778.146          39.461  
    140828.9601   20838515.603          42.789  
 19  1 22  7  9 17.9998410  0  8G 3G14G16G22G26G29G31G32
    -40802.2801   24565622.375          40.347  
     12907.9251   20353997.325          37.000  
   -271981.8181   23837592.581          39.272  
     32850.791    24619695.940          44.589  
   -169218.7961   21738529.133          44.039  
      -113.9861   21474788.514          37.115  
    -97790.8021   20932579.082          39.469  
    142684.3211   20838861.562          41.867  
 19  1 22  7  9 18.9998410  0  8G 3G14G16G22G26G29G31G32
    -41305.5991   24565517.752          40.381  
     13095.2861   20354044.091          37.587  
   -275245.6951   23836966.319          39.258  
     33283.328    24619779.884          44.249  
   -171343.0841   21738128.606          43.923  
      -117.3821   21474795.712          37.372  
    -98821.8911   20932389.913          40.419  
    144539.8331   20839216.814          42.471  
 19  1 22  7  9 19.9998410  0  8G 3G14G16G22G26G29G31G32
    -41807.6591   24565428.110          38.798  
     13288.0841   20354073.774          36.749  
   -278509.2141   23836340.650          37.932  
     33716.549    24619864.422          44.626  
   -173467.867    21737716.991          43.987  
      -119.5121   21474791.218          37.207  
    -99851.6661   20932185.449          40.131  
    146397.1931   20839571.472          41.806  
 19  1 22  7  9 20.9998410  0  8G 3G14G16G22G26G29G31G32
    -42309.917    24565327.981          40.571  
     13486.9091   20354108.849          36.952  
   -281773.4701   23835724.273          39.225  
     34149.671    24619945.670          44.316  
   -175593.2241   21737312.573          44.086  
      -120.7721   21474787.615          35.771  
   -100886.7941   20931992.982          39.543  
    148256.4251   20839920.424          42.178  
 19  1 22  7  9 21.9998410  0  8G 3G14G16G22G26G29G31G32
    -42811.6761   24565232.048          40.405  
     13680.4811   20354152.919          37.900  
   -285036.6941   23835097.409          38.414  
     34583.376    24620025.112          45.294  
   -177717.6771   21736911.148          44.312  
      -122.5291   21474792.414          37.032  
   -101920.9581   20931793.622          39.851  
    150114.1791   20840284.671          42.214  
 19  1 22  7  9 22.9998410  0  8G 3G14G16G22G26G29G31G32
    -43312.7981   24565140.312          40.453  
     13872.4401   20354187.392          37.615  
   -288300.5251   23834485.535          38.646  
     35016.707    24620110.252          45.062  
   -179839.1321   21736505.230          44.753  
      -124.2181   21474786.716          38.092  
   -102952.4081   20931591.862          38.731  
    151969.4401   20840627.341          41.949  
 19  1 22  7  9 23.9998410  0  8G 3G14G16G22G26G29G31G32
    -43813.5671   24565041.675          40.466  
     14071.3581   20354225.163          37.489  
   -291564.1121   23833856.568          38.694  
     35450.659    24620192.102          45.044  
   -181966.5091   21736097.218          44.177  
      -120.2451   21474788.514          36.024  
   -103987.1371   20931417.980          39.657  
    153831.1601   20840977.192          42.093  
 19  1 22  7  9 24.9998410  0  8G 3G14G16G22G26G29G31G32
    -44314.219    24564944.844          39.615  
     14272.1001   20354254.244          37.148  
   -294827.6541   23833238.996          38.867  
     35884.691    24620272.443          45.035  
   -184095.3581   21735693.097          44.908  
      -120.7921   21474781.324          37.166  
   -105019.3241   20931210.532          38.507  
    155695.7441   20841342.643          42.085  
 19  1 22  7  9 25.9998410  0  8G 3G14G16G22G26G29G31G32
    -44814.7011   24564859.407          40.411  
     14467.6011   20354296.221          36.842  
   -298090.5171   23832616.922          40.209  
     36319.515    24620358.185          44.457  
   -186224.3701   21735295.572          44.133  
      -120.9491   21474786.420          36.954  
   -106051.1851   20931019.260          39.906  
    157559.4681   20841688.602          42.516  
 19  1 22  7  9 26.9998410  0  8G 3G14G16G22G26G29G31G32
    -45314.535    24564757.175          40.785  
     14666.1631   20354334.288          37.470  
   -301354.4551   23831998.154          38.871  
     36753.958    24620441.230          45.294  
   -188345.1541   21734887.255          43.808  
      -120.5321   21474789.116          38.205  
   -107085.8231   20930824.995          38.125  
    159419.7261   20842045.058          42.528  
 19  1 22  7  9 27.9998410  0  8G 3G14G16G22G26G29G31G32
    -45814.4121   24564651.645          39.520  
     14859.2341   20354364.268          37.300  
   -304618.0831   23831373.690          38.501  
     37188.608    24620521.571          44.546  
   -190470.2511   21734481.938          43.504  
      -118.3401   21474781.621          36.045  
   -108115.4461   20930620.234          39.930  
    161278.6781   20842393.713          42.413  
 19  1 22  7  9 28.9998410  0  8G 3G14G16G22G26G29G31G32
    -46314.0861   24564562.911          40.153  
     15058.6281   20354409.839          37.546  
   -307882.2941   23830758.212          38.647  
     37623.099    24620606.711          44.470  
   -192592.8121   21734077.818          43.451  
      -119.2871   21474785.521          36.483  
   -109145.6701   20930426.572          39.796  
    163143.2531   20842752.865          42.290  
 19  1 22  7  9 29.9998410  0  8G 3G14G16G22G26G29G31G32
    -46813.5981   24564467.580          39.418  
     15254.5621   20354450.009          37.903  
   -311146.1131   23830137.342          38.129  
     38057.969    24620685.254          45.326  
   -194717.0881   21733672.493          42.888  
      -118.1101   21474793.312          38.044  
   -110180.1511   20930232.307          40.137  
    165005.4571   20843103.623          42.487  
 19  1 22  7  9 30.9998410  0  8G 3G14G16G22G26G29G31G32
    -47312.7291   24564376.743          40.119  
     15456.7421   20354482.092          37.613  
   -314410.9891   23829516.175          38.708  
     38492.895    24620771.301          44.918  
   -196838.0361   21733273.171          43.348  
      -115.3471   21474787.022          36.741  
   -111213.0381   20930047.030          41.313  
    166865.6591   20843460.977          42.644  
 19  1 22  7  9 31.9998410  0  8G 3G14G16G22G26G29G31G32
    -47808.1891   24564279.310          41.548  
     15658.2751   20354516.268          37.516  
   -317675.2311   23828887.505          39.927  
     38928.052    24620855.839          44.734  
   -198966.1181   21732867.549          43.280  
      -114.3821   21474795.415          36.768  
   -112248.7101   20929840.480          39.935  
    168728.6671   20843812.329          42.671  
 19  1 22  7  9 32.9998410  0  8G 3G14G16G22G26G29G31G32
    -48304.4071   24564185.471          40.755  
     15857.2491   20354559.431          37.373  
   -320939.7201   23828273.833          38.717  
     39362.945    24620934.382          45.855  
   -201088.7991   21732458.333          43.300  
      -112.5441   21474785.215          37.472  
   -113283.0441   20929640.518          39.624  
    170589.8311   20844169.683          42.246  
 19  1 22  7  9 33.9998410  0  8G 3G14G16G22G26G29G31G32
    -48802.8231   24564090.437          41.296  
     16052.6501   20354588.512          38.233  
   -324204.0661   23827644.866          39.548  
     39798.202    24621020.124          44.170  
   -203213.9951   21732056.018          42.776  
      -111.0321   21474783.723          36.861  
   -114317.1291   20929446.550          38.939  
    172451.6041   20844514.744          43.545  
 19  1 22  7  9 34.9998410  0  8G 3G14G16G22G26G29G31G32
    -49300.2271   24563995.403          40.464  
     16249.6591   20354638.576          38.249  
   -327469.2431   23827032.695          39.209  
     40233.365    24621102.567          44.675  
   -205341.7101   21731649.794          44.072  
      -105.1161   21474798.713          37.957  
   -115350.6251   20929248.987          37.445  
    174313.9861   20844875.396          42.753  
 19  1 22  7  9 35.9998410  0  8G 3G14G16G22G26G29G31G32
    -49799.8321   24563896.469          41.406  
     16445.7091   20354663.460          37.920  
   -330733.8181   23826405.525          39.111  
     40668.695    24621185.909          43.983  
   -207466.712    21731246.275          44.062  
      -102.7451   21474793.609          37.533  
   -116384.6071   20929053.222          38.604  
    176174.7821   20845228.248          42.346  
 19  1 22  7  9 36.9998410  0  8G 3G14G16G22G26G29G31G32
    -50297.9791   24563803.538          41.314  
     16645.9621   20354709.032          38.069  
   -333998.9551   23825782.256          38.415  
     41104.258    24621268.056          43.848  
   -209595.7981   21730845.156          43.558  
       -95.2761   21474786.716          36.523  
   -117417.0651   20928865.850          39.168  
    178034.0301   20845579.905          42.803  
 19  1 22  7  9 37.9998410  0  8G 3G14G16G22G26G29G31G32
    -50796.225    24563711.497          42.000  
     16841.4251   20354746.506          38.351  
   -337263.7911   23825163.183          39.744  
     41540.054    24621348.694          44.567  
   -211722.8481   21730440.730          43.888  
       -94.8551   21474796.314          37.131  
   -118450.2651   20928660.793          40.725  
    179894.8701   20845935.165          43.189  
 19  1 22  7  9 38.9998410  0  8G 3G14G16G22G26G29G31G32
    -51291.0881   24563611.368          40.577  
     17036.5721   20354784.879          37.819  
   -340528.6361   23824537.820          39.636  
     41976.476    24621434.139          44.020  
   -213846.3251   21730032.412          43.984  
       -93.1741   21474787.920          37.853  
   -119482.8251   20928462.934          39.650  
    181757.9081   20846285.016          41.914  
 19  1 22  7  9 39.9998410  0  8G 3G14G16G22G26G29G31G32
    -51789.1471   24563522.930          39.674  
     17236.7741   20354814.257          37.320  
   -343793.438    23823922.944          39.132  
     42414.501    24621518.982          43.625  
   -215967.6591   21729631.589          42.378  
       -93.5621   21474788.217          36.652  
   -120514.5841   20928265.362          40.051  
    183617.5711   20846643.269          42.198  
 19  1 22  7  9 40.9998410  0  7G14G16G22G26G29G31G32
     17434.9371   20354866.119          32.670  
   -347059.3461   23823275.995          34.002  
     42859.527    24621619.713          38.632  
   -218091.4301   21729251.454          37.012  
       -91.0031   21474787.615          34.037  
   -121539.7391   20928063.306          35.186  
    185478.1341   20846999.428          37.470  
 19  1 22  7  9 41.9998410  0  7G14G16G22G26G29G31G32
     17634.5161   20354998.932          27.426  
   -350323.3741   23822657.219          28.740  
     43300.6831   24621687.760          33.300  
   -220219.0771   21728861.424          31.738  
       -82.7341   21474755.541          28.543  
   -122565.4931   20927885.532          29.541  
    187331.4931   20847346.888          31.750  
 19  1 22  7  9 42.9998410  0  7G14G16G22G26G29G31G32
     17833.3941   20354944.069          22.217  
   -353584.7221   23822035.153          23.680  
     43746.2661   24621768.703          28.031  
   -222344.5701   21728442.313          26.526  
         0.3581   21474784.919          23.633  
   -123591.1511   20927679.873          24.786  
    189188.1181   20847698.545          26.677  
 19  1 22  7  9 43.9998410  0  7G14G16G22G26G29G31G32
     18030.7771   20354980.644          18.228  
   -356844.1511   23821413.385          19.550  
     44192.8991   24621852.647          22.805  
   -224467.5321   21728038.795          22.027  
        -1.3951   21474792.117          24.032  
   -124614.9791   20927476.010          20.831  
    191043.4841   20848051.100          21.805  
 19  1 22  7  9 44.9998410  0  7G14G16G22G26G29G31G32
     18226.9911   20355017.517          14.383  
   -360105.9811   23820790.708          14.255  
     44640.6931   24621936.888          18.130  
   -226588.3291   21727635.276          17.402  
         0.0831   21474800.511          19.684  
   -125634.8441   20927322.222          17.321  
    192903.1561   20848403.952          16.714  
 19  1 22  7  9 45.9998410  0  7G14G16G22G26G29G31G32
     18420.6831   20355054.389           9.052  
   -363370.6711   23820169.542          13.415  
     45089.4961   24622021.129          12.798  
   -228706.0401   21727231.757          15.076  
        11.3521   21474802.605          15.822  
   -126651.2551   20927134.850          14.893  
    194760.4511   20848757.110          14.653  
 19  1 22  7  9 46.9998410  0  7G14G16G22G26G29G31G32
     18609.7561   20355087.667           9.441  
   -366638.6591   23819549.876           9.554  
     45531.9321   24622104.777           9.773  
   -230820.9881   21726828.229          13.471  
        16.9981   21474799.307          13.588  
   -127663.4621   20927031.422          11.175  
    196615.1261   20849110.861          10.275  
 19  1 22  7  9 47.9998410  0  7G14G16G22G26G29G31G32
     18791.4661   20355124.844           7.000  
   -369912.4221   23818931.396           7.000  
     45974.5221   24622189.018          10.077  
   -232941.1151   21726424.711          12.327  
        17.6111   21474803.207          10.086  
   -128681.3681   20926826.662          13.864  
    198469.4951   20849462.517           9.206  
 19  1 22  7  9 48.9998410  0  7G14G16G22G26G29G31G32
     18982.9191   20355156.324           7.000  
   -373187.7311   23818309.933           8.513  
     46412.7551   24622270.563          10.940  
   -235058.1141   21726021.488           7.000  
        20.1111   21474858.070          12.593  
   -129705.5251   20926551.751          13.563  
    200322.2281   20849816.879           7.000  
 19  1 22  7  9 49.9998410  0  7G14G16G22G26G29G31G32
     19179.6381   20355192.595           7.000  
   -376455.4961   23817688.164           7.652  
     46850.7951   24622352.404          11.141  
   -237170.2441   21725619.470           7.330  
        30.1551   21474799.909          11.910  
   -130727.7111   20926389.263          12.703  
    202179.7331   20850170.630           7.000  
 19  1 22  7  9 50.9998410  0  7G14G16G22G26G29G31G32
     19369.1001   20355228.874           7.781  
   -379722.0941   23817066.387           8.162  
     47293.6091   24622442.639          10.475  
   -239290.7261   21725215.646           8.059  
        40.3341   21474801.409          11.740  
   -131750.5621   20926148.232          11.959  
    204037.2001   20850523.482           7.000  
 19  1 22  7  9 51.9998410  0  7G14G16G22G26G29G31G32
     19559.9291   20355264.847           7.049  
   -382987.1261   23816444.618           8.798  
     47737.6421   24622567.958          11.039  
   -241411.0071   21724811.831           7.872  
        46.5521   21474801.706          10.879  
   -132768.8091   20925954.866          11.236  
    205890.9611   20850875.741           7.000  
 19  1 22  7  9 52.9998410  0  5G14G22G26G29G31
     19750.0651   20355299.922           9.297  
     48184.0291   24622695.065          10.845  
   -243530.3831   21724408.312           8.663  
        53.2281   21474801.706          10.422  
   -133787.5131   20925910.499          11.903  
 19  1 22  7  9 53.9998410  0  3G22G29G31
     48633.4791   24622695.065          10.729  
        59.2361   21474801.706          10.405  
   -134807.0241   20925567.236          11.701  
 19  1 22  7  9 54.9998410  0  3G22G29G31
     49079.4951   24622779.612          10.739  
        63.2191   21474801.409          10.941  
   -135827.0091   20925372.666          11.866  
 19  1 22  7  9 55.9998410  0  3G22G29G31
     49523.9471   24622864.149          11.850  
        63.7041   21474803.503          11.329  
   -136849.6091   20925177.503          12.066  
 19  1 22  7  9 56.9998410  0  2G29G31
        62.7081   21474798.713          11.944  
   -137869.6061   20924984.739          12.481  
 19  1 22  7  9 57.9998410  0  2G29G31
        72.0661   21474825.691          30.668  
   -138887.1561   20924727.819          20.256  
 19  1 22  7  9 58.9998410  0  2G29G31
        91.0481   21474812.499          39.539  
   -139921.3601   20924501.472          39.809  
 19  1 22  7  9 59.9998410  0  2G29G31
       106.6551   21474840.384          35.055  
   -140950.5661   20924335.687          35.603  
 19  1 22  7 10  0.9998410  0  9G 3G14G16G22G25G26G29G31G32
     -1275.7741   24561555.689          26.861  
       549.1561   20355634.487          30.907  
     -3325.687    23810878.077          33.388  
       897.2621   24623283.260          30.176  
      6602.2861   22946802.460          29.238  
     -5097.3901   21721154.064          37.282  
       125.3981   21474825.395          35.937  
   -141980.0951   20924149.816          32.420  
      4890.2191   20854095.515          36.745  
 19  1 22  7 10  1.9998410  0  9G 3G14G16G22G25G26G29G31G32
     -1762.9041   24561466.352          33.838  
       763.1701   20355674.064          32.933  
     -6587.284    23810264.397          34.369  
      1341.0781   24623369.900          33.037  
      9602.8441   22947369.967          31.232  
     -7216.6061   21720748.739          39.473  
       143.0431   21474826.887          40.614  
   -143010.7701   20923951.049          36.331  
      6763.9441   20854451.665          38.715  
 19  1 22  7 10  2.9998410  0  8G 3G14G16G25G26G29G31G32
        -8.2231   24561377.914          35.234  
       970.7081   20355717.532          32.977  
     -9848.1431   23809643.230          35.328  
     12602.1151   22947938.076          31.642  
     -9334.5291   21720347.620          40.813  
       159.2111   21474838.282          41.155  
   -144035.2971   20923740.896          37.050  
      8634.2001   20854803.322          38.451  
 19  1 22  7 10  3.9998410  0  8G 3G14G16G25G26G29G31G32
      -493.354    24561277.488          38.213  
      1185.7851   20355755.905          37.644  
    -13103.8241   23809016.061          37.565  
     15596.9811   22948507.084          31.242  
    -11451.4621   21719943.499          42.300  
       178.7451   21474839.180          40.871  
   -145059.6621   20923557.128          41.270  
        18.7481   20855166.374          42.774  
 19  1 22  7 10  4.9998410  0  8G 3G14G16G25G26G29G31G32
      -977.629    24561189.941          39.707  
      1400.0651   20355793.083          37.561  
    -16362.5241   23808403.584          37.524  
     18596.5351   22949078.483          32.401  
    -13567.7701   21719539.378          42.295  
       193.9931   21474843.377          42.497  
   -146084.8341   20923362.261          43.661  
      1889.5681   20855518.929          41.225  
 19  1 22  7 10  5.9998410  0  7G 3G14G16G26G29G31G32
     -1460.986    24561098.807          40.233  
      1616.6831   20355835.949          39.169  
    -19621.302    23807779.119          37.874  
    -15682.8691   21719137.953          41.734  
       213.9481   21474846.073          42.743  
   -147113.8621   20923156.305          44.358  
      3762.0471   20855878.081          42.049  
 19  1 22  7 10  6.9998410  0  8G 3G14G16G22G26G29G31G32
     -1943.826    24561001.374          39.662  
      1838.2421   20355874.026          39.064  
    -22879.9581   23807159.148          35.503  
      1702.3981   24623792.004          38.576  
    -17798.8011   21718736.537          42.034  
       241.6151   21474853.873          42.212  
   -148142.9691   20922966.831          44.837  
      5638.5041   20856233.333          41.878  
 19  1 22  7 10  7.9998410  0  8G 3G14G16G22G26G29G31G32
     -2426.093    24560914.733          40.202  
      2057.7451   20355914.196          39.369  
    -26138.646    23806537.981          35.831  
      2150.9201   24623869.657          38.494  
    -19913.0551   21718332.111          42.160  
       266.1721   21474855.069          41.443  
   -149172.8721   20922767.174          43.920  
      7513.9391   20856594.587          42.820  
 19  1 22  7 10  8.9998410  0  8G 3G14G16G22G26G29G31G32
     -2908.138    24560820.598          39.940  
      2270.3951   20355956.766          39.162  
    -29397.3141   23805920.409          36.123  
      2598.1821   24623954.491          38.251  
    -22029.2201   21717931.594          43.159  
       289.4481   21474858.663          41.718  
   -150203.2071   20922571.112          43.067  
      9391.5511   20856950.135          42.680  
 19  1 22  7 10  9.9998410  0  8G 3G14G16G22G26G29G31G32
     -3389.894    24560730.965          40.793  
      2489.4261   20356002.337          39.655  
    -32654.9771   23805297.140          36.996  
      3046.8681   24624046.227          41.382  
    -24147.2031   21717531.067          43.911  
       312.7641   21474867.659          41.219  
   -151227.972    20922377.144          43.810  
     11264.0821   20857303.589          43.430  
 19  1 22  7 10 10.9998410  0  8G 3G14G16G22G26G29G31G32
     -3871.068    24560636.228          43.597  
      2702.6701   20356034.716          39.817  
    -35913.476    23804678.669          36.615  
      3495.7961   24624129.875          38.928  
    -26261.6391   21717127.252          42.895  
       338.8061   21474873.653          40.461  
   -152255.3751   20922184.677          45.311  
     13140.7201   20857662.444          42.915  
 19  1 22  7 10 11.9998410  0  8G 3G14G16G22G26G29G31G32
     -4352.012    24560544.789          41.089  
      2920.5091   20356086.281          39.655  
    -39171.6651   23804061.691          36.383  
      3944.9571   24624215.014          42.113  
    -28376.2611   21716728.227          43.959  
       363.9981   21474874.255          41.207  
   -153283.4561   20921987.411          44.766  
     15018.6081   20858023.995          42.499  
 19  1 22  7 10 12.9998410  0  9G 3G14G16G22G25G26G29G31G32
     -4832.2861   24560456.656          39.454  
      3141.2231   20356122.552          40.077  
    -42429.8081   23803439.329          37.664  
      4393.9341   24624304.351          42.129  
     17396.9151   22953646.427          32.313  
       -14.6121   21716322.003          44.211  
       391.1841   21474882.954          41.667  
   -154313.8791   20921795.842          44.927  
     16895.8961   20858382.248          42.990  
 19  1 22  7 10 13.9998410  0  9G 3G14G16G22G25G26G29G31G32
     -5312.6821   24560362.521          39.442  
      3361.8041   20356168.123          39.499  
    -45688.4631   23802822.656          38.532  
      4842.6191   24624387.693          42.983  
     20390.4661   22954232.222          32.463  
     -2129.2691   21715920.281          44.474  
       420.7001   21474884.149          40.536  
   -155336.5121   20921603.681          44.461  
     18771.8791   20858737.203          43.479  
 19  1 22  7 10 14.9998410  0  9G 3G14G16G22G25G26G29G31G32
     -5792.2631   24560269.581          39.022  
      3579.8741   20356205.292          39.563  
    -48946.7861   23802199.081          36.784  
         7.7301   24624476.436          41.348  
     23387.5021   22954789.233          32.486  
     -4242.8521   21715518.263          44.000  
       452.9641   21474896.138          40.497  
   -156358.1821   20921407.313          44.356  
     20651.6701   20859095.448          43.511  
 19  1 22  7 10 15.9998410  0  9G 3G14G16G22G25G26G29G31G32
     -6271.678    24560182.644          41.463  
      3801.2821   20356249.362          40.026  
    -52205.1921   23801577.617          37.775  
       457.5731   24624566.374          39.446  
     26389.0691   22955357.036          33.150  
     -6356.5961   21715118.339          44.832  
       482.9621   21474889.245          39.642  
   -157385.180    20921204.359          43.875  
     22530.3861   20859450.106          43.981  
 19  1 22  7 10 16.9998410  0  9G 3G14G16G22G25G26G29G31G32
     -6749.436    24560093.605          41.195  
      4024.8241   20356288.634          39.130  
    -55462.4331   23800960.944          38.039  
       909.330    24624638.924          39.254  
     29383.9751   22955927.545          33.882  
     -8469.0791   21714713.616          45.485  
       517.5371   21474904.235          40.443  
   -158408.9621   20921012.485          42.294  
     24409.1421   20859808.961          43.445  
