     2.10           OBSERVATION DATA    G (GPS)             RINEX VERSION / TYPE
Convert             CompanyName         03-Jul-2004 06:20   PGM / RUN BY / DATE 
Signal Strength values S1,S2 are in dBHz                    COMMENT             
MarkerName                                                  MARKER NAME         
MarkerNumber                                                MARKER NUMBER       
Observer            Agency                                  OBSERVER / AGENCY   
Rec Number          NovAtel GPSCard     Rec Version         REC # / TYPE / VERS 
Antenna Number      Antenna Type                            ANT # / TYPE        
-3766663.0058 3604124.4637  3662439.6247                    APPROX POSITION XYZ 
        0.0000        0.0000        0.0000                  ANTENNA: DELTA H/E/N
     1     1                                                WAVELENGTH FACT L1/2
     1     1     7   G05   G09   G14   G15   G18   G21   G22WAVELENGTH FACT L1/2
     1     1     3   G26   G29   G30                        WAVELENGTH FACT L1/2
                                                            COMMENT             
                                                            COMMENT             
                                                            COMMENT             
     8    C1    L1    D1    S1    P2    L2    D2    S2      # / TYPES OF OBSERV 
     1.000                                                  INTERVAL            
  2004    07    03    06    18    31.0000000    GPS         TIME OF FIRST OBS   
  2004    07    03    07    16     0.0000000    GPS         TIME OF LAST OBS    
    13                                                      LEAP SECONDS        
                                                            END OF HEADER       
 04 07 03 06 18 31.0000000  0 10G30G14G15G26G18G29G21G 9G 5G22                  
  24121380.43846 126758726.82846      3751.70746        42.131    24121384.16743
  98773051.32543      2923.40643        35.094  
  24641628.44245 129492616.95445      2567.22345        39.574    24641629.30843
 100903341.74243      2000.43043        35.660  
  22661982.60846 119089525.50446      -596.94146        42.216    22661982.68541
  92797026.55741      -465.15241        29.081  
  23145075.35346 121628196.17346     -2358.82046        42.954    23145076.26942
  94775225.91842     -1838.04742        33.412  
  20275583.95549 116479367.83049       663.86749        48.737    20275581.38746
  90761414.14646       517.29746        43.109  
  23820807.21745 125179177.45445     -2169.54345        40.355    23820808.11042
  97542195.91342     -1690.55542        33.602  
  23033471.62446 121041705.59446     -2817.07046        42.878    23033469.99841
  94318202.25341     -2195.12541        30.951  
  20024016.49949 115157377.17149     -1109.12949        50.297    20024014.49146
  89731301.52446      -864.25846        43.145  
  21782654.97348 114468630.31948      2769.04348        46.237    21782655.18245
  89196334.55145      2157.69145        39.118  
  22072199.82347 115990196.59147      2543.03147        45.430    22072197.26644
  90381946.21444      1981.57844        37.193  
 04 07 03 06 18 32.0000000  0 10G30G14G15G26G18G29G21G 9G 5G22                  
  24120666.49846 126754974.91846      3751.89846        41.903    24120670.15241
  98770127.75641      2923.55541        28.368  
  24641139.80945 129490049.28045      2567.33645        39.260    24641140.70943
 100901340.97343      2000.52343        34.849  
  22662096.20746 119090122.43146      -597.38346        41.877    22662096.27041
  92797491.70541      -465.49641        31.250  
  23145524.18146 121630554.77246     -2358.85546        42.977    23145525.10143
  94777063.78843     -1838.07443        34.966  
  20275457.62349 116478703.98149       663.37149        48.771    20275455.05946
  90760896.85946       516.91046        43.266  
  23821220.08945 125181347.08345     -2169.58245        40.144    23821220.98843
  97543886.52843     -1690.59043        35.665  
  23034007.68546 121044522.55746     -2817.13346        43.144    23034005.99341
  94320397.27641     -2195.17641        31.011  
  20024227.56649 115158486.30249     -1109.50849        50.254    20024225.56046
  89732165.78446      -864.55546        42.719  
  21782128.01548 114465861.15748      2768.94948        46.303    21782128.24144
  89194176.77144      2157.62144        38.819  
  22071715.88548 115987653.55648      2542.76248        45.643    22071713.33344
  90379964.62744      1981.37144        37.017  
 04 07 03 06 18 33.0000000  0 10G30G14G15G26G18G29G21G 9G 5G22                  
  24119952.53746 126751222.84646      3751.57046        41.963    24119956.15041
  98767204.07141      2923.29741        28.277  
  24640651.16144 129487481.43344      2568.00844        38.851    24640652.15241
 100899340.07541      2001.05141        30.064  
  22662209.91746 119090719.85146      -597.94946        41.745    22662210.02441
  92797957.22041      -465.93841        31.795  
  23145973.00346 121632913.33046     -2358.53146        43.068    23145973.90342
  94778901.63142     -1837.82042        34.147  
  20275331.37449 116478040.58949       663.02349        48.784    20275328.82046
  90760379.93346       516.63746        43.139  
  23821632.98245 125183516.69045     -2169.63745        39.992    23821633.84843
  97545577.11743     -1690.63343        35.650  
  23034543.77646 121047339.62846     -2817.28546        43.113    23034542.02142
  94322592.39742     -2195.29342        33.274  
  20024438.70049 115159595.77949     -1109.79349        50.237    20024436.68346
  89733030.30946      -864.77746        42.958  
  21781601.10248 114463092.26448      2768.37948        46.182    21781601.33744
  89192019.19744      2157.17644        38.616  
  22071231.99248 115985110.69648      2542.53948        45.575    22071229.43544
  90377983.18344      1981.19544        36.915  
 04 07 03 06 18 34.0000000  0 10G30G14G15G26G18G29G21G 9G 5G22                  
  24119238.54046 126747470.57546      3752.48046        42.284    24119242.11343
  98764280.23043      2924.00843        34.584  
  24640162.49844 129484913.44844      2567.90644        38.689    24640163.47444
 100897339.04544      2000.96544        37.028  
  22662323.70346 119091317.74046      -598.23446        41.815    22662323.87441
  92798423.10941      -466.16041        31.821  
  23146421.81647 121635271.83147     -2358.82447        43.354    23146422.69642
  94780739.41742     -1838.04742        33.161  
  20275205.21549 116477377.64949       662.55549        48.852    20275202.67546
  90759863.35746       516.27346        43.180  
  23822045.83745 125185686.21745     -2169.79745        40.280    23822046.72842
  97547267.66242     -1690.75442        33.659  
  23035079.88446 121050156.78046     -2817.47346        43.170    23035078.12342
  94324787.57942     -2195.43842        32.846  
  20024649.90149 115160705.59849     -1110.14149        50.205    20024647.87046
  89733895.10046      -865.04746        42.862  
  21781074.23748 114460323.60048      2768.32048        46.280    21781074.49345
  89189861.80445      2157.12945        39.859  
  22070748.13648 115982568.00948      2542.52348        45.579    22070745.53244
  90376001.87544      1981.03944        37.081  
 04 07 03 06 18 35.0000000  0 10G30G14G15G26G18G29G21G 9G 5G22                  
  24118524.53946 126743718.29046      3752.17646        41.889    24118528.08742
  98761356.35642      2923.77042        33.039  
  24639673.78345 129482345.37745      2568.32045        38.942    24639674.79742
 100895337.93842      2001.28542        32.883  
  22662437.57746 119091916.20746      -598.85246        42.009    22662437.88241
  92798889.45241      -466.64141        31.395  
  23146870.65647 121637630.40847     -2358.96547        43.513    23146871.47743
  94782577.26343     -1838.15643        35.121  
  20275079.16049 116476715.25949       661.97349        48.804    20275076.62146
  90759347.21046       515.82046        42.480  
  23822458.69545 125187855.83345     -2170.07045        39.851    23822459.62643
  97548958.28043     -1690.96943        36.427  
  23035616.01546 121052974.12346     -2817.48846        43.240    23035614.24341
  94326982.90241     -2195.45341        31.640  
  20024861.19149 115161815.87549     -1110.70749        50.194    20024859.15146
  89734760.25046      -865.48846        42.438  
  21780547.44048 114457555.28348      2768.10548        46.258    21780547.70245
  89187704.67145      2156.96145        38.947  
  22070264.33448 115980025.63748      2542.01248        45.893    22070261.74544
  90374020.80844      1980.78544        37.091  
 04 07 03 06 18 36.0000000  0 10G30G14G15G26G18G29G21G 9G 5G22                  
  24117810.53746 126739966.04046      3752.34446        41.778    24117814.06142
  98758432.52142      2923.90242        33.168  
  24639185.09144 129479777.38144      2568.25044        38.778    24639186.14642
 100893336.92242      2001.23442        32.469  
  22662551.61046 119092515.38246      -599.36746        41.838    22662551.90142
  92799356.33442      -467.04342        33.043  
  23147319.52947 121639989.14347     -2358.84047        43.662    23147320.33743
  94784415.23343     -1838.05943        34.962  
  20274953.23149 116476053.53749       661.46949        48.814    20274950.68746
  90758831.58246       515.42646        42.868  
  23822871.59745 125190025.62045     -2169.86745        40.168    23822872.50841
  97550649.02641     -1690.80941        30.574  
  23036152.20346 121055791.78546     -2817.76246        43.192    23036150.50141
  94329178.49041     -2195.66041        29.934  
  20025072.58649 115162926.69949     -1110.90249        50.233    20025070.53046
  89735625.82746      -865.64146        42.890  
  21780020.73248 114454787.43348      2767.84448        46.194    21780020.99645
  89185547.90745      2156.75845        39.023  
  22069780.60848 115977483.64848      2541.92248        45.942    22069778.01144
  90372040.03444      1980.71544        37.014  
 04 07 03 06 18 37.0000000  0 10G30G14G15G26G18G29G21G 9G 5G22                  
  24117096.51146 126736213.60746      3752.21546        41.399    24117099.96941
  98755508.55741      2923.80141        31.550  
  24638696.38445 129477209.21245      2567.74645        39.030    24638697.38343
 100891335.74643      2000.84043        35.224  
  22662665.73046 119093115.01746      -600.08646        41.836    22662666.03741
  92799823.57041      -467.60541        31.003  
  23147768.37447 121642347.81047     -2358.75847        43.770    23147769.16442
  94786253.15942     -1837.99642        32.786  
  20274827.38349 116475392.23749       660.94949        48.810    20274824.85146
  90758316.28446       515.02346        43.199  
  23823284.49645 125192195.37745     -2170.01245        40.037    23823285.40443
  97552339.73843     -1690.92243        35.023  
  23036688.41246 121058609.50246     -2817.98846        42.965    23036686.69142
  94331374.13942     -2195.83642        33.207  
  20025284.04249 115164037.86149     -1111.55149        50.248    20025281.98046
  89736491.67046      -866.14846        42.734  
  21779494.07048 114452019.81548      2767.28548        46.234    21779494.34444
  89183391.32344      2156.32444        38.421  
  22069296.91548 115974941.83148      2541.63348        46.059    22069294.32043
  90370059.40243      1980.48843        35.739  
 04 07 03 06 18 38.0000000  0 10G30G14G15G26G18G29G21G 9G 5G22                  
  24116382.48346 126732461.20246      3752.22746        41.579    24116385.86241
  98752584.61941      2923.80941        32.060  
  24638207.61944 129474641.00244      2568.16844        38.550    24638208.59441
 100889334.55741      2001.17241        31.985  
  22662779.98846 119093715.30446      -600.82046        42.216    22662780.26141
  92800291.32741      -468.17641        28.522  
  23148217.25347 121644706.59547     -2359.19547        43.533    23148218.00141
  94788091.17041     -1838.33641        31.383  
  20274701.65649 116474731.57049       660.21949        48.750    20274699.13146
  90757801.48046       514.45346        42.917  
  23823697.41645 125194365.25345     -2170.14545        40.173    23823698.35842
  97554030.54942     -1691.02342        34.217  
  23037224.66846 121061427.47346     -2818.32846        42.883    23037222.93041
  94333569.98841     -2196.09441        30.256  
  20025495.59849 115165149.54249     -1112.09849        50.249    20025493.52846
  89737357.91446      -866.57446        42.788  
  21778967.49048 114449252.61248      2766.81648        45.899    21778967.76045
  89181235.06345      2155.95745        39.346  
  22068813.30148 115972400.38748      2540.94948        46.240    22068810.71143
  90368079.05443      1979.95743        36.581  
 04 07 03 06 18 39.0000000  0 10G30G14G15G26G18G29G21G 9G 5G22                  
  24115668.46346 126728708.91546      3752.31646        41.139    24115671.86941
  98749660.75541      2923.87941        27.288  
  24637718.92344 129472072.94344      2568.23844        38.478    24637719.91043
 100887333.47443      2001.22743        34.782  
  22662894.37446 119094316.36746      -601.29346        42.034    22662894.66942
  92800759.70842      -468.54342        33.612  
  23148666.17347 121647065.64547     -2359.55947        43.351    23148666.89542
  94789929.38542     -1838.62142        33.048  
  20274576.07549 116474071.65249       659.40649        48.676    20274573.55646
  90757287.25446       513.82046        43.258  
  23824110.38445 125196535.37545     -2170.33245        40.313    23824111.34843
  97555721.54143     -1691.17643        35.059  
  23037760.99446 121064245.86846     -2818.51246        43.004    23037759.30241
  94335766.10541     -2196.24641        30.984  
  20025707.27749 115166261.87149     -1112.69949        50.192    20025705.18246
  89738224.66146      -867.04346        42.963  
  21778441.01148 114446485.96648      2766.20348        46.259    21778441.28044
  89179079.23144      2155.48044        37.963  
  22068329.77448 115969859.40648      2540.71148        46.221    22068327.17943
  90366099.06643      1979.77343        36.543  
 04 07 03 06 18 40.0000000  0 10G30G14G15G26G18G29G21G 9G 5G22                  
  24114954.45546 126724956.54846      3752.09446        41.195    24114957.83141
  98746736.82641      2923.70741        29.136  
  24637230.22145 129469504.82745      2567.77745        38.990    24637231.19144
 100885332.34844      2000.86744        38.780  
  22663008.87646 119094917.99746      -602.06646        42.016    22663009.09141
  92801228.50541      -469.14541        29.165  
  23149115.10847 121649424.67847     -2359.09847        43.678    23149115.86042
  94791767.58342     -1838.26642        32.690  
  20274450.58649 116473412.25749       658.91449        48.754    20274448.08346
  90756773.44146       513.43846        43.150  
  23824523.34945 125198705.55745     -2170.21545        40.570    23824524.35643
  97557412.59243     -1691.07843        35.726  
  23038297.34346 121067064.38946     -2818.57846        43.032    23038295.62642
  94337962.33842     -2196.30142        33.408  
  20025919.03649 115167374.61049     -1113.05549        50.180    20025916.94146
  89739091.73246      -867.32046        43.093  
  21777914.59248 114443719.61248      2766.19948        46.356    21777914.86544
  89176923.62644      2155.47744        38.391  
  22067846.28348 115967318.69548      2540.52748        46.261    22067843.68844
  90364119.29044      1979.62944        37.585  
 04 07 03 06 18 41.0000000  0 10G30G14G15G26G18G29G21G 9G 5G22                  
  24114240.42245 126721204.20745      3752.18845        40.994    24114243.80741
  98743812.92741      2923.77741        28.050  
  24636741.51144 129466936.67844      2567.82044        38.228    24636742.38743
 100883331.17443      2000.89543        34.583  
  22663123.49246 119095520.24846      -602.57446        42.099    22663123.62941
  92801697.79141      -469.54341        28.621  
  23149564.05647 121651783.85147     -2359.47747        43.765    23149564.81143
  94793605.90743     -1838.55543        36.521  
  20274325.21049 116472753.47149       658.32449        48.679    20274322.71847
  90756260.10247       512.97747        43.640  
  23824936.35145 125200875.88745     -2170.89545        40.126    23824937.37343
  97559103.75843     -1691.60943        35.512  
  23038833.76146 121069883.17646     -2818.84846        43.256    23038832.02541
  94340158.79641     -2196.50841        31.113  
  20026130.89249 115168487.87149     -1113.54749        50.212    20026128.77546
  89739959.20946      -867.70346        42.568  
  21777388.24748 114440953.69348      2765.66048        46.333    21777388.52744
  89174768.37244      2155.05944        38.041  
  22067362.87348 115964778.33048      2540.27048        46.273    22067360.27844
  90362139.78044      1979.42644        36.790  
 04 07 03 06 18 42.0000000  0 10G30G14G15G26G18G29G21G 9G 5G22                  
  24113526.40246 126717451.86246      3752.48046        41.139    24113529.70041
  98740889.02141      2924.00841        28.952  
  24636252.79244 129464368.56144      2567.78944        38.608    24636253.69543
 100881330.05443      2000.87143        35.548  
  22663238.23646 119096123.18446      -603.25046        41.920    22663238.39541
  92802167.61841      -470.06641        31.216  
  23150013.03647 121654143.18747     -2359.58647        43.575    23150013.79843
  94795444.35643     -1838.64143        34.999  
  20274199.97249 116472095.32549       657.71949        48.626    20274197.48247
  90755747.26147       512.50447        43.405  
  23825349.37445 125203046.31545     -2170.56245        40.002    23825350.40943
  97560794.99943     -1691.35243        36.112  
  23039370.20546 121072702.25746     -2819.43446        42.810    23039368.46841
  94342355.49141     -2196.96541        30.721  
  20026342.85149 115169601.66049     -1114.10549        50.154    20026340.72146
  89740827.09646      -868.13746        43.122  
  21776861.98748 114438188.22048      2765.16048        46.469    21776862.28545
  89172613.46145      2154.66845        39.233  
  22066879.54748 115962238.36748      2539.41848        46.327    22066876.95544
  90360160.58744      1978.76644        36.807  
 04 07 03 06 18 43.0000000  0 10G30G14G15G26G18G29G21G 9G 5G22                  
  24112812.38546 126713699.54446      3752.28146        41.223    24112815.59741
  98737965.13041      2923.85241        31.563  
  24635764.05544 129461800.37244      2568.43844        38.664    24635764.92842
 100879328.87842      2001.37542        34.225  
  22663353.09946 119096726.74346      -604.12946        42.411    22663353.15641
  92802637.90041      -470.75841        29.157  
  23150462.03347 121656502.60147     -2359.59847        44.036    23150462.75843
  94797282.85543     -1838.65243        35.357  
  20274074.83149 116471437.76749       657.19549        48.578    20274072.35047
  90755234.87847       512.09847        43.512  
  23825762.42045 125205216.90245     -2170.86745        40.073    23825763.49941
  97562486.36541     -1691.59041        31.795  
  23039906.69646 121075521.53246     -2819.47346        43.032    23039904.92642
  94344552.32342     -2196.99642        33.229  
  20026554.90449 115170715.94949     -1114.64149        50.190    20026552.76646
  89741695.37346      -868.55546        42.989  
  21776335.79848 114435423.12148      2764.80148        46.547    21776336.10744
  89170458.84144      2154.38744        38.865  
  22066396.27248 115959698.69548      2539.28148        46.371    22066393.68144
  90358181.62144      1978.65644        38.082  
 04 07 03 06 18 44.0000000  0 10G30G14G15G26G18G29G21G 9G 5G22                  
  24112098.33545 126709947.07245      3752.26645        40.875    24112101.54242
  98735041.11942      2923.84042        34.293  
  24635275.29444 129459232.08744      2568.54744        38.189    24635276.08043
 100877327.66343      2001.47343        35.807  
  22663468.07846 119097330.80346      -604.54746        42.650    22663468.11142
  92803108.57842      -471.08242        32.693  
  23150911.02647 121658861.99447     -2359.66447        43.584    23150911.72443
  94799121.33443     -1838.70343        34.745  
  20273949.79449 116470780.69749       656.55149        48.617    20273947.31446
  90754722.87446       511.59446        43.039  
  23826175.48345 125207387.43445     -2170.20345        40.182    23826176.54643
  97564177.68543     -1691.07043        36.068  
  23040443.21546 121078340.96446     -2819.86346        43.016    23040441.42241
  94346749.27241     -2197.30541        30.802  
  20026767.02249 115171830.59649     -1114.97749        50.172    20026764.87046
  89742563.93246      -868.81646        42.718  
  21775809.67148 114432658.29748      2764.62948        46.711    21775810.00844
  89168304.43344      2154.25444        38.535  
  22065913.03248 115957159.24448      2539.15648        46.327    22065910.42944
  90356202.82844      1978.55944        37.898  
 04 07 03 06 18 45.0000000  0 10G30G14G15G26G18G29G21G 9G 5G22                  
  24111384.27745 126706194.55545      3752.62545        41.091    24111387.47842
  98732117.10142      2924.12542        34.040  
  24634786.53544 129456663.78244      2568.00444        37.752    24634787.35243
 100875326.40743      2001.05143        34.973  
  22663583.16146 119097935.46046      -604.87146        42.595    22663583.13541
  92803579.75341      -471.33241        29.385  
  23151360.06147 121661221.48047     -2359.81647        43.728    23151360.71043
  94800959.89143     -1838.82043        36.290  
  20273824.86049 116470124.19849       656.19949        48.573    20273822.38446
  90754211.31546       511.32046        43.330  
  23826588.55345 125209558.09245     -2170.85545        40.272    23826589.60342
  97565869.09542     -1691.58242        33.639  
  23040979.76846 121081160.57546     -2819.76646        43.136    23040977.98542
  94348946.35742     -2197.22742        33.226  
  20026979.23949 115172945.72449     -1115.56649        50.149    20026977.06947
  89743432.86147      -869.27747        43.377  
  21775283.61448 114429893.85448      2764.10248        46.460    21775283.95544
  89166150.32344      2153.84444        38.324  
  22065429.86848 115954620.09648      2538.89848        46.553    22065427.23444
  90354224.27244      1978.35944        38.535  
 04 07 03 06 18 46.0000000  0 10G30G14G15G26G18G29G21G 9G 5G22                  
  24110670.20845 126702441.96645      3752.46145        40.761    24110673.42542
  98729193.03142      2924.00042        34.058  
  24634297.71544 129454095.33844      2568.05544        37.783    24634298.61142
 100873324.99942      2001.08242        33.768  
  22663698.35146 119098540.68146      -605.73446        42.756    22663698.31641
  92804051.36541      -472.00441        31.893  
  23151809.06747 121663580.96347     -2359.72747        43.746    23151809.71144
  94802798.45144     -1838.75044        37.573  
  20273700.02549 116469468.23249       655.46549        48.555    20273697.56146
  90753700.17346       510.75046        42.767  
  23827001.62545 125211728.76345     -2170.82845        40.151    23827002.68044
  97567560.51944     -1691.56244        36.673  
  23041516.35546 121083980.34046     -2820.30546        43.206    23041514.51241
  94351143.58341     -2197.64541        31.368  
  20027191.52849 115174061.26249     -1115.94149        50.202    20027189.33446
  89744302.11146      -869.56646        42.763  
  21774757.61448 114427129.72048      2763.59048        46.408    21774757.97144
  89163996.44944      2153.44544        38.727  
  22064946.75048 115952081.22048      2538.47748        46.564    22064944.11644
  90352245.93444      1978.03144        37.175  
 04 07 03 06 18 48.0000000  0 10G30G14G15G26G18G29G21G 9G 5G22                  
  24109242.09445 126694936.97445      3752.36745        40.649    24109245.20041
  98723344.98241      2923.92241        30.789  
  24633320.16044 129448958.65944      2568.13344        37.950    24633321.22541
 100869322.37841      2001.14141        28.730  
  22663929.10546 119099753.23246      -607.18846        42.717    22663929.05041
  92804996.20041      -473.13741        30.230  
  23152707.21247 121668300.47947     -2359.96547        43.835    23152707.84843
  94806475.99543     -1838.93843        35.244  
  20273450.74649 116468158.29449       654.27349        48.717    20273448.28347
  90752679.44247       509.82047        43.528  
  23827827.86945 125216070.66245     -2171.24645        40.058    23827828.93744
  97570943.82944     -1691.88344        37.430  
  23042589.71846 121089620.83746     -2820.75446        43.068    23042587.93241
  94355538.77441     -2197.99241        30.492  
  20027616.43349 115176294.04849     -1117.00049        50.221    20027614.21346
  89746041.94346      -870.39546        42.922  
  21773705.88248 114421602.86048      2762.73848        46.585    21773706.22344
  89159689.79944      2152.78144        38.525  
  22063980.74248 115947004.67348      2537.82448        46.862    22063978.07543
  90348290.17643      1977.52343        36.655  
 04 07 03 06 18 49.0000000  0 10G30G14G15G26G18G29G21G 9G 5G22                  
  24108528.04545 126691184.53845      3752.14845        40.804    24108531.18242
  98720421.00642      2923.75042        33.770  
  24632831.40244 129446390.32944      2568.37944        37.812    24632832.50642
 100867321.11242      2001.34042        34.110  
  22664044.66746 119100360.49346      -607.88346        42.882    22664044.67441
  92805469.40041      -473.68041        29.650  
  23153156.33947 121670660.47047     -2360.30947        43.742    23153156.93343
  94808314.93843     -1839.20343        34.978  
  20273326.28249 116467504.28749       653.40249        48.489    20273323.83546
  90752169.82646       509.14146        43.249  
  23828241.05745 125218241.83045     -2171.72745        40.040    23828242.13043
  97572635.65443     -1692.25843        36.039  
  23043126.45646 121092441.49646     -2821.19546        43.125    23043124.68041
  94357736.69841     -2198.33641        30.956  
  20027829.03549 115177411.23549     -1117.71949        50.216    20027826.79846
  89746912.48146      -870.95346        42.910  
  21773180.14348 114418840.07248      2762.25048        46.383    21773180.47444
  89157536.97744      2152.39844        38.494  
  22063497.84548 115944466.95048      2537.28948        46.862    22063495.17044
  90346312.73444      1977.10544        37.097  
 04 07 03 06 18 50.0000000  0 10G30G14G15G26G18G29G21G 9G 5G22                  
  24107814.00145 126687432.17145      3752.36745        40.741    24107817.13943
  98717497.09143      2923.92243        35.387  
  24632342.67544 129443822.10644      2568.32444        37.795    24632343.83041
 100865319.90841      2001.29741        25.734  
  22664160.38446 119100968.49646      -608.60246        42.256    22664160.45042
  92805943.18142      -474.23442        33.358  
  23153605.48347 121673020.62847     -2360.25847        43.514    23153606.07843
  94810154.01843     -1839.16443        35.409  
  20273201.95749 116466850.97149       652.80149        48.632    20273199.52547
  90751660.74947       508.67247        43.808  
  23828654.25845 125220413.20545     -2171.62945        39.969    23828655.37142
  97574327.63542     -1692.18042        34.227  
  23043663.28046 121095262.46846     -2821.03146        43.224    23043661.49641
  94359934.85141     -2198.21141        30.621  
  20028041.75449 115178529.01749     -1118.15249        50.233    20028039.49846
  89747783.48146      -871.28946        43.044  
  21772654.49148 114416077.78648      2761.88348        46.380    21772654.83145
  89155384.54845      2152.11345        39.436  
  22063015.03148 115941929.67748      2536.93848        46.859    22063012.33444
  90344335.64044      1976.83244        37.584  
 04 07 03 06 18 51.0000000  0 10G30G14G15G26G18G29G21G 9G 5G22                  
  24107099.99645 126683679.94345      3752.26245        40.575    24107103.07141
  98714573.28341      2923.84041        28.320  
  24631853.94244 129441254.07144      2567.02744        37.891    24631855.10941
 100863318.83041      2000.27741        29.787  
  22664276.24746 119101577.25846      -608.94146        42.346    22664276.31442
  92806417.55142      -474.50442        32.794  
  23154054.67447 121675381.02647     -2360.36747        43.829    23154055.21842
  94811993.28442     -1839.25042        32.979  
  20273077.77449 116466198.40449       652.18849        48.747    20273075.35746
  90751152.25646       508.19546        43.309  
  23829067.52345 125222584.81345     -2171.96145        40.281    23829068.58343
  97576019.79143     -1692.44143        34.847  
  23044200.18346 121098083.85946     -2821.55946        43.130    23044198.43741
  94362133.32641     -2198.62141        30.628  
  20028254.58649 115179647.45249     -1118.84849        50.268    20028252.32246
  89748654.98846      -871.83246        42.788  
  21772128.95048 114413316.05348      2761.26248        46.391    21772129.28544
  89153232.55144      2151.62944        38.690  
  22062532.31348 115939392.88848      2536.39848        47.041    22062529.60144
  90342358.92944      1976.41044        37.699  
 04 07 03 06 18 52.0000000  0 10G30G14G15G26G18G29G21G 9G 5G22                  
  24106385.98545 126679927.69145      3752.58245        40.177    24106388.98042
  98711649.45342      2924.08642        34.415  
  24631365.22744 129438685.93544      2567.76244        38.134    24631366.40041
 100861317.69041      2000.85541        31.405  
  22664392.23146 119102186.67346      -609.83246        41.889    22664392.26942
  92806892.40642      -475.19542        32.867  
  23154503.89747 121677741.57447     -2360.73047        44.091    23154504.38643
  94813832.67943     -1839.53543        35.125  
  20272953.70049 116465546.43849       651.58649        48.825    20272951.29646
  90750644.23146       507.72746        43.197  
  23829480.80945 125224756.54845     -2171.88745        39.927    23829481.83043
  97577712.05143     -1692.38343        36.302  
  23044737.11546 121100905.47446     -2821.90246        42.996    23044735.38741
  94364331.99641     -2198.88741        32.003  
  20028467.52049 115180766.37449     -1119.44949        50.222    20028465.23146
  89749526.87146      -872.30146        42.734  
  21771603.48448 114410554.70148      2760.99648        46.360    21771603.81745
  89151080.85345      2151.42245        39.078  
  22062049.65648 115936856.42248      2536.14848        46.902    22062046.89344
  90340382.46244      1976.21544        36.924  
 04 07 03 06 18 53.0000000  0 10G30G14G15G26G18G29G21G 9G 5G22                  
  24105671.97445 126676175.47545      3752.14845        39.755    24105674.95142
  98708725.64142      2923.75042        32.577  
  24630876.49544 129436117.78744      2567.55544        37.876    24630877.78741
 100859316.53341      2000.68841        31.917  
  22664508.32346 119102796.70546      -610.55146        41.713    22664508.34542
  92807367.74942      -475.75842        32.326  
  23154953.13247 121680102.21047     -2360.82847        43.897    23154953.57742
  94815672.13342     -1839.60942        34.207  
  20272829.74249 116464895.05149       650.99649        48.899    20272827.35347
  90750136.65747       507.26647        43.554  
  23829894.11745 125226928.42845     -2172.18445        39.969    23829895.15542
  97579404.41942     -1692.61342        34.069  
  23045274.08546 121103727.29446     -2821.93046        43.286    23045272.33041
  94366530.80241     -2198.91441        31.571  
  20028680.54449 115181885.77649     -1119.70349        50.225    20028678.23446
  89750399.13246      -872.50046        42.782  
  21771078.09148 114407793.75848      2760.63748        46.533    21771078.42345
  89148929.47445      2151.14145        39.088  
  22061567.06648 115934320.28048      2535.98848        47.001    22061564.27744
  90338406.24444      1976.09044        37.049  
 04 07 03 06 18 54.0000000  0 10G30G14G15G26G18G29G21G 9G 5G22                  
  24104957.90345 126672423.04845      3752.68445        39.990    24104960.86442
  98705801.69042      2924.16842        33.790  
  24630387.71844 129433549.43444      2568.45344        38.187    24630388.97542
 100857315.21242      2001.39142        34.333  
  22664624.48246 119103407.18746      -610.73446        41.742    22664624.51542
  92807843.44142      -475.90242        32.885  
  23155402.36447 121682462.77547     -2360.55147        44.015    23155402.73442
  94817511.54042     -1839.39542        34.310  
  20272705.86549 116464244.10649       650.66449        48.885    20272703.48547
  90749629.43147       507.00847        43.641  
  23830307.41145 125229100.19745     -2171.70745        40.405    23830308.52243
  97581096.71343     -1692.24243        36.194  
  23045811.09047 121106549.21347     -2821.99647        43.396    23045809.32041
  94368729.71041     -2198.96141        28.825  
  20028893.63549 115183005.50749     -1119.97349        50.259    20028891.31246
  89751271.65046      -872.71146        42.737  
  21770552.75448 114405033.03648      2760.53548        46.390    21770553.07645
  89146778.26345      2151.06245        38.945  
  22061084.50548 115931784.32548      2535.66448        46.998    22061081.72644
  90336430.17944      1975.84044        36.682  
 04 07 03 06 18 55.0000000  0 10G30G14G15G26G18G29G21G 9G 5G22                  
  24104243.81745 126668670.54945      3752.50045        39.778    24104246.76942
  98702877.67142      2924.02742        34.376  
  24629898.95644 129430981.05644      2567.91044        38.075    24629900.20543
 100855313.88543      2000.96543        34.491  
  22664740.76546 119104018.24246      -611.75446        42.044    22664740.83341
  92808319.57941      -476.69541        30.737  
  23155851.59347 121684823.35647     -2360.96547        44.068    23155851.92642
  94819350.93642     -1839.71942        33.806  
  20272582.09049 116463593.67449       650.06249        48.901    20272579.71047
  90749122.60147       506.53947        43.397  
  23830720.72745 125231272.02345     -2171.84845        40.225    23830721.80244
  97582789.03544     -1692.35244        38.128  
  23046348.10747 121109371.27147     -2822.17247        43.362    23046346.38341
  94370928.70541     -2199.09841        30.232  
  20029106.80349 115184125.65749     -1120.55949        50.260    20029104.46746
  89752144.49446      -873.16446        42.856  
  21770027.46348 114402272.63048      2760.19548        46.581    21770027.77544
  89144627.28744      2150.79744        38.484  
  22060601.99448 115929248.60748      2535.42248        46.980    22060599.21144
  90334454.29644      1975.64844        37.037  
 04 07 03 06 18 56.0000000  0 10G30G14G15G26G18G29G21G 9G 5G22                  
  24103529.76345 126664918.01945      3752.14845        39.915    24103532.71843
  98699953.63843      2923.75843        35.636  
  24629410.15244 129428412.54144      2568.70344        37.879    24629411.41641
 100853312.44941      2001.58241        31.820  
  22664857.15046 119104629.87246      -612.24646        41.962    22664857.24241
  92808796.18841      -477.07841        29.234  
  23156300.83447 121687183.98947     -2360.82847        44.229    23156301.13142
  94821190.39142     -1839.60942        33.281  
  20272458.42449 116462943.82149       649.57049        48.793    20272456.05747
  90748616.22047       506.15647        43.382  
  23831134.06945 125233443.94645     -2172.03145        40.417    23831135.09942
  97584481.43842     -1692.49642        33.943  
  23046885.17546 121112193.53846     -2822.43046        43.175    23046883.53342
  94373127.87442     -2199.30142        33.519  
  20029320.05649 115185246.26949     -1120.94549        50.359    20029317.71046
  89753017.69846      -873.46946        42.347  
  21769502.24748 114399512.60248      2759.55548        46.393    21769502.54644
  89142476.61844      2150.30144        38.385  
  22060119.54648 115926713.19748      2535.17648        47.094    22060116.75444
  90332478.64944      1975.45744        37.322  
 04 07 03 06 18 57.0000000  0 10G30G14G15G26G18G29G21G 9G 5G22                  
  24102815.66045 126661165.33745      3753.21145        39.902    24102818.62642
  98697029.47942      2924.58242        34.169  
  24628921.35644 129425843.97344      2568.18044        37.713    24628922.65841
 100851310.97141      2001.17641        28.346  
  22664973.63946 119105242.05046      -612.77046        41.886    22664973.67741
  92809273.21541      -477.48441        31.740  
  23156750.07447 121689544.61647     -2360.37147        44.236    23156750.33842
  94823029.84442     -1839.25442        34.315  
  20272334.85849 116462294.48849       649.01249        48.813    20272332.49546
  90748110.24846       505.71946        43.187  
  23831547.41545 125235615.87445     -2171.81645        40.364    23831548.44242
  97586173.86342     -1692.32842        33.697  
  23047422.26346 121115015.95446     -2822.55946        43.273    23047420.65141
  94375327.15941     -2199.39841        30.832  
  20029533.38749 115186367.29449     -1121.39149        50.270    20029531.03346
  89753891.22346      -873.81246        42.479  
  21768977.08348 114396752.86848      2759.46948        46.425    21768977.38744
  89140326.18044      2150.23044        38.110  
  22059637.14948 115924178.04248      2534.93848        47.135    22059634.32543
  90330503.19343      1975.27343        36.602  
 04 07 03 06 18 58.0000000  0 10G30G14G15G26G18G29G21G 9G 5G22                  
  24102101.56345 126657412.78545      3752.43445        39.349    24102104.53841
  98694105.40841      2923.97741        30.540  
  24628432.55744 129423275.45744      2567.92244        37.921    24628433.86643
 100849309.53743      2000.97743        36.088  
  22665090.28046 119105854.93346      -613.45346        42.136    22665090.32042
  92809750.79842      -478.02042        32.757  
  23157199.35747 121691905.46947     -2360.96947        44.515    23157199.57343
  94824869.46843     -1839.71943        35.170  
  20272211.41849 116461645.82049       648.33249        48.821    20272209.05746
  90747604.79646       505.19146        43.173  
  23831960.77645 125237788.01945     -2172.22345        40.269    23831961.81543
  97587866.44443     -1692.64543        35.963  
  23047959.43246 121117838.69346     -2823.13746        43.107    23047957.84741
  94377526.70241     -2199.85241        29.854  
  20029746.82649 115187488.87549     -1121.96149        50.215    20029744.46446
  89754765.18446      -874.25846        42.641  
  21768452.01948 114393993.62348      2758.96548        46.259    21768452.34145
  89138176.11745      2149.84045        39.778  
  22059154.82848 115921643.29948      2534.33248        47.191    22059151.97243
  90328528.06643      1974.80143        36.060  
 04 07 03 06 18 59.0000000  0 10G30G14G15G26G18G29G21G 9G 5G22                  
  24101387.46345 126653660.20745      3752.53145        39.420    24101390.38141
  98691181.31841      2924.04741        31.473  
  24627943.76244 129420706.91244      2569.00844        37.738    24627945.15141
 100847308.06741      2001.82041        31.540  
  22665207.01546 119106468.45346      -614.32046        41.837    22665207.07041
  92810228.85541      -478.69541        30.306  
  23157648.67547 121694266.42547     -2360.87147        44.233    23157648.83342
  94826709.16342     -1839.64842        34.107  
  20272088.09849 116460997.77449       647.62949        48.906    20272085.72947
  90747099.82347       504.64547        43.836  
  23832374.14845 125239960.25445     -2172.02045        40.581    23832375.17642
  97589559.08242     -1692.48442        33.761  
  23048496.62846 121120661.66046     -2823.28146        43.268    23048495.00941
  94379726.42341     -2199.96141        26.587  
  20029960.36149 115188610.96249     -1122.46549        50.259    20029957.98146
  89755639.53846      -874.65246        42.791  
  21767927.02148 114391234.77948      2758.55948        46.308    21767927.35845
  89136026.37645      2149.52345        39.077  
  22058672.56848 115919108.88648      2534.18048        46.908    22058669.68344
  90326553.20044      1974.68444        37.211  
 04 07 03 06 19  0.0000000  0 10G30G14G15G26G18G29G21G 9G 5G22                  
  24100673.42045 126649907.72645      3752.68845        39.275    24100676.16942
  98688257.30542      2924.16842        33.314  
  24627455.01044 129418138.47744      2568.79744        37.784    24627456.37241
 100845306.71441      2001.66041        25.094  
  22665323.89946 119107082.72746      -614.59446        41.807    22665323.97842
  92810707.51942      -478.90642        33.987  
  23158098.03947 121696627.61447     -2361.57447        44.302    23158098.09244
  94828549.04844     -1840.19144        36.920  
  20271964.92049 116460350.45749       646.97749        48.878    20271962.56246
  90746595.41846       504.13346        43.032  
  23832787.58045 125242132.79645     -2172.91445        40.378    23832788.61943
  97591251.96343     -1693.18843        34.562  
  23049033.89446 121123485.00046     -2823.69946        43.198    23049032.25141
  94381926.42941     -2200.28941        28.315  
  20030174.01549 115189733.68049     -1123.17249        50.244    20030171.63146
  89756514.38546      -875.20346        43.200  
  21767402.12548 114388476.48048      2757.89848        46.264    21767402.48044
  89133877.05344      2149.00844        38.625  
  22058190.39548 115916574.96648      2533.68448        46.967    22058187.48944
  90324578.71444      1974.29744        37.120  
 04 07 03 06 19  1.0000000  0 10G30G14G15G26G18G29G21G 9G 5G22                  
  24099959.34945 126646155.32945      3752.48445        39.131    24099962.12241
  98685333.36241      2924.01241        31.150  
  24626966.24844 129415570.09844      2567.79344        37.747    24626967.69342
 100843305.37442      2000.87942        34.417  
  22665440.92146 119107697.68746      -615.18046        41.827    22665441.08242
  92811186.70842      -479.36342        32.816  
  23158547.42747 121698988.94547     -2361.17247        44.507    23158547.44343
  94830389.05043     -1839.87943        34.494  
  20271841.86249 116459703.78849       646.30149        48.841    20271839.51347
  90746091.51847       503.60947        43.427  
  23833201.01245 125244305.43745     -2172.71545        40.542    23833202.04344
  97592944.91944     -1693.03144        38.149  
  23049571.20746 121126308.62146     -2823.94946        43.300    23049569.61941
  94384126.65141     -2200.48441        31.901  
  20030387.76949 115190856.93149     -1123.58649        50.204    20030385.38146
  89757389.64946      -875.52346        42.814  
  21766877.30048 114385718.60848      2757.60948        46.110    21766877.68344
  89131728.06544      2148.78544        38.236  
  22057708.30248 115914041.41148      2533.41048        46.939    22057705.36644
  90322604.51044      1974.02744        37.322  
 04 07 03 06 19  2.0000000  0 10G30G14G15G26G18G29G21G 9G 5G22                  
  24099245.23945 126642402.67845      3752.67645        39.460    24099247.95241
  98682409.22741      2924.16041        21.231  
  24626477.43744 129413001.46944      2568.31244        37.175    24626478.90641
 100841303.85741      2001.28141        29.342  
  22665558.03446 119108313.03746      -615.97746        42.103    22665558.13642
  92811666.17842      -479.98842        33.798  
  23158996.77147 121701350.13947     -2361.43847        44.528    23158996.71142
  94832228.93642     -1840.08642        33.794  
  20271718.86649 116459057.46049       645.98849        48.870    20271716.53047
  90745587.88547       503.36347        43.454  
  23833614.44545 125246477.95245     -2172.76645        40.395    23833615.45343
  97594637.79143     -1693.07043        34.748  
  23050108.52046 121129132.22746     -2823.88746        43.127    23050106.92641
  94386326.85541     -2200.43441        31.398  
  20030601.57249 115191980.43549     -1123.79349        50.191    20030599.17246
  89758265.10846      -875.68846        42.950  
  21766352.52848 114382960.90448      2757.41048        46.257    21766352.91544
  89129579.20844      2148.62944        38.663  
  22057226.23148 115911507.96248      2533.14848        47.088    22057223.28444
  90320630.39844      1973.87144        38.405  
 04 07 03 06 19  3.0000000  0 10G30G14G15G26G18G29G21G 9G 5G22                  
  24098531.15245 126638650.07745      3752.25445        39.267    24098533.79042
  98679485.13442      2923.83642        32.347  
  24625988.60644 129410432.88044      2568.05544        37.636    24625990.08442
 100839302.35642      2001.08242        34.059  
  22665675.26046 119108929.06746      -616.66046        41.919    22665675.42941
  92812146.20541      -480.52041        30.046  
  23159446.15647 121703711.49047     -2361.85947        44.431    23159446.02042
  94834068.94242     -1840.41842        34.257  
  20271596.00649 116458411.82049       645.21549        48.857    20271593.68446
  90745084.78846       502.76246        43.304  
  23834027.92945 125248650.66345     -2172.99245        40.344    23834028.98843
  97596330.81543     -1693.24243        34.863  
  23050645.88446 121131956.16346     -2824.42646        43.098    23050644.25941
  94388527.33341     -2200.85541        26.230  
  20030815.47649 115193104.50849     -1124.50449        50.145    20030813.07846
  89759141.00746      -876.23846        42.971  
  21765827.83948 114380203.66748      2756.71948        46.251    21765828.21645
  89127430.71345      2148.09045        39.046  
  22056744.23348 115908974.90748      2532.72748        47.016    22056741.26144
  90318656.59144      1973.55144        36.827  
 04 07 03 06 19  4.0000000  0 10G30G14G15G26G18G29G21G 9G 5G22                  
  24097817.01545 126634897.35145      3752.50445        38.899    24097819.69742
  98676560.93442      2924.03142        34.332  
  24625499.78944 129407864.11844      2568.87944        37.567    24625501.27042
 100837300.72742      2001.72342        32.993  
  22665792.59846 119109545.59746      -616.85246        42.085    22665792.74841
  92812626.62741      -480.66841        30.738  
  23159895.54447 121706072.83447     -2361.45347        44.425    23159895.35843
  94835908.94943     -1840.09843        34.771  
  20271473.22949 116457766.65249       644.84849        48.858    20271470.92846
  90744582.06146       502.47746        43.291  
  23834441.39545 125250823.34545     -2172.69945        40.358    23834442.47642
  97598023.81842     -1693.01642        33.641  
  23051183.27646 121134780.18846     -2824.26646        43.142    23051181.61541
  94390727.86541     -2200.73041        31.188  
  20031029.45449 115194228.94649     -1124.75049        50.103    20031027.04846
  89760017.19346      -876.43446        43.010  
  21765303.19848 114377446.69048      2756.84448        46.237    21765303.57544
  89125282.42544      2148.18844        38.394  
  22056262.27448 115906442.07148      2532.63348        47.007    22056259.26944
  90316682.95244      1973.51244        37.112  
 04 07 03 06 19  5.0000000  0 10G30G14G15G26G18G29G21G 9G 5G22                  
  24097102.90845 126631144.67545      3752.59845        39.061    24097105.51342
  98673636.78842      2924.10242        32.550  
  24625010.98844 129405295.45144      2568.66444        37.060    24625012.48744
 100835299.18544      2001.55944        36.714  
  22665910.05646 119110162.84946      -617.64846        42.280    22665910.18941
  92813107.60241      -481.28941        29.124  
  23160344.96547 121708434.36347     -2361.82447        44.236    23160344.67842
  94837749.10342     -1840.38742        33.909  
  20271350.58849 116457122.17549       643.95349        48.852    20271348.29947
  90744079.87047       501.77747        43.680  
  23834854.92245 125252996.27345     -2173.54345        40.308    23834855.95443
  97599717.00243     -1693.67243        35.348  
  23051720.73146 121137604.55746     -2824.78146        43.082    23051719.04641
  94392928.65741     -2201.13741        32.058  
  20031243.54749 115195353.96749     -1125.50449        50.114    20031241.12646
  89760893.83346      -877.02046        43.180  
  21764778.65048 114374690.21948      2756.06248        46.120    21764779.03545
  89123134.52445      2147.57845        39.818  
  22055780.39748 115903909.66148      2531.99248        46.961    22055777.38144
  90314709.64244      1972.97744        36.943  
 04 07 03 06 19  6.0000000  0 10G30G14G15G26G18G29G21G 9G 5G22                  
  24096388.83445 126627392.14145      3752.75045        38.960    24096391.46144
  98670712.72644      2924.21944        38.522  
  24624522.20444 129402726.94344      2567.48444        38.098    24624523.64941
 100833297.75341      2000.63741        26.215  
  22666027.67446 119110780.88546      -618.55946        42.420    22666027.78741
  92813589.17541      -482.00041        31.834  
  23160794.42847 121710796.11947     -2361.83647        44.709    23160794.08842
  94839589.42142     -1840.39842        33.977  
  20271228.08349 116456478.42649       643.30949        48.796    20271225.80547
  90743578.24947       501.27747        43.378  
  23835268.48345 125255169.38745     -2173.36345        40.616    23835269.45443
  97601410.32743     -1693.53543        35.731  
  23052258.25246 121140429.26246     -2824.90646        42.781    23052256.60341
  94395129.73141     -2201.23041        31.521  
  20031457.75849 115196479.60949     -1125.91049        50.094    20031455.33546
  89761770.95646      -877.33646        42.687  
  21764254.20648 114371934.28148      2755.39148        46.110    21764254.58645
  89120987.03445      2147.05545        38.902  
  22055298.62248 115901377.72148      2531.60948        47.001    22055295.55843
  90312736.70043      1972.68043        36.351  
 04 07 03 06 19  7.0000000  0 10G30G14G15G26G18G29G21G 9G 5G22                  
  24095674.77745 126623639.66645      3752.18445        39.091    24095677.43643
  98667788.72043      2923.77743        34.930  
  24624033.40444 129400158.39644      2568.61744        37.039    24624034.92441
 100831296.26341      2001.51641        23.902  
  22666145.41646 119111399.58546      -618.87546        42.300    22666145.54342
  92814071.28342      -482.24242        33.885  
  23161243.92847 121713158.06347     -2362.02047        44.328    23161243.53743
  94841429.88943     -1840.54343        34.720  
  20271105.70249 116455835.33449       642.82049        48.814    20271103.42647
  90743077.13947       500.89547        43.430  
  23835682.05845 125257342.69745     -2173.20745        40.413    23835683.03242
  97603103.81342     -1693.41442        33.096  
  23052795.82846 121143254.28446     -2825.13346        42.347    23052794.18341
  94397331.05141     -2201.40641        28.658  
  20031672.07049 115197605.81149     -1126.37549        50.106    20031669.64246
  89762648.51446      -877.69946        42.927  
  21763729.85348 114369178.78048      2755.23448        46.129    21763730.22844
  89118839.89044      2146.93444        38.573  
  22054816.91648 115898846.16548      2531.38348        47.036    22054813.81743
  90310764.05543      1972.50443        36.383  
 04 07 03 06 19  8.0000000  0 10G30G14G15G26G18G29G21G 9G 5G22                  
  24094960.68445 126619887.09145      3752.66045        38.908    24094963.34941
  98664864.64441      2924.15241        32.072  
  24623544.58944 129397589.82044      2568.65644        36.876    24623546.17142
 100829294.71742      2001.53542        34.182  
  22666263.26346 119112018.86646      -619.29746        42.619    22666263.36641
  92814553.82641      -482.57441        31.528  
  23161693.43747 121715520.04647     -2362.19147        44.623    23161692.97443
  94843270.39943     -1840.67243        34.582  
  20270983.43649 116455192.79749       642.25449        48.841    20270981.16246
  90742576.45746       500.45346        43.147  
  23836095.67045 125259516.06845     -2173.64145        40.658    23836096.64243
  97604797.34443     -1693.75443        36.231  
  23053333.44546 121146079.49346     -2825.23846        42.373    23053331.85541
  94399532.50941     -2201.48841        29.293  
  20031886.46549 115198732.45549     -1126.80949        50.087    20031884.04346
  89763526.41646      -878.03546        42.716  
  21763205.55848 114366423.64348      2755.03948        46.107    21763205.93345
  89116693.03345      2146.78145        39.217  
  22054335.26248 115896314.90348      2531.12148        47.110    22054332.11844
  90308791.64744      1972.30144        37.731  
 04 07 03 06 19  9.0000000  0 10G30G14G15G26G18G29G21G 9G 5G22                  
  24094246.57545 126616134.42345      3752.35245        39.258    24094249.21841
  98661940.48441      2923.90641        30.064  
  24623055.78744 129395021.08444      2568.40644        37.511    24623057.39441
 100827293.09341      2001.34041        29.275  
  22666381.20946 119112638.62646      -620.21546        42.381    22666381.27541
  92815036.75241      -483.28941        27.034  
  23162142.93847 121717881.99647     -2362.62147        44.343    23162142.42843
  94845110.88843     -1841.00843        35.547  
  20270861.25549 116454550.70349       641.64149        48.842    20270858.98847
  90742076.12447       499.97747        43.563  
  23836509.24545 125261689.39645     -2173.64145        40.347    23836510.14343
  97606490.85543     -1693.75043        35.939  
  23053871.08446 121148904.79746     -2825.80546        42.412    23053869.55742
  94401734.03342     -2201.93042        32.583  
  20032100.92049 115199859.42649     -1127.35549        50.044    20032098.49346
  89764404.57646      -878.46146        42.796  
  21762681.32248 114363668.74948      2754.42648        46.262    21762681.69144
  89114546.37344      2146.30144        37.839  
  22053853.64448 115893783.81748      2530.90248        47.147    22053850.48344
  90306819.37544      1972.12944        37.012  
 04 07 03 06 19 10.0000000  0 10G30G14G15G26G18G29G21G 9G 5G22                  
  24093532.51445 126612381.94745      3751.89845        39.647    24093535.14742
  98659016.50642      2923.56242        34.240  
  24622566.99844 129392452.56444      2568.15244        37.196    24622568.59941
 100825291.66841      2001.15241        31.117  
  22666499.30146 119113259.24346      -621.10546        42.199    22666499.29942
  92815520.37242      -483.98042        32.929  
  23162592.49547 121720244.23647     -2362.58247        44.676    23162591.92642
  94846951.59842     -1840.97742        33.862  
  20270739.22849 116453909.44649       640.86749        48.859    20270736.96746
  90741576.44546       499.37546        43.315  
  23836922.90245 125263863.02745     -2173.84845        40.578    23836923.81743
  97608184.59843     -1693.91043        35.223  
  23054408.78446 121151730.53146     -2825.96946        42.290    23054407.31141
  94403935.88641     -2202.06241        25.759  
  20032315.51849 115200987.12749     -1128.17249        50.023    20032313.08946
  89765283.30646      -879.09846        42.695  
  21762157.19748 114360914.47448      2753.90248        46.157    21762157.56944
  89112400.18844      2145.89544        38.524  
  22053372.13148 115891253.30448      2530.14148        47.067    22053368.95844
  90304847.54944      1971.51244        37.765  
 04 07 03 06 19 11.0000000  0 10G30G14G15G26G18G29G21G 9G 5G22                  
  24092818.45645 126608629.51445      3752.19545        39.712    24092821.11243
  98656092.54643      2923.79343        34.572  
  24622078.21444 129389884.10544      2568.38744        36.921    24622079.83941
 100823290.31341      2001.34041        32.206  
  22666617.53946 119113880.55246      -621.87146        42.012    22666617.43642
  92816004.51942      -484.57842        32.695  
  23163042.08347 121722606.64147     -2362.72347        44.625    23163041.47943
  94848792.43043     -1841.08643        36.053  
  20270617.32249 116453268.84149       640.19949        48.837    20270615.06946
  90741077.27346       498.85246        42.841  
  23837336.59345 125266036.87345     -2174.54345        40.389    23837337.45444
  97609878.51744     -1694.45344        37.586  
  23054946.55446 121154556.55546     -2826.15246        42.347    23054945.09841
  94406137.98841     -2202.19941        31.193  
  20032530.21749 115202115.37549     -1128.68849        50.028    20032527.78346
  89766162.46046      -879.50046        42.934  
  21761633.16448 114358160.66248      2753.44948        46.300    21761633.53845
  89110254.36545      2145.54345        38.920  
  22052890.68448 115888723.18448      2529.66448        47.060    22052887.50044
  90302876.03544      1971.16444        36.994  
 04 07 03 06 19 12.0000000  0 10G30G14G15G26G18G29G21G 9G 5G22                  
  24092104.41445 126604877.13845      3752.61745        39.847    24092107.09642
  98653168.61842      2924.11742        32.950  
  24621589.48144 129387315.67644      2568.02344        36.907    24621591.05743
 100821288.96043      2001.06243        34.802  
  22666735.89746 119114502.56646      -622.47746        41.864    22666735.81842
  92816489.20742      -485.05142        33.321  
  23163491.70147 121724969.22547     -2362.90647        44.407    23163491.07143
  94850633.40043     -1841.23043        36.249  
  20270495.56149 116452628.92449       639.50049        48.920    20270493.31446
  90740578.63646       498.30946        43.272  
  23837750.31745 125268210.88245     -2174.32445        40.094    23837751.17743
  97611572.54643     -1694.28143        35.759  
  23055484.39146 121157382.94146     -2826.61346        41.926    23055482.95141
  94408340.35241     -2202.56241        28.781  
  20032745.02749 115203244.20149     -1129.21949        50.012    20032742.58446
  89767042.06646      -879.91446        42.842  
  21761109.22848 114355407.33548      2753.12948        46.352    21761109.61644
  89108108.92044      2145.29344        37.709  
  22052409.33048 115886193.48648      2529.41448        47.153    22052406.12144
  90300904.84144      1970.96944        36.680  
 04 07 03 06 19 13.0000000  0 10G30G14G15G26G18G29G21G 9G 5G22                  
  24091390.35545 126601124.67545      3752.25445        39.921    24091393.02042
  98650244.61842      2923.83642        32.901  
  24621100.63743 129384747.04543      2568.60243        36.570    24621102.23342
 100819287.40342      2001.50442        33.064  
  22666854.35246 119115125.05446      -622.96946        41.833    22666854.27742
  92816974.25742      -485.43442        32.944  
  23163941.31947 121727331.78047     -2362.94547        44.735    23163940.64942
  94852474.34342     -1841.25842        34.032  
  20270373.87249 116451989.45049       639.13749        48.872    20270371.63447
  90740080.34547       498.02747        43.458  
  23838164.05445 125270384.88645     -2174.60545        40.314    23838164.87945
  97613266.58145     -1694.50045        39.240  
  23056022.25146 121160209.37546     -2826.94146        41.809    23056020.80142
  94410542.75642     -2202.82042        32.457  
  20032959.90249 115204373.37449     -1129.46949        49.954    20032957.46446
  89767921.94146      -880.10946        42.892  
  21760585.34448 114352654.26548      2752.81248        46.425    21760585.72644
  89105963.67244      2145.04744        38.034  
  22051928.00648 115883663.96548      2529.37548        47.131    22051924.76243
  90298933.78743      1970.93843        36.596  
 04 07 03 06 19 14.0000000  0 10G30G14G15G26G18G29G21G 9G 5G22                  
  24090676.26945 126597372.03345      3752.59045        40.316    24090679.00042
  98647320.49542      2924.09842        33.697  
  24620611.81044 129382178.34244      2568.31644        37.239    24620613.41441
 100817285.83941      2001.28541        30.417  
  22666972.90046 119115748.05046      -623.37146        41.364    22666972.77341
  92817459.71641      -485.74641        30.584  
  23164390.92047 121729694.29747     -2362.48447        44.564    23164390.20341
  94854315.26341     -1840.89841        31.977  
  20270252.28149 116451350.46949       638.59449        48.811    20270250.04146
  90739582.43546       497.60246        43.250  
  23838577.77645 125272558.87445     -2174.19945        40.173    23838578.56741
  97614960.59441     -1694.18441        30.796  
  23056560.12246 121163035.92746     -2826.69546        41.702    23056558.71241
  94412745.29741     -2202.62141        26.789  
  20033174.84949 115205502.92249     -1129.80149        49.979    20033172.40447
  89768802.10747      -880.36747        43.373  
  21760061.49748 114349901.48448      2752.51248        46.571    21760061.88445
  89103818.64945      2144.81245        39.128  
  22051446.71348 115881134.68048      2529.11748        47.219    22051443.44844
  90296962.91444      1970.73844        37.685  
 04 07 03 06 19 15.0000000  0 10G30G14G15G26G18G29G21G 9G 5G22                  
  24089962.13745 126593619.35545      3752.87145        39.987    24089964.91841
  98644396.33541      2924.31641        29.989  
  24620122.97444 129379609.51144      2568.56244        36.770    24620124.55641
 100815284.18341      2001.48041        15.440  
  22667091.56746 119116371.63346      -624.05546        41.169    22667091.46643
  92817945.62843      -486.28143        34.857  
  23164840.54247 121732056.88247     -2362.66447        44.932    23164839.76642
  94856156.25042     -1841.03942        34.357  
  20270130.78949 116450712.02449       638.10249        48.872    20270128.55346
  90739084.94746       497.21946        42.881  
  23838991.52145 125274732.91045     -2174.28945        40.865    23838992.27543
  97616654.64143     -1694.25443        34.834  
  23057098.01846 121165862.65646     -2826.99646        41.779    23057096.71441
  94414947.95241     -2202.85241        31.502  
  20033389.87649 115206632.90549     -1130.37149        49.949    20033387.43946
  89769682.61446      -880.81246        42.907  
  21759537.71448 114347149.03248      2752.10948        46.608    21759538.11844
  89101673.88144      2144.49644        38.672  
  22050965.48448 115878605.66648      2528.73048        47.175    22050962.21143
  90294992.25143      1970.43843        36.608  
 04 07 03 06 19 16.0000000  0 10G30G14G15G26G18G29G21G 9G 5G22                  
  24089248.05645 126589866.76645      3752.29745        39.798    24089250.81641
  98641472.24641      2923.86741        31.733  
  24619634.17544 129377040.78444      2568.55944        36.875    24619635.59541
 100813282.53941      2001.47341        30.233  
  22667210.37846 119116995.94046      -624.92646        41.145    22667210.23241
  92818432.10041      -486.95741        30.946  
  23165290.20147 121734419.67047     -2363.20347        45.151    23165289.39243
  94857997.37843     -1841.46143        34.925  
  20270009.42949 116450074.28649       637.29349        48.800    20270007.20547
  90738588.01047       496.59047        43.423  
  23839405.28345 125276907.16345     -2174.55945        40.544    23839406.02643
  97618348.85143     -1694.46543        36.189  
  23057635.98946 121168689.72246     -2827.23046        41.755    23057634.75541
  94417150.86841     -2203.03541        32.033  
  20033605.00849 115207763.46949     -1130.99249        50.007    20033602.57446
  89770563.57346      -881.29746        42.839  
  21759014.04348 114344397.07948      2751.67648        46.605    21759014.43445
  89099529.50245      2144.16045        39.418  
  22050484.33448 115876077.08448      2528.23448        47.054    22050481.03344
  90293021.92044      1970.05144        36.733  
 04 07 03 06 19 17.0000000  0 10G30G14G15G26G18G29G21G 9G 5G22                  
  24088533.96945 126586114.12445      3752.81245        39.973    24088536.77941
  98638548.09941      2924.26641        32.118  
  24619145.31943 129374472.02543      2568.65243        36.325    24619146.81241
 100811280.91641      2001.54341        30.821  
  22667329.29046 119117620.83246      -625.28946        41.364    22667329.19642
  92818919.02442      -487.24242        34.094  
  23165739.87247 121736782.51947     -2363.06647        44.909    23165739.01142
  94859838.55442     -1841.35542        34.374  
  20269888.18749 116449437.12649       636.79749        48.817    20269885.96847
  90738091.52247       496.20347        43.719  
  23839819.06945 125279081.54245     -2174.49645        40.145    23839819.81843
  97620043.16943     -1694.41443        34.719  
  23058173.99546 121171517.00746     -2827.57046        41.607    23058172.75841
  94419353.96041     -2203.30141        29.782  
  20033820.23549 115208894.50849     -1131.37949        50.064    20033817.80246
  89771444.90246      -881.59846        42.435  
  21758490.43248 114341645.51248      2751.27748        46.467    21758490.83044
  89097385.42944      2143.84844        38.199  
  22050003.23948 115873548.82048      2528.04748        47.170    22049999.92343
  90291051.84043      1969.90243        36.090  
 04 07 03 06 19 18.0000000  0 10G30G14G15G26G18G29G21G 9G 5G22                  
  24087819.85545 126582361.48445      3752.59845        40.206    24087822.60341
  98635623.98341      2924.10241        28.094  
  24618656.48043 129371903.26343      2568.57843        36.649    24618658.01142
 100809279.26242      2001.48442        33.802  
  22667448.33545 119118246.35145      -625.58645        40.821    22667448.24543
  92819406.42043      -487.47343        35.692  
  23166189.56647 121739145.48947     -2362.93447        45.018    23166188.69242
  94861679.83042     -1841.25042        33.755  
  20269767.05149 116448800.57849       636.28549        48.872    20269764.84046
  90737595.51246       495.80546        43.162  
  23840232.88345 125281256.00645     -2174.05545        40.386    23840233.62842
  97621737.55242     -1694.07442        32.302  
  23058712.03946 121174344.51446     -2827.47746        41.582    23058710.77041
  94421557.19541     -2203.23041        27.396  
  20034035.55749 115210026.03849     -1131.70749        50.030    20034033.12646
  89772326.61346      -881.85246        42.618  
  21757966.91148 114338894.34248      2750.72348        46.606    21757967.29944
  89095241.65644      2143.41844        38.774  
  22049522.20948 115871020.89848      2527.69948        47.086    22049518.85744
  90289082.03444      1969.63344        36.998  
 04 07 03 06 19 19.0000000  0  9G30G15G26G18G29G21G 9G 5G22                     
  24087105.73745 126578608.72845      3752.70345        39.825    24087108.49141
  98632699.75241      2924.18041        31.179  
  22667567.48345 119118872.41545      -626.55945        40.823    22667567.40442
  92819894.24742      -488.23442        32.973  
  23166639.25147 121741508.42547     -2363.18047        44.833    23166638.34543
  94863521.07643     -1841.44143        34.966  
  20269646.01149 116448164.51349       635.73449        48.817    20269643.80447
  90737099.87447       495.37547        43.334  
  23840646.70645 125283430.48745     -2174.66445        40.192    23840647.36643
  97623431.93543     -1694.55143        36.427  
  23059250.13746 121177172.16046     -2827.93846        41.989    23059248.96941
  94423760.55141     -2203.59041        29.359  
  20034250.94849 115211157.94949     -1132.24249        50.025    20034248.51846
  89773208.62346      -882.27046        42.863  
  21757443.44448 114336143.46848      2750.56648        46.634    21757443.80944
  89093098.11444      2143.29744        37.735  
  22049041.21848 115868493.18348      2527.51648        47.104    22049037.84144
  90287112.39044      1969.48844        37.267  
 04 07 03 06 19 20.0000000  0 10G30G14G15G26G18G29G21G 9G 5G22                  
  24086391.56545 126574855.62145      3753.20345        40.015    24086394.36641
  98629775.26041      2924.57441        32.118  
  24617678.48843 129366773.06753      2568.91043        35.840    24617680.24841
 100805284.49451      2001.74641        29.158  
  22667686.68145 119119498.73545      -626.26645        41.005    22667686.62242
  92820382.29742      -488.00442        32.373  
  23167088.89847 121743871.12347     -2362.41847        44.770    23167087.94441
  94865362.14141     -1840.84841        31.835  
  20269525.01949 116447528.69949       635.71149        48.907    20269522.80946
  90736604.43646       495.35546        42.842  
  23841060.46445 125285604.68845     -2173.73445        40.214    23841061.13743
  97625126.12043     -1693.82043        36.236  
  23059788.21146 121179999.66546     -2827.50846        42.044    23059786.99341
  94425963.77841     -2203.26241        29.632  
  20034466.37449 115212289.99849     -1132.11349        50.045    20034463.93746
  89774090.74146      -882.16846        43.138  
  21756919.98048 114333392.63248      2750.82048        46.659    21756920.34745
  89090954.61145      2143.49245        39.640  
  22048560.22648 115865965.47648      2527.75048        46.976    22048556.79243
  90285142.75043      1969.67243        36.418  
 04 07 03 06 19 21.0000000  0 10G30G14G15G26G18G29G21G 9G 5G22                  
  24085677.27145 126571102.02445      3753.62945        40.319    24085679.94541
  98626850.36041      2924.90241        30.999  
  24617189.81943 129364203.30043      2569.24643        35.878    24617195.39143
 100803282.08043      2002.00843        36.277  
  22667805.90946 119120125.21146      -626.77346        41.170    22667805.78543
  92820870.47143      -488.39843        35.693  
  23167538.47447 121746233.46147     -2362.63347        44.889    23167537.45642
  94867202.91942     -1841.01642        34.124  
  20269404.04649 116446893.01549       635.14549        48.879    20269401.84947
  90736109.09847       494.91447        43.583  
  23841474.14245 125287778.60845     -2174.10545        39.952    23841474.82844
  97626820.07844     -1694.11744        37.235  
  23060326.22046 121182826.93846     -2827.36346        41.671    23060324.95641
  94428166.81741     -2203.15241        26.494  
  20034681.80249 115213422.07849     -1132.44149        50.076    20034679.36946
  89774972.88146      -882.42646        42.941  
  21756396.51548 114330641.73248      2750.62948        46.553    21756396.85344
  89088811.05444      2143.34444        38.653  
  22048079.20148 115863437.62848      2527.50048        46.978    22048075.73443
  90283173.00143      1969.47743        35.054  
 04 07 03 06 19 22.0000000  0 10G30G14G15G26G18G29G21G 9G 5G22                  
  24084963.07345 126567348.85245      3752.87545        40.676    24084965.66842
  98623925.80142      2924.31642        32.632  
  24616699.31443 129361633.92243      2569.40243        35.485    24616700.62342
 100801279.98342      2002.12942        33.595  
  22667925.33345 119120752.76145      -628.57845        41.021    22667925.21941
  92821359.47341      -489.80541        31.273  
  23167988.14247 121748596.33747     -2363.57447        44.930    23167987.08842
  94869044.11642     -1841.75042        33.799  
  20269283.27749 116446258.35749       633.80949        48.868    20269281.08246
  90735614.55946       493.87546        43.329  
  23841887.93845 125289952.99745     -2174.78545        40.267    23841888.62544
  97628514.40244     -1694.64544        38.122  
  23060864.35446 121185654.89246     -2828.62546        41.297    23060863.11241
  94430370.41641     -2204.13341        28.183  
  20034897.40549 115214555.07349     -1133.80149        50.116    20034894.97746
  89775855.73546      -883.48446        42.795  
  21755873.20748 114327891.66748      2749.24248        46.325    21755873.49744
  89086668.14644      2142.26244        38.174  
  22047598.33148 115860910.53548      2526.27748        46.965    22047594.83344
  90281203.84244      1968.53944        36.786  
 04 07 03 06 19 23.0000000  0 10G30G14G15G26G18G29G21G 9G 5G22                  
  24084249.05045 126563596.62545      3751.37145        40.697    24084251.62341
  98621001.97041      2923.14141        29.319  
  24616211.73443 129359065.52143      2567.08243        36.203    24616209.57243
 100799278.67043      2000.32043        34.635  
  22668045.05746 119121381.84846      -630.57446        41.391    22668044.89942
  92821849.67242      -491.35942        34.169  
  23168438.01647 121750960.22647     -2364.85247        45.210    23168436.92242
  94870886.10942     -1842.74642        32.648  
  20269162.78849 116445625.21849       632.12549        48.810    20269160.59846
  90735121.20346       492.56246        43.242  
  23842301.93645 125292128.44245     -2176.16045        40.048    23842302.62143
  97630209.55043     -1695.71543        35.111  
  23061402.70146 121188483.97246     -2830.05946        41.679    23061401.45041
  94432574.92941     -2205.24241        30.330  
  20035113.27949 115215689.46349     -1135.39849        50.082    20035110.84046
  89776739.67446      -884.73046        42.535  
  21755350.14248 114325142.89348      2747.89148        46.290    21755350.41744
  89084526.25344      2141.21144        38.561  
  22047117.68248 115858384.68648      2525.09448        46.892    22047114.17744
  90279235.64944      1967.60244        37.319  
 04 07 03 06 19 24.0000000  0 10G30G14G15G26G18G29G21G 9G 5G22                  
  24083535.09945 126559844.75545      3751.59845        40.280    24083537.63941
  98618078.43741      2923.32041        26.238  
  24615722.55043 129356497.40743      2567.94143        35.666    24615716.35843
 100797277.48843      2000.98443        36.652  
  22668164.95946 119122011.93046      -630.54346        41.293    22668164.82042
  92822340.64742      -491.33642        34.408  
  23168887.96447 121753324.58847     -2364.58247        45.150    23168886.80543
  94872728.45943     -1842.53943        34.521  
  20269042.48549 116444993.06549       631.91049        48.849    20269040.31247
  90734628.61447       492.39547        43.648  
  23842716.02145 125294304.32445     -2175.78545        39.966    23842716.70843
  97631905.05143     -1695.42243        35.900  
  23061941.16646 121191313.67246     -2829.62546        41.295    23061939.88941
  94434779.89241     -2204.90641        31.229  
  20035329.31249 115216824.73649     -1135.59049        50.090    20035326.87246
  89777624.30346      -884.87946        42.826  
  21754827.22948 114322394.92748      2747.67248        46.341    21754827.48944
  89082384.98344      2141.03944        38.675  
  22046637.17848 115855859.57348      2524.92248        46.890    22046633.66744
  90277268.03544      1967.46944        38.376  
 04 07 03 06 19 25.0000000  0 10G30G14G15G26G18G29G21G 9G 5G22                  
  24082821.12645 126556092.76645      3751.67645        40.189    24082823.62141
  98615154.81841      2923.37941        31.396  
  24615233.16043 129353929.16743      2568.59843        35.014    24615228.14641
 100795276.26541      2001.50041        28.798  
  22668284.95546 119122642.54246      -631.07446        41.193    22668284.78542
  92822832.02642      -491.75042        33.730  
  23169337.93047 121755688.94947     -2364.49647        45.380    23169336.69142
  94874570.80942     -1842.47342        33.947  
  20268922.28249 116444361.41949       631.25849        48.726    20268920.11047
  90734136.42047       491.88747        43.429  
  23843130.12345 125296480.31145     -2176.01645        40.293    23843130.81944
  97633600.63344     -1695.60244        37.961  
  23062479.66646 121194143.51846     -2830.00446        41.304    23062478.41542
  94436984.95842     -2205.19942        33.179  
  20035545.41649 115217960.40849     -1136.11349        50.087    20035542.98746
  89778509.24346      -885.28546        42.694  
  21754304.37348 114319647.25748      2747.29348        46.322    21754304.63344
  89080243.94244      2140.74644        38.514  
  22046156.72048 115853334.70748      2524.43448        46.935    22046153.17744
  90275300.61244      1967.09044        37.691  
 04 07 03 06 19 26.0000000  0 10G30G14G15G26G18G29G21G 9G 5G22                  
  24082107.16245 126552340.84645      3751.82845        40.620    24082109.68342
  98612231.26142      2923.50042        33.109  
  24614744.76643 129351361.02343      2568.05143        35.696    24614745.30643
 100793275.10943      2001.07443        35.294  
  22668405.09146 119123273.85546      -631.89146        41.562    22668404.95341
  92823323.96041      -492.38741        31.009  
  23169787.91247 121758053.46047     -2365.11347        45.336    23169786.65041
  94876413.28441     -1842.95341        31.885  
  20268802.20749 116443730.42949       630.46549        48.772    20268800.03446
  90733644.73946       491.27046        43.327  
  23843544.23245 125298656.40145     -2176.24245        40.012    23843544.84443
  97635296.28943     -1695.77743        34.645  
  23063018.22346 121196973.63446     -2830.39846        41.118    23063017.04141
  94439190.22341     -2205.51241        30.918  
  20035761.63249 115219096.63449     -1136.81249        50.069    20035759.19946
  89779394.61546      -885.83246        42.891  
  21753781.60148 114316900.05948      2746.61748        46.413    21753781.85544
  89078103.27344      2140.21944        37.581  
  22045676.34748 115850810.23848      2523.90248        46.948    22045672.77444
  90273333.49844      1966.67644        37.892  
 04 07 03 06 19 27.0000000  0 10G30G14G15G26G18G29G21G 9G 5G22                  
  24081393.18045 126548588.91045      3752.16045        40.698    24081395.74441
  98609307.68041      2923.75841        30.056  
  24614257.01443 129348792.85843      2568.76243        35.652    24614256.52541
 100791273.95341      2001.62941        27.661  
  22668525.33546 119123905.76646      -632.12146        41.279    22668525.14141
  92823816.36641      -492.56641        27.190  
  23170237.91247 121760418.07647     -2364.65247        45.056    23170236.60741
  94878255.83641     -1842.59441        31.266  
  20268682.24549 116443100.02649       630.09449        48.776    20268680.07047
  90733153.51747       490.98047        43.744  
  23843958.37345 125300832.63045     -2176.42645        40.529    23843958.97442
  97636992.05442     -1695.91842        34.083  
  23063556.80646 121199803.96046     -2830.24646        41.194    23063555.67441
  94441395.65241     -2205.39841        30.032  
  20035977.93949 115220233.33449     -1136.98849        50.095    20035975.50546
  89780280.35446      -885.96946        42.648  
  21753258.90348 114314153.24048      2746.56648        46.567    21753259.14544
  89075962.89444      2140.18044        38.540  
  22045196.02448 115848286.09348      2523.99648        47.021    22045192.44844
  90271366.63244      1966.74644        37.877  
 04 07 03 06 19 28.0000000  0 10G30G14G15G26G18G29G21G 9G 5G22                  
  24080679.11945 126544836.52945      3752.40645        40.969    24080681.67841
  98606383.76041      2923.95341        29.280  
  24613767.25043 129346224.18043      2568.87543        35.330    24613769.21541
 100789272.39741      2001.71941        30.702  
  22668645.60946 119124537.88446      -632.61346        41.733    22668645.46342
  92824308.93342      -492.94942        32.345  
  23170687.86347 121762782.37247     -2364.14147        45.414    23170686.49542
  94880098.14042     -1842.19542        34.406  
  20268562.30849 116442469.78749       630.14149        48.904    20268560.14046
  90732662.42646       491.01646        43.142  
  23844372.45445 125303008.51845     -2175.71945        40.097    23844373.00842
  97638687.53642     -1695.36742        33.951  
  23064095.35845 121202634.10345     -2830.06645        41.109    23064094.24941
  94443600.96741     -2205.25041        23.049  
  20036194.25349 115221370.09249     -1136.94949        50.170    20036191.82246
  89781166.14046      -885.93846        42.736  
  21752736.19248 114311406.37948      2746.73448        46.464    21752736.43844
  89073822.48744      2140.30944        38.649  
  22044715.68448 115845761.84948      2524.25448        47.141    22044712.09944
  90269399.68544      1966.94944        36.845  
 04 07 03 06 19 29.0000000  0 10G30G14G15G26G18G29G21G 9G 5G22                  
  24079965.03945 126541084.00945      3752.43845        40.628    24079967.61641
  98603459.72941      2923.97741        31.025  
  24613278.52243 129343655.38843      2568.56243        35.508    24613277.51341
 100787270.74741      2001.47341        24.238  
  22668765.98246 119125170.46246      -633.21146        41.590    22668765.82941
  92824801.84141      -493.41441        31.537  
  23171137.79148 121765146.60048     -2364.35548        45.680    23171136.39342
  94881940.40042     -1842.35942        33.222  
  20268442.46649 116441840.01449       629.11749        48.865    20268440.29646
  90732171.69346       490.21946        43.317  
  23844786.52845 125305184.39445     -2176.35945        40.434    23844787.08444
  97640383.03244     -1695.86744        36.912  
  23064633.93545 121205464.32945     -2830.64545        41.034    23064632.77241
  94445806.32741     -2205.70341        27.692  
  20036410.63149 115222507.19349     -1137.69549        50.133    20036408.20646
  89782052.18946      -886.52046        42.062  
  21752213.54448 114308659.79048      2746.02348        46.595    21752213.78045
  89071682.28945      2139.75445        39.386  
  22044235.37348 115843237.80348      2523.52348        47.114    22044231.79944
  90267432.89544      1966.37944        36.912  
 04 07 03 06 19 30.0000000  0 10G30G14G15G26G18G29G21G 9G 5G22                  
  24079250.99845 126537331.61845      3752.42645        40.572    24079253.56941
  98600535.77841      2923.96541        29.773  
  24612789.61143 129341086.69143      2568.50043        35.222    24612791.04441
 100785269.17841      2001.43041        30.695  
  22668886.49546 119125803.80646      -633.76646        41.552    22668886.40442
  92825295.35542      -493.84842        32.638  
  23171587.77147 121767511.09347     -2364.69547        45.249    23171586.30842
  94883782.86642     -1842.62142        33.578  
  20268322.76149 116441210.97949       628.55949        48.924    20268320.58746
  90731681.53646       489.78146        43.224  
  23845200.63645 125307360.50245     -2176.33645        40.079    23845201.16343
  97642078.69743     -1695.84843        34.815  
  23065172.55945 121208294.93545     -2830.93845        40.772    23065171.46041
  94448011.98941     -2205.93441        30.843  
  20036627.13249 115223644.92949     -1138.09049        50.086    20036624.70546
  89782938.74046      -886.82846        42.974  
  21751690.99148 114305913.73748      2745.86748        46.584    21751691.22544
  89069542.50144      2139.63344        38.820  
  22043755.16948 115840714.23048      2523.32848        46.908    22043751.59643
  90265466.47943      1966.22743        34.660  
 04 07 03 06 19 31.0000000  0 10G30G14G15G26G18G29G21G 9G 5G22                  
  24078536.92845 126533579.18245      3752.30545        40.092    24078539.48842
  98597611.80142      2923.87142        32.724  
  24612301.38043 129338517.93743      2568.91843        35.213    24612300.93842
 100783267.56542      2001.75442        32.583  
  22669007.12446 119126437.76546      -634.35546        41.497    22669007.01742
  92825789.34742      -494.30542        32.389  
  23172037.75247 121769875.62247     -2364.81647        45.331    23172036.24542
  94885625.34742     -1842.71942        32.945  
  20268203.17449 116440582.50649       628.02349        48.837    20268200.99847
  90731191.81547       489.36747        43.547  
  23845614.77645 125309536.68545     -2176.42245        40.256    23845615.25142
  97643774.42042     -1695.91842        34.374  
  23065711.22545 121211125.71645     -2831.22745        40.882    23065710.21041
  94450217.79141     -2206.15641        27.619  
  20036843.71649 115224783.11449     -1138.61349        50.140    20036841.29446
  89783825.63646      -887.23446        42.886  
  21751168.51348 114303168.04648      2745.20348        46.566    21751168.72744
  89067403.00044      2139.11744        38.242  
  22043275.01748 115838190.96848      2522.93048        47.047    22043271.44544
  90263500.30244      1965.92244        37.558  
 04 07 03 06 19 32.0000000  0 10G30G14G15G26G18G29G21G 9G 5G22                  
  24077822.82645 126529826.54845      3752.58245        40.095    24077825.40741
  98594687.67041      2924.08641        28.896  
  24611812.85543 129335949.01643      2568.62943        35.936    24611812.23241
 100781265.81141      2001.53141        30.848  
  22669127.85446 119127072.13346      -634.41446        41.690    22669127.77842
  92826283.66142      -494.35242        33.233  
  23172487.73247 121772240.06947     -2364.43047        45.092    23172486.16642
  94887467.76042     -1842.41842        34.363  
  20268083.65449 116439954.43449       627.76649        48.862    20268081.47247
  90730702.40847       489.16447        43.612  
  23846028.89245 125311712.80245     -2176.22745        40.590    23846029.35244
  97645470.08244     -1695.76644        37.888  
  23066249.91445 121213956.55045     -2831.16445        40.728    23066248.97641
  94452423.65441     -2206.10541        26.815  
  20037060.35849 115225921.58949     -1138.65249        50.141    20037057.94346
  89784712.76146      -887.26646        42.724  
  21750646.07748 114300422.56848      2745.35948        46.682    21750646.27645
  89065263.67445      2139.23845        39.756  
  22042794.90148 115835667.83148      2523.06648        47.037    22042791.30744
  90261534.22544      1966.02344        37.324  
 04 07 03 06 19 33.0000000  0 10G30G14G15G26G18G29G21G 9G 5G22                  
  24077108.64145 126526073.57445      3752.91445        39.853    24077111.30941
  98591763.28041      2924.34441        23.440  
  24611323.76243 129333379.67243      2569.60543        35.299    24611324.74044
 100779263.74144      2002.28944        37.417  
  22669248.63046 119127706.83746      -634.89846        41.264    22669248.57242
  92826778.22842      -494.73042        33.225  
  23172937.65647 121774604.27947     -2364.25847        45.299    23172936.03743
  94889310.00043     -1842.28543        34.917  
  20267964.17849 116439326.64549       627.52049        48.839    20267962.00147
  90730213.22347       488.97347        43.376  
  23846442.95745 125313888.69545     -2176.35545        40.386    23846443.44243
  97647165.59043     -1695.86343        35.337  
  23066788.56946 121216787.27946     -2830.95746        41.255    23066787.56441
  94454629.41241     -2205.94541        29.616  
  20037277.03249 115227060.24549     -1138.92649        50.137    20037274.62846
  89785600.02246      -887.47746        43.155  
  21750123.64748 114297677.16548      2745.14148        46.863    21750123.84044
  89063124.39944      2139.06644        38.733  
  22042314.78448 115833144.72648      2522.96148        47.106    22042311.17844
  90259568.16844      1965.87144        36.846  
 04 07 03 06 19 34.0000000  0 10G30G14G15G26G18G29G21G 9G 5G22                  
  24076394.45045 126522320.48945      3752.62145        39.845    24076397.14941
  98588838.82441      2924.12541        25.038  
  24610834.69843 129330810.28243      2569.15243        35.304    24610834.45243
 100777261.60543      2001.93443        34.709  
  22669369.51046 119128342.01146      -635.73046        41.967    22669369.43042
  92827273.16042      -495.38342        34.028  
  23173387.58747 121776968.47847     -2364.41847        45.391    23173385.88441
  94891152.24541     -1842.40641        32.216  
  20267844.79849 116438699.33349       626.94149        48.835    20267842.63047
  90729724.40647       488.52347        43.645  
  23846857.03045 125316064.54245     -2176.15245        40.950    23846857.47743
  97648861.06943     -1695.70743        34.486  
  23067327.26146 121219618.10246     -2831.10946        41.250    23067326.34442
  94456835.25942     -2206.06242        33.641  
  20037493.77349 115228199.25349     -1139.18849        50.040    20037491.37846
  89786487.56346      -887.68446        42.533  
  21749601.26848 114294932.02448      2744.94948        46.731    21749601.46444
  89060985.33144      2138.91844        38.053  
  22041834.69848 115830621.83348      2522.59448        47.083    22041831.07644
  90257602.27244      1965.62544        38.112  
 04 07 03 06 19 35.0000000  0 10G30G14G15G26G18G29G21G 9G 5G22                  
  24075680.28245 126518567.54745      3752.68445        40.291    24075682.95241
  98585914.47041      2924.17241        31.233  
  24610345.97943 129328240.99243      2568.84443        34.756    24610343.52441
 100775259.55441      2001.69141        29.722  
  22669490.53946 119128977.99646      -636.78946        41.674    22669490.46041
  92827768.71941      -496.20741        31.138  
  23173837.55947 121779332.93747     -2364.93847        45.222    23173835.77642
  94892994.67642     -1842.81242        33.909  
  20267725.56649 116438072.79949       625.97749        48.763    20267723.39447
  90729236.19747       487.77047        43.359  
  23847271.12345 125318240.69845     -2176.36745        40.055    23847271.55444
  97650556.77144     -1695.87544        37.680  
  23067866.00145 121222449.34845     -2831.68445        40.940    23067865.11642
  94459041.42042     -2206.51242        32.550  
  20037710.64349 115229338.93749     -1140.16049        50.022    20037708.24446
  89787375.63046      -888.44146        42.905  
  21749078.99948 114292187.49348      2744.04748        46.901    21749079.17944
  89058846.73444      2138.21544        37.832  
  22041354.72548 115828099.45048      2521.91848        47.138    22041351.07844
  90255636.77844      1965.12944        37.624  
 04 07 03 06 19 36.0000000  0 10G30G14G15G26G18G29G21G 9G 5G22                  
  24074966.16645 126514814.79745      3752.77345        40.427    24074968.76341
  98582990.24241      2924.23441        30.840  
  24609857.42643 129325671.85543      2568.92643        35.904    24609855.81142
 100773257.63642      2001.75842        33.692  
  22669611.72446 119129614.76846      -637.05946        41.978    22669611.67642
  92828264.90342      -496.41442        34.270  
  23174287.58047 121781697.68247     -2364.95747        45.091    23174285.71243
  94894837.32343     -1842.82843        36.222  
  20267606.48649 116437447.05749       625.26249        48.774    20267604.31247
  90728748.60647       487.21547        43.414  
  23847685.30745 125320417.18645     -2176.71545        40.305    23847685.74943
  97652252.72643     -1696.14543        35.281  
  23068404.83645 121225280.99745     -2832.03545        40.827    23068403.91141
  94461247.88941     -2206.78541        26.472  
  20037927.64949 115230479.29249     -1140.77349        50.009    20037925.23246
  89788264.22046      -888.91846        42.810  
  21748556.84448 114289443.52648      2743.65648        46.961    21748557.01844
  89056708.58144      2137.91044        38.150  
  22040874.84948 115825577.59548      2521.57448        47.218    22040871.16444
  90253671.69544      1964.85944        37.513  
 04 07 03 06 19 37.0000000  0 10G30G14G15G26G18G29G21G 9G 5G22                  
  24074251.99345 126511061.86645      3752.85545        40.987    24074254.64741
  98580065.87641      2924.30141        31.478  
  24609368.62143 129323102.51643      2569.36343        35.634    24609367.19541
 100771255.53141      2002.09841        31.308  
  22669732.98946 119130251.97246      -637.25846        41.837    22669732.90541
  92828761.43741      -496.56641        30.392  
  23174737.59947 121784062.32347     -2364.63347        45.544    23174735.65643
  94896679.90943     -1842.57443        35.014  
  20267487.48349 116436821.70249       625.14849        48.819    20267485.30247
  90728261.31847       487.12547        43.852  
  23848099.47245 125322593.55545     -2176.43445        40.747    23848099.90443
  97653948.58943     -1695.92643        35.245  
  23068943.66445 121228112.67145     -2831.68045        40.629    23068942.73642
  94463454.36942     -2206.51242        33.594  
  20038144.70049 115231619.93449     -1140.85249        49.948    20038142.29346
  89789153.03346      -888.97746        43.175  
  21748034.72648 114286699.76348      2743.34048        47.035    21748034.89744
  89054570.58744      2137.66444        38.027  
  22040394.98548 115823055.86448      2521.62948        47.096    22040391.29344
  90251706.71244      1964.90244        37.044  
 04 07 03 06 19 38.0000000  0 10G30G14G15G26G18G29G21G 9G 5G22                  
  24073537.81146 126507308.76746      3752.69146        41.125    24073540.64842
  98577141.39942      2924.17642        33.577  
  24608879.78343 129320533.04643      2569.44143        35.507    24608877.68241
 100769253.33441      2002.15641        25.490  
  22669854.33946 119130889.65946      -637.99246        42.047    22669854.27841
  92829258.32041      -497.14541        31.875  
  23175187.59747 121786426.94047     -2364.87547        44.924    23175185.60943
  94898522.46443     -1842.76243        34.901  
  20267368.56349 116436196.79949       624.36349        48.800    20267366.37647
  90727774.37847       486.51247        43.428  
  23848513.63445 125324769.87045     -2176.48045        40.592    23848514.09743
  97655644.42243     -1695.96143        35.573  
  23069482.51245 121230944.42845     -2832.08645        40.574    23069481.62841
  94465660.94141     -2206.82441        29.876  
  20038361.82049 115232760.92949     -1141.45349        49.875    20038359.41746
  89790042.11746      -889.44546        42.988  
  21747512.65448 114283956.25048      2743.22348        47.050    21747512.82944
  89052432.78444      2137.57444        38.814  
  22039915.16648 115820534.33748      2521.04748        47.143    22039911.47444
  90249741.89044      1964.44944        37.742  
 04 07 03 06 19 39.0000000  0 10G30G14G15G26G18G29G21G 9G 5G22                  
  24072823.62245 126503555.67745      3753.27345        41.055    24072826.47542
  98574216.90742      2924.62542        33.570  
  24608390.93143 129317963.52243      2569.48843        35.346    24608388.28841
 100767251.10541      2002.19141        27.970  
  22669975.83546 119131527.99646      -638.73046        42.025    22669975.73342
  92829755.71442      -497.71942        33.025  
  23175637.60847 121788791.65347     -2364.95747        44.731    23175635.58742
  94900365.09242     -1842.82842        34.422  
  20267249.76349 116435572.51549       623.86749        48.771    20267247.57146
  90727287.92346       486.12946        43.288  
  23848927.82645 125326946.36045     -2176.68445        40.714    23848928.27643
  97657340.39443     -1696.12143        35.109  
  23070021.41045 121233776.43845     -2832.08645        40.357    23070020.57941
  94467867.69841     -2206.82441        30.049  
  20038579.02749 115233902.42449     -1141.88749        49.896    20038576.63646
  89790931.59246      -889.78546        42.078  
  21746990.67648 114281213.16948      2742.72748        47.303    21746990.81744
  89050295.31644      2137.18844        37.785  
  22039435.42148 115818013.17048      2520.89548        47.118    22039431.70444
  90247777.34744      1964.33244        37.287  
 04 07 03 06 19 40.0000000  0 10G30G14G15G26G18G29G21G 9G 5G22                  
  24072109.44646 126499802.50546      3753.32846        41.291    24072112.26141
  98571292.35541      2924.66841        30.607  
  24607901.93443 129315393.95443      2569.73443        35.259    24607900.59442
 100765248.88242      2002.39142        34.413  
  22670097.42046 119132166.87646      -639.03946        42.057    22670097.33541
  92830253.55041      -497.95741        29.288  
  23176087.63547 121791156.40047     -2364.64847        44.640    23176085.57643
  94902207.74443     -1842.58643        34.612  
  20267131.06249 116434948.76049       623.30149        48.895    20267128.86846
  90726801.87946       485.68846        43.180  
  23849342.00645 125329122.84245     -2176.57445        40.532    23849342.44642
  97659036.35242     -1696.03542        33.080  
  23070560.33845 121236608.60145     -2832.50445        40.304    23070559.60241
  94470074.57141     -2207.14841        25.357  
  20038796.32049 115235044.32249     -1142.19149        49.923    20038793.94246
  89791821.38246      -890.02346        42.959  
  21746468.74348 114278470.39648      2742.57848        47.163    21746468.88643
  89048158.09443      2137.07043        36.304  
  22038955.72448 115815492.24348      2520.87948        47.118    22038951.98144
  90245812.99144      1964.35244        37.783  
 04 07 03 06 19 41.0000000  0 10G30G14G15G26G18G29G21G 9G 5G22                  
  24071395.23346 126496049.29146      3752.73046        41.229    24071398.07741
  98568367.78541      2924.20741        29.113  
  24607413.11443 129312824.33443      2569.41043        35.210    24607411.30841
 100763246.59241      2002.13741        28.709  
  22670219.12346 119132806.37246      -639.93846        42.406    22670219.04742
  92830751.86242      -498.65642        32.663  
  23176537.68847 121793521.26147     -2365.11747        44.770    23176535.59142
  94904050.50442     -1842.95342        33.675  
  20267012.46649 116434325.57849       622.62149        48.855    20267010.27846
  90726316.28046       485.15646        43.303  
  23849756.23645 125331299.44945     -2176.81645        40.692    23849756.65543
  97660732.41143     -1696.22343        35.540  
  23071099.29745 121239440.95745     -2832.43845        39.975    23071098.66941
  94472281.60841     -2207.09841        29.273  
  20039013.70649 115236186.71349     -1142.82849        49.787    20039011.33446
  89792711.55846      -890.52046        42.733  
  21745946.88848 114275728.02848      2742.11748        47.262    21745947.01244
  89046021.18344      2136.71144        37.911  
  22038476.08248 115812971.66948      2520.14148        47.286    22038472.33143
  90243848.90843      1963.74243        36.453  
 04 07 03 06 19 42.0000000  0 10G30G14G15G26G18G29G21G 9G 5G22                  
  24070681.04846 126492296.17246      3752.96946        41.643    24070683.91942
  98565443.28342      2924.39142        33.601  
  24606924.08943 129310254.78443      2569.34843        35.541    24606922.32142
 100761244.35142      2002.09042        33.958  
  22670340.97946 119133446.57546      -640.72746        42.361    22670340.87543
  92831250.72343      -499.27043        35.972  
  23176987.76347 121795886.29947     -2365.47747        44.676    23176985.64042
  94905893.38642     -1843.23042        32.325  
  20266894.01649 116433703.10149       622.01249        48.881    20266891.81447
  90725831.23147       484.68047        43.371  
  23850170.47545 125333476.26545     -2177.09445        40.840    23850170.90243
  97662428.62243     -1696.44143        34.712  
  23071638.34345 121242273.65545     -2833.05145        40.644    23071637.68041
  94474488.89441     -2207.57841        29.817  
  20039231.19449 115237329.67049     -1143.43449        49.757    20039228.83346
  89793602.17546      -890.99246        43.113  
  21745425.13548 114272986.13748      2741.56648        47.153    21745425.23944
  89043884.64444      2136.28144        38.234  
  22037996.51948 115810451.49948      2519.84048        47.217    22037992.75444
  90241885.14644      1963.53144        36.850  
 04 07 03 06 19 43.0000000  0 10G30G14G15G26G18G29G21G 9G 5G22                  
  24069966.88046 126488543.12846      3753.04346        41.744    24069969.70341
  98562518.81641      2924.44541        31.560  
  24606435.02743 129307685.24743      2569.20743        36.181    24606433.71142
 100759242.13742      2001.98442        32.981  
  22670462.94146 119134087.45946      -641.24246        42.439    22670462.85642
  92831750.09742      -499.67642        33.439  
  23177437.87247 121798251.50147     -2365.39547        44.533    23177435.72343
  94907736.39143     -1843.16843        34.797  
  20266775.68149 116433081.28449       621.52349        48.901    20266773.49446
  90725346.69846       484.30146        43.302  
  23850584.75045 125335653.24945     -2176.83645        40.976    23850585.15042
  97664124.97342     -1696.23842        34.047  
  23072177.40045 121245106.63045     -2832.97745        40.332    23072176.78341
  94476696.41041     -2207.51641        29.657  
  20039448.78949 115238473.18649     -1143.82449        49.752    20039446.45046
  89794493.22946      -891.29346        42.907  
  21744903.46848 114270244.72248      2741.00448        47.295    21744903.58044
  89041748.47444      2135.84444        38.146  
  22037517.04448 115807931.73548      2519.57448        47.303    22037513.24044
  90239921.69644      1963.30144        37.421  
 04 07 03 06 19 44.0000000  0 10G30G14G15G26G18G29G21G 9G 5G22                  
  24069252.71046 126484790.15046      3752.94946        41.723    24069255.56542
  98559594.40842      2924.37142        33.407  
  24605946.10043 129305115.76743      2569.19543        34.971    24605944.89543
 100757239.92143      2001.96943        36.192  
  22670585.03546 119134729.03546      -641.87146        42.645    22670584.95942
  92832250.01742      -500.16842        33.773  
  23177888.01447 121800616.85547     -2365.46547        44.716    23177885.84743
  94909579.52143     -1843.22343        35.748  
  20266657.47849 116432460.13649       620.68849        48.859    20266655.28946
  90724862.68646       483.64846        43.199  
  23850999.05845 125337830.38545     -2177.54345        40.722    23850999.35042
  97665821.43642     -1696.78942        32.842  
  23072716.57645 121247939.90245     -2833.51645        40.711    23072715.97241
  94478904.12341     -2207.94541        30.568  
  20039666.48349 115239617.24549     -1144.44549        49.707    20039664.15646
  89795384.70446      -891.77746        42.921  
  21744381.88148 114267503.75748      2740.68048        47.384    21744381.97644
  89039612.65444      2135.59044        38.509  
  22037037.64248 115805412.37548      2519.16848        47.403    22037033.82744
  90237958.55744      1962.98444        37.685  
 04 07 03 06 19 45.0000000  0  9G30G15G26G18G29G21G 9G 5G22                     
  24068538.54746 126481037.19746      3753.07846        41.767    24068541.36241
  98556670.02541      2924.47341        30.321  
  22670707.27846 119135371.30546      -642.62546        42.434    22670707.19942
  92832750.48842      -500.75042        33.640  
  23178338.18647 121802982.40247     -2365.77047        44.793    23178336.00842
  94911422.80342     -1843.46142        32.297  
  20266539.41449 116431839.65849       620.05149        48.767    20266537.20747
  90724379.19747       483.15247        43.458  
  23851413.41645 125340007.72545     -2177.82045        40.941    23851413.67143
  97667518.07243     -1697.00843        34.720  
  23073255.77845 121250773.46845     -2833.89545        40.742    23073255.19441
  94481112.09741     -2208.23841        31.982  
  20039884.28549 115240761.87749     -1145.00049        49.653    20039881.97446
  89796276.62646      -892.21146        42.612  
  21743860.38648 114264763.26148      2740.25848        47.291    21743860.48444
  89037477.19744      2135.26244        38.706  
  22036558.31948 115802893.42248      2518.77048        47.285    22036554.49143
  90235995.73643      1962.67643        36.626  
 04 07 03 06 19 46.0000000  0  9G30G15G26G18G29G21G 9G 5G22                     
  24067824.34846 126477283.90846      3753.78546        41.719    24067827.17042
  98553745.40942      2925.02342        33.610  
  22670829.57146 119136013.85956      -642.77046        42.849    22670829.44642
  92833251.18842      -500.86342        34.427  
  23178788.31247 121805347.65247     -2364.93847        44.609    23178786.10742
  94913265.86442     -1842.81242        33.574  
  20266421.38349 116431219.42549       620.12149        48.762    20266419.16746
  90723895.89646       483.20746        43.016  
  23851827.68645 125342184.79445     -2176.83645        40.750    23851827.95344
  97669214.48244     -1696.23844        36.784  
  23073794.96045 121253606.89945     -2833.50045        40.402    23073794.34942
  94483319.96642     -2207.93042        34.095  
  20040102.11549 115241906.62849     -1144.87149        49.663    20040099.81746
  89797168.64346      -892.10946        42.842  
  21743338.89448 114262022.81848      2740.39848        47.432    21743338.99244
  89035341.78244      2135.37144        38.565  
  22036078.99248 115800374.46248      2518.94148        47.348    22036075.14644
  90234032.90544      1962.81644        36.797  
 04 07 03 06 19 47.0000000  0  9G30G15G26G18G29G21G 9G 5G22                     
  24067110.08346 126473530.35246      3753.47346        41.374    24067112.88341
  98550820.56641      2924.78141        28.626  
  22670951.91746 119136656.75756      -643.41846        42.748    22670951.71341
  92833752.14241      -501.36741        30.763  
  23179238.40447 121807712.76947     -2365.09047        44.519    23179236.19143
  94915108.80543     -1842.93043        35.560  
  20266303.42049 116430599.52249       619.41049        48.817    20266301.19446
  90723412.85646       482.65246        43.235  
  23852241.95645 125344361.75745     -2177.32445        40.872    23852242.21544
  97670910.80644     -1696.62544        37.405  
  23074334.11945 121256440.27945     -2833.77345        40.747    23074333.46842
  94485527.78942     -2208.14142        33.677  
  20040319.99049 115243051.60449     -1145.43049        49.785    20040317.69746
  89798060.83246      -892.54746        43.050  
  21742817.43248 114259282.51548      2739.94148        47.320    21742817.52644
  89033206.48644      2135.01644        37.631  
  22035599.67748 115797855.56448      2518.60948        47.391    22035595.80144
  90232070.12844      1962.55144        38.294  
 04 07 03 06 19 48.0000000  0  9G30G15G26G18G29G21G 9G 5G22                     
  24066395.93346 126469777.41346      3752.20346        41.982    24066398.72641
  98547896.20341      2923.79741        28.638  
  22671074.49946 119137300.90256      -645.23046        42.425    22671074.25942
  92834254.07742      -502.78142        34.131  
  23179688.63047 121810078.60647     -2366.67247        44.427    23179686.38342
  94916952.30242     -1844.16842        32.227  
  20266185.68749 116429980.86249       617.62149        48.813    20266183.45846
  90722930.78446       481.26246        43.270  
  23852656.34045 125346539.41345     -2178.18845        40.382    23852656.58043
  97672607.66943     -1697.29743        35.851  
  23074873.47645 121259274.54945     -2835.32445        40.871    23074872.70941
  94487736.29441     -2209.35541        30.972  
  20040538.06749 115244197.69849     -1147.11349        49.739    20040535.79146
  89798953.89346      -893.85946        42.729  
  21742296.17548 114256543.23948      2738.38748        47.157    21742296.26044
  89031071.98944      2133.80544        37.326  
  22035120.54948 115795337.63348      2517.12548        47.315    22035116.64444
  90230108.10444      1961.39544        37.573  
 04 07 03 06 19 49.0000000  0 10G30G14G15G26G18G29G21G 9G 5G22                  
  24065681.88546 126466025.08846      3752.08646        41.850    24065684.72641
  98544972.29841      2923.69941        30.166  
  24603501.74342 129292277.11952      2568.47342        34.285    24603500.28241
 100747223.73651      2001.40241        26.586  
  22671197.32446 119137946.28446      -645.60546        42.137    22671197.07142
  92834756.98542      -503.07442        33.512  
  23180138.99547 121812445.15447     -2366.74647        44.570    23180136.73042
  94918796.35942     -1844.22742        33.651  
  20266068.18749 116429363.40649       617.23449        48.887    20266065.95147
  90722449.65247       480.95747        43.534  
  23853070.90945 125348717.82545     -2178.78545        40.740    23853071.06442
  97674305.13442     -1697.76242        33.647  
  23075412.97346 121262109.65046     -2835.16446        41.158    23075412.31042
  94489945.45442     -2209.22742        32.223  
  20040756.36449 115245344.89549     -1147.48449        49.806    20040754.09746
  89799847.81146      -894.14846        42.798  
  21741775.09548 114253804.98148      2738.10948        47.299    21741775.17945
  89028938.28445      2133.59045        39.051  
  22034641.60048 115792820.67648      2516.73848        47.342    22034637.70144
  90228146.84144      1961.12544        36.883  
 04 07 03 06 19 50.0000000  0 10G30G14G15G26G18G29G21G 9G 5G22                  
  24064967.81146 126462272.49946      3752.64846        42.423    24064970.66541
  98542048.18341      2924.13341        28.271  
  24603012.79942 129289707.99542      2568.45742        33.095                  
                                                
  22671320.20646 119138592.04846      -645.87946        42.067    22671319.98643
  92835260.18053      -503.28543        34.912  
  23180589.33147 121814811.54247     -2366.42647        44.521    23180587.04042
  94920640.29342     -1843.97742        34.091  
  20265950.75649 116428746.31649       616.74249        48.865    20265948.51446
  90721968.80146       480.57446        42.967  
  23853485.43245 125350896.09345     -2178.41045        40.377    23853485.58742
  97676002.49042     -1697.46542        33.629  
  23075952.46746 121264944.71146     -2835.18846        41.260    23075951.81843
  94492154.59843     -2209.24243        35.806  
  20040974.69949 115246492.32949     -1147.70349        49.804    20040972.45046
  89800741.91546      -894.31646        42.695  
  21741254.05948 114251066.87948      2737.75848        47.332    21741254.12645
  89026804.70145      2133.31645        38.909  
  22034162.66648 115790303.78248      2516.59848        47.320    22034158.74044
  90226185.62944      1960.98044        37.289  
 04 07 03 06 19 51.0000000  0  9G30G15G26G18G29G21G 9G 5G22                     
  24064253.69246 126458519.74146      3752.80146        41.640    24064256.44941
  98539123.99241      2924.26241        25.305  
  22671443.19246 119139238.29346      -646.69946        41.886    22671442.98342
  92835763.73142      -503.92642        34.413  
  23181039.65447 121817177.88347     -2366.62947        44.288    23181037.32642
  94922484.19342     -1844.12942        33.379  
  20265833.41149 116428129.65149       616.19549        48.907    20265831.16246
  90721488.28146       480.14846        43.033  
  23853899.94545 125353074.27445     -2178.35545        40.749    23853900.03043
  97677699.77143     -1697.42243        34.768  
  23076491.98346 121267779.83146     -2835.16446        41.727    23076491.20441
  94494363.77341     -2209.22741        31.739  
  20041193.10249 115247640.07949     -1148.10949        49.908    20041190.85846
  89801636.26746      -894.63346        43.279  
  21740733.05848 114248329.00148      2737.54348        47.396    21740733.11744
  89024671.28744      2133.14844        38.693  
  22033683.75948 115787787.06448      2516.51648        47.292    22033679.84343
  90224224.55643      1960.91843        36.209  
 04 07 03 06 19 52.0000000  0  9G30G15G26G18G29G21G 9G 5G22                     
  24063539.51246 126454766.67646      3753.14846        41.827    24063542.20041
  98536199.53441      2924.53141        28.219  
  22671566.23646 119139884.82456      -646.82846        41.801    22671566.04142
  92836267.51442      -504.02342        33.558  
  23181489.93047 121819543.97347     -2365.96147        44.497    23181487.59042
  94924327.89942     -1843.60942        34.429  
  20265716.12049 116427513.26649       616.24649        48.902    20265713.86146
  90721007.98346       480.18846        42.789  
  23854314.42545 125355252.27045     -2177.89145        40.740    23854314.47343
  97679396.91243     -1697.06243        35.854  
  23077031.49646 121270614.90046     -2835.07446        41.684    23077030.66942
  94496572.91242     -2209.15642        33.189  
  20041411.53849 115248788.01349     -1148.03149        49.918    20041409.30246
  89802530.76346      -894.57446        42.793  
  21740212.07748 114245591.22248      2737.71148        47.215    21740212.14344
  89022537.95144      2133.27744        37.991  
  22033204.86148 115785270.38448      2516.70348        47.287    22033200.92543
  90222263.50443      1961.06243        35.669  
 04 07 03 06 19 53.0000000  0  9G30G15G26G18G29G21G 9G 5G22                     
  24062825.29546 126451013.36946      3753.30146        42.272    24062827.97742
  98533274.87742      2924.65242        34.215  
  22671689.33446 119140531.72356      -647.40246        41.734    22671689.09843
  92836771.59943      -504.47343        36.175  
  23181940.18447 121821909.95347     -2366.25447        44.548    23181937.82343
  94926171.52143     -1843.83643        34.832  
  20265598.89749 116426897.25349       615.54349        48.887    20265596.63646
  90720527.97346       479.64146        43.269  
  23854728.85646 125357430.13246     -2178.12146        41.131    23854728.92842
  97681093.95142     -1697.24242        33.217  
  23077570.99346 121273449.93646     -2835.50046        41.648    23077570.12041
  94498782.01541     -2209.48841        31.933  
  20041630.02149 115249936.19549     -1148.69149        49.938    20041627.79646
  89803425.45246      -895.08646        42.849  
  21739691.13548 114242853.61848      2737.10548        47.171    21739691.19944
  89020404.75444      2132.80544        37.540  
  22032725.98648 115782753.81248      2516.07048        47.398    22032722.02944
  90220302.53544      1960.57044        37.367  
 04 07 03 06 19 54.0000000  0  9G30G15G26G18G29G21G 9G 5G22                     
  24062111.15146 126447260.49846      3752.32046        42.412    24062113.68842
  98530350.56842      2923.88742        32.308  
  22671812.65646 119141179.70756      -648.97746        41.660    22671812.41342
  92837276.52542      -505.69942        33.941  
  23182390.52947 121824276.48147     -2367.33247        44.396    23182388.19142
  94928015.57442     -1844.67642        34.052  
  20265481.86949 116426282.29049       614.04349        48.964    20265479.59646
  90720048.77746       478.47346        43.077  
  23855143.40545 125359608.55845     -2179.09445        40.881    23855143.47443
  97682791.42443     -1698.00043        35.060  
  23078110.61246 121276285.65146     -2836.35246        41.902    23078109.67841
  94500991.67241     -2210.15241        31.273  
  20041848.67949 115251085.30049     -1149.93449        49.943    20041846.46246
  89804320.86146      -896.05546        42.734  
  21739170.33848 114240116.83648      2736.00448        47.191    21739170.41145
  89018272.19745      2131.94945        38.895  
  22032247.26048 115780237.99848      2515.03948        47.447    22032243.27344
  90218342.16244      1959.76644        37.398  
 04 07 03 06 19 55.0000000  0 10G30G14G15G26G18G29G21G 9G 5G22                  
  24061397.05846 126443507.86546      3752.76646        42.409    24061399.54541
  98527426.44041      2924.23041        30.055  
  24600568.71942 129276852.28252      2569.17642        32.825    24600563.56245
 100735200.68155      2001.95345        40.542  
  22671936.13546 119141828.56746      -649.19946        41.977    22671935.95643
  92837782.13943      -505.87143        35.916  
  23182840.93947 121826643.33447     -2366.92647        44.295    23182838.66343
  94929859.87443     -1844.35943        34.566  
  20265365.00349 116425668.17749       613.82049        48.925    20265362.72946
  90719570.24446       478.29746        43.118  
  23855558.02345 125361787.33745     -2178.87545        40.909    23855558.03943
  97684489.17143     -1697.82843        36.296  
  23078650.31846 121279121.82646     -2836.13746        41.803    23078649.39541
  94503201.68741     -2209.98041        32.008  
  20042067.48049 115252235.14649     -1150.01249        49.919    20042065.26146
  89805216.84646      -896.11746        43.226  
  21738649.67848 114237380.72548      2735.89548        47.009    21738649.73844
  89016140.16444      2131.86344        38.204  
  22031768.65448 115777722.77748      2515.13348        47.513    22031764.65444
  90216382.25344      1959.84044        37.239  
 04 07 03 06 19 56.0000000  0  9G30G15G26G18G29G21G 9G 5G22                     
  24060682.90246 126439754.90246      3753.06646        42.621    24060685.32341
  98524502.05541      2924.46541        29.273  
  22672059.68246 119142477.71146      -649.36746        41.938    22672059.50343
  92838287.95643      -506.00443        36.374  
  23183291.32047 121829009.98047     -2366.77747        44.420    23183289.02342
  94931704.01642     -1844.24642        34.123  
  20265248.19349 116425054.32749       613.52749        49.036    20265245.90846
  90719091.91946       478.07046        43.091  
  23855972.60446 125363965.93246     -2178.51246        41.227    23855972.54143
  97686186.77143     -1697.54343        35.165  
  23079190.02446 121281957.90846     -2836.05146        41.738    23079189.10641
  94505411.63041     -2209.91441        31.100  
  20042286.31049 115253385.14749     -1150.17649        49.849    20042284.10146
  89806112.95246      -896.24246        42.871  
  21738129.03748 114234644.67348      2735.86748        47.018    21738129.07744
  89014008.17944      2131.84044        37.979  
  22031290.04948 115775207.56948      2514.98048        47.432    22031286.02243
  90214422.34643      1959.72343        35.804  
 04 07 03 06 19 57.0000000  0  9G30G15G26G18G29G21G 9G 5G22                     
  24059968.69146 126436001.63746      3753.14846        42.568    24059971.07341
  98521577.41741      2924.52741        27.588  
  22672183.27046 119143127.17446      -649.98446        42.242    22672183.10944
  92838794.02644      -506.48444        37.542  
  23183741.65447 121831376.41447     -2366.60947        44.419    23183739.34744
  94933547.98744     -1844.11344        37.283  
  20265131.44349 116424440.77549       612.98449        49.056    20265129.15446
  90718613.82546       477.64846        43.125  
  23856387.14446 125366144.28646     -2178.69546        41.185    23856387.02243
  97687884.18743     -1697.68843        34.949  
  23079729.72046 121284793.90546     -2836.18446        41.671    23079728.74541
  94507621.49741     -2210.01641        30.856  
  20042505.17449 115254535.33249     -1150.58649        49.808    20042502.97146
  89807009.19846      -896.56246        43.086  
  21737608.41748 114231908.72448      2735.48448        47.052    21737608.46244
  89011876.26844      2131.54344        38.369  
  22030811.44248 115772692.38548      2514.77748        47.611    22030807.37243
  90212462.46143      1959.56243        36.046  
 04 07 03 06 19 58.0000000  0  9G30G15G26G18G29G21G 9G 5G22                     
  24059254.46946 126432248.34646      3753.04346        42.722    24059256.81841
  98518652.76941      2924.44541        31.221  
  22672306.99746 119143777.21256      -650.13746        42.358    22672306.84343
  92839300.55543      -506.60243        35.392  
  23184191.99047 121833742.90747     -2366.71547        44.411    23184189.69442
  94935392.00742     -1844.19542        33.088  
  20265014.80349 116423827.80149       612.60949        49.022    20265012.49846
  90718136.18546       477.35546        43.268  
  23856801.69746 125368322.75346     -2178.47746        41.581    23856801.47043
  97689581.67843     -1697.52043        35.646  
  23080269.46546 121287630.11846     -2836.26646        41.641    23080268.43041
  94509831.53141     -2210.08241        31.395  
  20042724.12949 115255685.98049     -1150.98449        49.825    20042721.93346
  89807905.80946      -896.87546        42.864  
  21737087.86448 114229173.15948      2735.20348        47.035    21737087.90545
  89009744.66045      2131.32445        38.960  
  22030332.91048 115770177.52748      2514.52748        47.647    22030328.79143
  90210502.82643      1959.36743        36.598  
 04 07 03 06 19 59.0000000  0  9G30G15G26G18G29G21G 9G 5G22                     
  24058540.27146 126428495.17246      3752.84846        42.866    24058542.66141
  98515728.22941      2924.29341        30.011  
  22672430.84846 119144428.01746      -651.28146        42.214    22672430.73142
  92839807.67442      -507.49642        34.306  
  23184642.37147 121836109.61247     -2367.17647        44.639    23184640.08743
  94937236.19343     -1844.55543        35.009  
  20264898.29649 116423215.55249       611.59849        49.087    20264895.98646
  90717659.10746       476.56646        42.985  
  23857216.29546 125370501.43746     -2178.73046        41.551    23857216.03642
  97691279.35942     -1697.71942        33.417  
  23080809.27246 121290466.67746     -2837.06246        41.564    23080808.19142
  94512041.83242     -2210.70342        33.606  
  20042943.19349 115256837.23849     -1151.78949        49.900    20042941.00746
  89808802.89146      -897.50046        42.681  
  21736567.40548 114226438.09448      2734.53948        47.076    21736567.43245
  89007613.44245      2130.80545        38.925  
  22029854.44448 115767663.11548      2513.93848        47.516    22029850.31744
  90208543.55044      1958.91044        36.745  
 04 07 03 06 20  0.0000000  0  9G30G15G26G18G29G21G 9G 5G22                     
  24057826.10446 126424742.13146      3752.68046        42.746    24057828.50142
  98512803.79642      2924.16842        32.736  
  22672554.84946 119145079.61846      -652.09046        42.144    22672554.73542
  92840315.41242      -508.12542        33.379  
  23185092.81547 121838476.60347     -2367.14847        44.772    23185090.51043
  94939080.60543     -1844.53543        34.830  
  20264781.94049 116422604.05749       611.13349        49.069    20264779.61146
  90717182.61846       476.20346        42.920  
  23857630.95246 125372680.39146     -2179.13746        41.527    23857630.63542
  97692977.24242     -1698.03142        33.203  
  23081349.12346 121293303.61546     -2837.16046        41.682    23081348.05342
  94514252.43242     -2210.77742        34.095  
  20043162.39149 115257989.13949     -1152.33649        49.887    20043160.20046
  89809700.47946      -897.92646        43.078  
  21736047.05648 114223703.61148      2734.13748        46.865    21736047.07344
  89005482.67644      2130.49244        37.580  
  22029376.08248 115765149.21648      2513.55948        47.609    22029371.92843
  90206584.67343      1958.61343        36.345  
 04 07 03 06 20  1.0000000  0  9G30G15G26G18G29G21G 9G 5G22                     
  24057111.93246 126420989.11846      3752.89846        42.711    24057114.33741
  98509879.37841      2924.33641        29.784  
  22672678.98246 119145731.84746      -652.60246        42.420    22672678.83243
  92840823.62543      -508.52743        35.570  
  23185543.26847 121840843.70347     -2367.32447        44.720    23185540.95543
  94940925.08943     -1844.67243        35.022  
  20264665.70249 116421993.19949       610.37149        49.153    20264663.36946
  90716706.62646       475.60946        43.217  
  23858045.62946 125374859.49246     -2179.34046        41.341    23858045.31043
  97694675.23143     -1698.19543        34.662  
  23081889.03046 121296140.80946     -2837.46946        41.554    23081887.93242
  94516463.24142     -2211.02042        33.566  
  20043381.68349 115259141.54949     -1152.80149        49.919    20043379.48946
  89810598.46246      -898.28946        42.738  
  21735526.78148 114220969.55048      2733.53548        46.857    21735526.79545
  89003352.23745      2130.02345        39.093  
  22028897.79948 115762635.67948      2513.24648        47.555    22028893.61244
  90204626.07444      1958.37144        37.165  
 04 07 03 06 20  2.0000000  0  9G30G15G26G18G29G21G 9G 5G22                     
  24056397.80046 126417236.22946      3752.66046        43.005    24056400.10341
  98506955.04741      2924.14841        30.728  
  22672803.25446 119146384.84446      -653.62146        42.354    22672803.12142
  92841332.46242      -509.31642        33.937  
  23185993.77647 121843211.04847     -2367.65647        44.843    23185991.46443
  94942769.76843     -1844.93043        34.628  
  20264549.59749 116421383.06149       609.49649        49.098    20264547.25646
  90716231.19446       474.93046        43.063  
  23858460.33846 125377038.81446     -2179.64146        41.544    23858459.98042
  97696373.39142     -1698.43042        34.086  
  23082429.01546 121298978.35546     -2837.86346        41.662    23082427.91341
  94518674.31641     -2211.32441        31.599  
  20043601.09549 115260294.58549     -1153.57849        49.929    20043598.90846
  89811496.93346      -898.89546        43.272  
  21735006.60848 114218236.02348      2732.88748        46.845    21735006.61344
  89001222.21644      2129.52044        37.526  
  22028419.58448 115760122.61848      2512.55548        47.448    22028415.38244
  90202667.83644      1957.83244        36.711  
 04 07 03 06 20  3.0000000  0  9G30G15G26G18G29G21G 9G 5G22                     
  24055683.71346 126413483.58846      3752.35246        42.821    24055686.00441
  98504030.92041      2923.91041        31.958  
  22672927.68046 119147038.66746      -654.10246        42.252    22672927.56243
  92841841.93743      -509.69143        35.391  
  23186444.33247 121845578.68247     -2367.65647        44.553    23186442.06442
  94944614.68442     -1844.93042        33.769  
  20264433.65049 116420773.75749       608.89549        49.129    20264431.31246
  90715756.41446       474.46146        43.127  
  23858875.12546 125379218.47646     -2179.69146        41.912    23858874.73542
  97698071.83142     -1698.46942        33.393  
  23082969.09246 121301816.35346     -2838.12546        41.780    23082967.93042
  94520885.73442     -2211.52742        32.527  
  20043820.64549 115261448.32549     -1154.11349        49.881    20043818.46946
  89812395.95246      -899.31246        42.842  
  21734486.54948 114215503.11048      2732.64548        46.823    21734486.56344
  88999092.68344      2129.33244        37.898  
  22027941.47948 115757610.10248      2512.23048        47.633    22027937.27644
  90200710.03544      1957.57844        37.159  
 04 07 03 06 20  4.0000000  0  9G30G15G26G18G29G21G 9G 5G22                     
  24054969.59246 126409730.80846      3752.51246        42.769    24054971.90141
  98501106.66641      2924.03141        26.718  
  22673052.20546 119147693.01646      -654.66446        42.031    22673052.17743
  92842351.80743      -510.13343        35.964  
  23186894.90447 121847946.33547     -2367.68847        44.945    23186892.61442
  94946459.60842     -1844.95342        34.377  
  20264317.80149 116420164.94849       608.43049        49.104    20264315.46646
  90715282.01846       474.09846        43.167  
  23859289.88546 125381398.15946     -2179.89846        41.708    23859289.49443
  97699770.28343     -1698.62543        34.621  
  23083509.18046 121304654.47246     -2838.19146        41.997    23083508.00941
  94523097.25241     -2211.58241        30.009  
  20044040.26049 115262602.44549     -1154.47349        50.033    20044038.09446
  89813295.26746      -899.59446        42.664  
  21733966.55748 114212770.51948      2732.27048        46.906    21733966.55144
  88996963.39244      2129.03944        38.877  
  22027463.42748 115755097.84048      2511.89148        47.685    22027459.17744
  90198752.43144      1957.31244        37.337  
 04 07 03 06 20  5.0000000  0  9G30G15G26G18G29G21G 9G 5G22                     
  24054255.47246 126405977.99546      3752.89846        42.671    24054257.70541
  98498182.38641      2924.33241        16.967  
  22673176.85946 119148347.96646      -655.34846        42.139    22673176.79143
  92842862.15843      -510.66443        35.355  
  23187345.48147 121850314.06247     -2367.86747        44.947    23187343.17043
  94948304.59643     -1845.09443        34.927  
  20264202.06049 116419556.71249       607.85549        49.231    20264199.72146
  90714808.06646       473.65246        43.293  
  23859704.70446 125383577.92646     -2179.80546        41.787    23859704.29541
  97701468.80941     -1698.55141        31.820  
  23084049.31846 121307492.77146     -2838.39846        41.613    23084048.11142
  94525308.89942     -2211.74642        33.560  
  20044259.96049 115263757.01649     -1154.86349        49.966    20044257.79946
  89814194.93546      -899.89846        42.836  
  21733446.62948 114210038.26848      2732.05948        46.938    21733446.62244
  88994834.36744      2128.87544        38.496  
  22026985.42548 115752585.86948      2511.79748        47.559    22026981.16043
  90196795.05143      1957.24243        36.541  
 04 07 03 06 20  6.0000000  0  9G30G15G26G18G29G21G 9G 5G22                     
  24053541.33046 126402225.09046      3753.00046        42.639    24053543.40941
  98495258.05041      2924.41441        29.108  
  22673301.59846 119149003.44056      -656.03546        41.959    22673301.53242
  92843372.90842      -511.20342        34.407  
  23187796.06647 121852681.78447     -2367.65647        45.073    23187793.75443
  94950149.56943     -1844.93043        34.909  
  20264086.41849 116418948.99049       607.18449        49.220    20264084.07846
  90714334.51846       473.12546        42.648  
  23860119.50446 125385757.69446     -2180.26646        41.535    23860119.10343
  97703167.32643     -1698.91043        34.947  
  23084589.48246 121310331.22446     -2838.63346        42.240    23084588.16442
  94527520.67042     -2211.93042        33.822  
  20044479.73349 115264911.99449     -1155.36349        49.949    20044477.57946
  89815094.91646      -900.28546        42.915  
  21732926.77048 114207306.34948      2731.48448        46.998    21732926.76644
  88992705.60344      2128.42644        38.655  
  22026507.48048 115750074.17048      2511.23448        47.411    22026503.17543
  90194837.88443      1956.84843        36.617  
 04 07 03 06 20  7.0000000  0 10G30G14G15G26G18G29G21G 9G 5G22                  
  24052827.32846 126398472.88046      3751.39146        42.456    24052829.45341
  98492334.26141      2923.16041        30.399  
  24594700.86042 129246006.39252      2568.44942        32.559    24594700.08144
 100711172.67554      2001.38744        37.010  
  22673426.58346 119149660.22046      -657.96546        42.196    22673426.53643
  92843884.69743      -512.70343        35.752  
  23188246.80247 121855050.30747     -2369.30947        44.973    23188244.47443
  94951995.16243     -1846.21943        35.304  
  20263971.01249 116418342.55149       605.27049        49.152    20263968.67446
  90713861.96746       471.63746        43.257  
  23860534.45746 125387938.28246     -2181.49646        41.618    23860534.01142
  97704866.47342     -1699.87542        32.673  
  23085129.83546 121313170.57546     -2840.23846        42.061    23085128.50741
  94529733.16241     -2213.17641        29.687  
  20044699.73549 115266068.14849     -1157.22749        49.925    20044697.58446
  89815995.81646      -901.73846        42.351  
  21732407.11248 114204575.51348      2729.73848        46.964    21732407.09444
  88990577.68144      2127.06644        38.872  
  22026029.72648 115747563.47248      2509.76648        47.291    22026025.40244
  90192881.50544      1955.60244        36.695  
 04 07 03 06 20  8.0000000  0 10G30G14G15G26G18G29G21G 9G 5G22                  
  24052113.39246 126394721.04946      3752.12946        42.439    24052115.50241
  98489410.75841      2923.73441        29.689  
  24594211.26742 129243437.70542      2569.31642        32.805    24594215.27542
 100709171.09542      2002.06242        34.048  
  22673551.76846 119150318.01146      -657.54346        42.704    22673551.71742
  92844397.26942      -512.37542        34.276  
  23188697.63247 121857419.31547     -2368.50847        44.851    23188695.27043
  94953841.14243     -1845.59443        35.185  
  20263855.80749 116417737.11249       605.44949        49.167    20263853.46146
  90713390.19546       471.77746        42.679  
  23860949.50146 125390119.35346     -2180.67646        41.862    23860949.08242
  97706565.98342     -1699.23842        33.070  
  23085670.28546 121316010.54746     -2839.74646        42.372    23085668.86343
  94531946.13443     -2212.79343        34.600  
  20044919.90649 115267225.17349     -1156.93049        49.923    20044917.75846
  89816897.39246      -901.50846        42.897  
  21731887.60248 114201845.47048      2730.21548        46.881    21731887.57544
  88988450.37544      2127.43844        37.796  
  22025552.11048 115745053.52648      2510.02348        47.373    22025547.78843
  90190925.70543      1955.85943        36.388  
 04 07 03 06 20  9.0000000  0 10G30G14G15G26G18G29G21G 9G 5G22                  
  24051399.36046 126390968.69946      3752.53546        42.608    24051401.47641
  98486486.84841      2924.05141        31.774  
  24593720.42542 129240868.56042      2568.88342        32.630    24593728.31544
 100707169.30044      2001.72344        36.900  
  22673676.96146 119150975.91146      -658.10546        42.205    22673676.91343
  92844909.91543      -512.81243        34.695  
  23189148.38247 121859787.91547     -2368.56647        44.922    23189146.06343
  94955686.80743     -1845.64143        35.720  
  20263740.61649 116417131.75949       605.00849        49.190    20263738.26146
  90712918.48946       471.43046        42.916  
  23861364.48046 125392300.03646     -2180.84046        42.028    23861364.12142
  97708265.22342     -1699.36342        34.168  
  23086210.67246 121318850.24346     -2839.96146        42.248    23086209.21542
  94534158.88542     -2212.96142        33.869  
  20045140.07549 115268382.18649     -1157.32449        49.957    20045137.93246
  89817798.96246      -901.81246        42.865  
  21731368.08148 114199115.33448      2729.86748        47.038    21731368.04044
  88986323.00044      2127.16844        38.711  
  22025074.46948 115742543.41448      2509.76248        47.621    22025070.13344
  90188969.77244      1955.68844        37.386  
 04 07 03 06 20 10.0000000  0 10G30G14G15G26G18G29G21G 9G 5G22                  
  24050685.41246 126387216.77146      3751.34046        42.368    24050687.45441
  98483563.24641      2923.11341        30.033  
  24593231.51542 129238299.75342      2567.36742        32.342    24593239.57343
 100705167.57643      2000.53543        36.607  
  22673802.35846 119151634.83146      -659.42246        42.675    22673802.28242
  92845423.35542      -513.84042        33.101  
  23189599.21047 121862156.98747     -2369.72347        45.235    23189596.90942
  94957532.83642     -1846.53942        34.168  
  20263625.61849 116416527.40449       603.47749        49.126    20263623.25447
  90712447.56247       470.23847        43.665  
  23861779.54046 125394481.20946     -2181.95746        42.008    23861779.18042
  97709964.84242     -1700.23042        34.012  
  23086751.18246 121321690.55246     -2841.06646        42.349    23086749.68441
  94536372.11241     -2213.82041        25.919  
  20045360.40649 115269540.06349     -1158.59449        49.960    20045358.26746
  89818701.20446      -902.80546        42.466  
  21730848.70848 114196385.97048      2728.64848        47.012    21730848.68444
  88984196.22144      2126.21544        38.703  
  22024596.95748 115740034.00948      2508.72348        47.506    22024592.60743
  90187014.39243      1954.84443        35.676  
 04 07 03 06 20 11.0000000  0 10G30G14G15G26G18G29G21G 9G 5G22                  
  24049971.56946 126383465.37346      3751.02346        42.321    24049973.59742
  98480640.07642      2922.87142        32.864  
  24592743.23442 129235731.44042      2567.84842        33.406    24592750.19141
 100703166.25241      2000.90241        23.773  
  22673927.98146 119152294.94146      -660.56246        42.664    22673927.89541
  92845937.72941      -514.72741        30.730  
  23190050.17747 121864526.74547     -2369.79347        44.817    23190047.85443
  94959379.40143     -1846.59443        35.772  
  20263510.83849 116415924.22249       602.71949        49.107    20263508.46946
  90711977.54946       469.64846        43.021  
  23862194.74246 125396663.07046     -2182.11746        41.927    23862194.41543
  97711664.99443     -1700.35543        34.677  
  23087291.83646 121324531.63446     -2841.32846        42.831    23087290.36643
  94538585.95443     -2214.02343        35.228  
  20045580.94149 115270699.00849     -1159.39849        50.026    20045578.80046
  89819604.27646      -903.43046        42.974  
  21730329.52048 114193657.59748      2727.89848        46.830    21730329.48944
  88982070.21944      2125.63344        38.506  
  22024119.62748 115737525.52948      2508.19548        47.623    22024115.24743
  90185059.73043      1954.42643        36.206  
 04 07 03 06 20 12.0000000  0 10G30G14G15G26G18G29G21G 9G 5G22                  
  24049257.67046 126379713.75446      3751.66046        42.476    24049259.59241
  98477716.74341      2923.36741        13.745  
  24592254.97242 129233162.95242      2568.41842        33.101    24592263.80144
 100701164.80744      2001.34844        37.114  
  22674053.69446 119152955.48546      -661.00846        42.873    22674053.66041
  92846452.44241      -515.07441        29.554  
  23190501.12447 121866896.39147     -2369.50047        45.032    23190498.79841
  94961225.88141     -1846.36741        32.143  
  20263396.13649 116415321.43349       602.45349        49.105    20263393.75446
  90711507.83746       469.44146        43.051  
  23862609.90946 125398844.82546     -2181.60246        42.042    23862609.62443
  97713365.05543     -1699.95743        35.401  
  23087832.51246 121327372.74846     -2841.18046        42.766    23087831.02242
  94540799.80542     -2213.91042        32.764  
  20045801.52749 115271858.22949     -1159.46949        49.983    20045799.39646
  89820507.56646      -903.48446        43.212  
  21729810.36548 114190929.41048      2728.05148        46.830    21729810.31644
  88979944.36344      2125.75044        38.316  
  22023642.31948 115735017.18048      2508.19148        47.383    22023637.89543
  90183105.16643      1954.43443        36.178  
 04 07 03 06 20 13.0000000  0  9G30G15G26G18G29G21G 9G 5G22                     
  24048543.71446 126375961.75446      3752.01246        42.253    24048545.64741
  98474793.11841      2923.64141        28.252  
  22674179.42746 119153616.24746      -661.00046        42.727    22674179.43342
  92846967.31842      -515.06642        33.811  
  23190952.01047 121869265.75347     -2369.29747        44.877    23190949.73742
  94963072.13642     -1846.20742        33.386  
  20263281.47149 116414718.83349       602.52349        49.081    20263279.07646
  90711038.27946       469.49646        43.305  
  23863025.03746 125401026.31946     -2181.59446        42.238    23863024.78441
  97715064.90241     -1699.95341        32.139  
  23088373.15546 121330213.70646     -2840.95746        43.071    23088371.62242
  94543013.52742     -2213.73442        34.071  
  20046022.14049 115273017.54649     -1159.53149        49.973    20046020.01246
  89821410.93046      -903.53546        42.709  
  21729291.21648 114188201.23748      2728.10548        47.090    21729291.15944
  88977818.51644      2125.79344        38.835  
  22023164.99348 115732508.79048      2508.37548        47.320    22023160.56443
  90181150.57843      1954.57443        36.069  
 04 07 03 06 20 14.0000000  0 10G30G14G15G26G18G29G21G 9G 5G22                  
  24047829.57946 126372208.83946      3753.87546        42.819    24047831.46941
  98471868.77041      2925.09441        31.993  
  24591278.16042 129228041.19252      2570.48042        33.688    24591285.12241
 100697188.60251      2002.96941        29.470  
  22674305.11446 119154276.71646      -660.27346        42.741    22674305.16043
  92847481.96543      -514.50443        35.208  
  23191402.73847 121871634.28247     -2367.67647        44.874    23191400.47042
  94964917.73042     -1844.94542        32.845  
  20263166.74749 116414115.92649       603.39549        49.051    20263164.34147
  90710568.48647       470.17647        43.706  
  23863440.00746 125403206.95046     -2180.02346        42.673    23863439.69743
  97716764.08543     -1698.72743        34.939  
  23088913.66046 121333053.95446     -2839.62146        43.304    23088912.13042
  94545226.70642     -2212.69542        33.308  
  20046242.65649 115274176.41649     -1158.30549        49.971    20046240.53546
  89822313.94446      -902.57846        42.837  
  21728771.96648 114185472.53348      2729.34448        47.176    21728771.89344
  88975692.25044      2126.75844        38.513  
  22022687.56248 115729999.80348      2509.46548        47.427    22022683.12243
  90179195.52443      1955.42643        36.186  
 04 07 03 06 20 15.0000000  0 10G30G14G15G26G18G29G21G 9G 5G22                  
  24047115.33146 126368455.34446      3752.97346        42.623    24047117.16341
  98468943.96441      2924.39141        31.672  
  24590787.88743 129225470.72943      2569.97343        34.481                  
                                                
  22674430.79946 119154937.19346      -661.39146        42.673    22674430.81841
  92847996.62051      -515.37141        31.328  
  23191853.36647 121874002.31347     -2368.54747        45.057    23191851.11342
  94966762.94342     -1845.62542        33.407  
  20263052.02349 116413513.02749       602.16049        49.072    20263049.60146
  90710098.69946       469.21146        42.684  
  23863854.89746 125405387.16046     -2180.78146        42.668    23863854.52342
  97718462.95542     -1699.31242        32.660  
  23089454.10046 121335893.83946     -2840.41446        43.166    23089452.57842
  94547439.60242     -2213.31242        32.762  
  20046463.15649 115275335.18649     -1159.38349        49.958    20046461.03846
  89823216.88246      -903.41846        42.261  
  21728252.68948 114182743.66148      2728.27748        47.199    21728252.60045
  88973565.86345      2125.92645        39.110  
  22022210.08848 115727490.57048      2508.64148        47.583    22022205.62743
  90177240.28443      1954.78143        36.093  
 04 07 03 06 20 16.0000000  0 10G30G14G15G26G18G29G21G 9G 5G22                  
  24046401.20346 126364702.47846      3752.51246        42.545    24046402.99241
  98466019.65841      2924.03141        29.926  
  24590299.97143 129222900.85243      2569.86743        34.552                  
                                                
  22674556.73746 119155598.96746      -662.53546        42.741    22674556.73841
  92848512.27951      -516.26641        31.989  
  23192304.13747 121876371.11347     -2369.53547        45.003    23192301.89542
  94968608.76842     -1846.39542        32.583  
  20262937.54649 116412911.40749       600.79349        48.977    20262935.10746
  90709629.90546       468.14846        43.196  
  23864269.92346 125407568.10846     -2181.19946        42.577    23864269.59642
  97720162.41442     -1699.64142        33.922  
  23089994.70446 121338734.60846     -2841.25046        43.126    23089993.17541
  94549653.17741     -2213.96941        30.736  
  20046683.88549 115276495.11449     -1160.69549        50.010    20046681.76446
  89824120.72546      -904.44146        42.586  
  21727733.60748 114180015.86148      2727.11348        47.117    21727733.52544
  88971440.30644      2125.02044        38.164  
  22021732.80148 115724982.34648      2507.50048        47.405    22021728.31943
  90175285.81943      1953.89543        36.021  
 04 07 03 06 20 17.0000000  0  9G30G15G26G18G29G21G 9G 5G22                     
  24045687.13146 126360949.90046      3752.59846        42.618    24045688.89042
  98463095.57842      2924.09842        32.352  
  22674682.85246 119156261.62046      -662.85946        42.686    22674682.84142
  92849028.62242      -516.52042        33.571  
  23192754.98147 121878740.25547     -2369.03547        45.080    23192752.72443
  94970454.85043     -1846.00443        34.829  
  20262823.22849 116412310.63849       600.47749        49.038    20262820.78646
  90709161.77446       467.90246        43.097  
  23864685.02246 125409749.46346     -2181.01246        42.616    23864684.71242
  97721862.17242     -1699.49242        32.759  
  23090535.39946 121341575.87546     -2841.11746        42.894    23090533.83442
  94551867.13942     -2213.86342        33.872  
  20046904.74749 115277655.78649     -1160.86749        50.060    20046902.64146
  89825025.14446      -904.57446        43.221  
  21727214.65148 114177288.72848      2726.96548        47.255    21727214.56544
  88969315.26944      2124.90644        38.684  
  22021255.63448 115722474.71548      2507.46148        47.622    22021251.13343
  90173331.81843      1953.86343        36.327  
 04 07 03 06 20 18.0000000  0  9G30G15G26G18G29G21G 9G 5G22                     
  24044972.93246 126357196.66846      3753.46546        42.653    24044974.74141
  98460170.99441      2924.77741        30.633  
  22674808.96646 119156924.28146      -662.64146        42.410    22674808.95042
  92849544.98242      -516.34842        32.795  
  23193205.73247 121881108.89847     -2368.20747        45.274    23193203.45442
  94972300.53842     -1845.35942        33.271  
  20262708.91649 116411709.85549       600.78149        49.092    20262706.45947
  90708693.63047       468.13747        43.521  
  23865100.02546 125411930.28646     -2180.69946        42.632    23865099.70641
  97723561.50241     -1699.25041        30.388  
  23091076.02646 121344416.73546     -2840.41046        42.835    23091074.42342
  94554080.79842     -2213.31242        32.944  
  20047125.57549 115278816.30349     -1160.24649        50.126    20047123.47846
  89825929.44146      -904.09046        43.292  
  21726695.64948 114174561.35848      2727.60948        47.179    21726695.54744
  88967190.04844      2125.40644        38.290  
  22020778.40448 115719966.80148      2508.24248        47.393    22020773.86743
  90171377.59443      1954.47343        35.699  
 04 07 03 06 20 19.0000000  0 10G30G14G15G26G18G29G21G 9G 5G22                  
  24044258.60446 126353442.77246      3753.82446        42.727    24044260.34741
  98457245.88741      2925.05941        29.212  
  24588828.77443 129215174.19653      2570.49243        35.134    24588831.15341
 100687163.82351      2002.97741        28.809  
  22674935.05346 119157586.88146      -663.01246        42.418    22674935.10742
  92850061.29942      -516.63742        34.203  
  23193656.37347 121883476.96847     -2368.04347        45.067    23193654.14043
  94974145.78843     -1845.23043        36.294  
  20262594.58549 116411108.99449       600.57849        49.133    20262592.12746
  90708225.42546       467.98046        43.090  
  23865514.93946 125414110.54946     -2180.43046        42.577    23865514.60042
  97725260.40542     -1699.03942        34.165  
  23091616.54646 121347257.15546     -2840.61746        42.814    23091614.98842
  94556294.12442     -2213.47342        33.319  
  20047346.38249 115279976.66249     -1160.59449        50.129    20047344.28146
  89826833.61646      -904.36346        42.638  
  21726176.60748 114171833.74448      2727.34448        47.155    21726176.48745
  88965064.63345      2125.19945        39.462  
  22020301.11748 115717458.56748      2508.02748        47.305    22020296.55843
  90169423.11843      1954.30543        35.788  
 04 07 03 06 20 20.0000000  0 10G30G14G15G26G18G29G21G 9G 5G22                  
  24043544.48746 126349690.00546      3751.22746        42.538    24043546.25041
  98454321.65741      2923.03541        26.666  
  24588340.77342 129212604.35842      2568.11742        33.805    24588342.13241
 100685161.35641      2001.12941        30.246  
  22675061.47646 119158251.22046      -666.07046        42.374    22675061.57542
  92850578.97042      -519.02042        32.351  
  23194107.25247 121885846.25347     -2370.92247        45.115    23194105.03643
  94975991.98743     -1847.47743        35.407  
  20262480.58749 116410509.86249       597.40249        49.116    20262478.12147
  90707758.57047       465.50447        43.525  
  23865930.05946 125416292.03146     -2183.27046        42.904    23865929.70642
  97726960.24842     -1701.25842        33.963  
  23092157.32946 121350098.89646     -2843.29746        42.712    23092155.67941
  94558508.48541     -2215.55941        31.016  
  20047567.49149 115281138.60849     -1163.61749        50.101    20047565.39546
  89827739.02946      -906.71946        43.042  
  21725657.85248 114169107.63148      2724.43448        47.253    21725657.72345
  88962940.39345      2122.93445        39.050  
  22019824.10648 115714951.78748      2505.21548        47.279    22019819.50344
  90167469.78344      1952.11344        37.408  
 04 07 03 06 20 21.0000000  0  9G30G15G26G18G29G21G 9G 5G22                     
  24042830.64346 126345938.65246      3751.20746        42.234    24042832.41141
  98451398.51841      2923.01641        30.372  
  22675188.28846 119158917.62646      -666.65646        41.881    22675188.36941
  92851098.25541      -519.47741        31.353  
  23194558.42547 121888217.07147     -2371.12147        45.044    23194556.21642
  94977839.37742     -1847.62942        33.632  
  20262366.97449 116409912.77049       596.66049        49.221    20262364.49047
  90707293.30147       464.92647        43.903  
  23866345.49346 125418475.08946     -2183.36346        42.803    23866345.14141
  97728661.32041     -1701.33241        30.961  
  23092698.41346 121352942.30046     -2843.57846        42.570    23092696.74142
  94560724.12942     -2215.77742        32.725  
  20047788.95849 115282302.47049     -1164.18449        50.135    20047786.86746
  89828645.93446      -907.16046        42.822  
  21725139.45048 114166383.36948      2724.00048        47.228    21725139.30245
  88960817.59245      2122.59445        39.964  
  22019347.43348 115712446.78748      2504.68848        47.177    22019342.83043
  90165517.83643      1951.70343        35.674  
 04 07 03 06 20 22.0000000  0  9G30G15G26G18G29G21G 9G 5G22                     
  24042116.60446 126342186.30146      3753.43046        42.264    24042118.35141
  98448474.61641      2924.75041        30.985  
  22675315.03446 119159583.65556      -665.28146        42.076    22675315.07642
  92851617.24042      -518.40242        34.362  
  23195009.41447 121890586.98547     -2368.89847        45.224    23195007.20143
  94979686.06543     -1845.89843        35.642  
  20262253.28549 116409315.28349       598.26649        49.104    20262250.79647
  90706827.72547       466.18047        43.639  
  23866760.73646 125420657.23846     -2181.14546        42.710    23866760.37642
  97730361.68942     -1699.60242        33.537  
  23093239.34846 121355784.94446     -2841.65246        42.860    23093237.67541
  94562939.17741     -2214.27741        31.619  
  20048010.34049 115283465.82849     -1162.46149        50.246    20048008.25446
  89829552.44846      -905.81646        43.033  
  21724620.92548 114163658.50848      2725.74648        47.326    21724620.76645
  88958694.32545      2123.95345        39.744  
  22018870.62548 115709941.11548      2506.61348        47.150    22018866.01044
  90163565.36744      1953.19544        36.775  
 04 07 03 06 20 23.0000000  0  9G30G15G26G18G29G21G 9G 5G22                     
  24041402.26646 126338432.35146      3754.01646        42.130    24041403.94741
  98445549.47041      2925.20741        29.633  
  22675441.58346 119160248.67756      -665.42646        41.827    22675441.61943
  92852135.43143      -518.51643        34.562  
  23195460.11247 121892955.38547     -2368.35247        45.025    23195457.91642
  94981531.56842     -1845.47342        33.746  
  20262139.40649 116408716.77949       598.37949        49.107    20262136.91547
  90706361.35747       466.26647        43.840  
  23867175.71746 125422837.86346     -2180.72746        42.809    23867175.33541
  97732060.87841     -1699.27041        32.122  
  23093780.04146 121358626.20046     -2841.38746        42.711    23093778.26743
  94565153.12943     -2214.07043        35.094  
  20048231.50249 115284628.05349     -1162.30949        50.189    20048229.42746
  89830458.07746      -905.69946        42.936  
  21724102.18048 114160932.43648      2726.04348        47.387    21724102.00144
  88956570.11444      2124.18844        38.689  
  22018393.58248 115707434.17248      2506.86348        47.432    22018388.95443
  90161611.90743      1953.39843        36.193  
 04 07 03 06 20 24.0000000  0  9G30G15G26G18G29G21G 9G 5G22                     
  24040688.06146 126334679.12946      3752.18446        41.942    24040689.69141
  98442624.89041      2923.78141        31.624  
  22675568.39446 119160915.08356      -668.22746        42.232    22675568.43442
  92852654.70142      -520.69942        33.023  
  23195910.97347 121895324.63847     -2370.56247        45.152    23195908.80943
  94983377.73443     -1847.19543        35.789  
  20262025.77649 116408119.63849       595.40649        49.090    20262023.28847
  90705896.05147       463.94947        43.516  
  23867590.87046 125425019.39246     -2183.16446        42.537    23867590.52243
  97733760.77443     -1701.17243        34.704  
  23094320.91146 121361468.41346     -2843.80146        42.435    23094319.07542
  94567367.83242     -2215.95342        33.081  
  20048452.90049 115285791.53249     -1165.17649        50.258    20048450.83546
  89831364.68646      -907.93446        42.871  
  21723583.65848 114158207.54248      2723.19148        47.538    21723583.47344
  88954446.81844      2121.96544        38.348  
  22017916.75348 115704928.33948      2504.25448        47.525    22017912.11344
  90159659.31344      1951.36344        36.979  
 04 07 03 06 20 25.0000000  0 10G30G14G15G26G18G29G21G 9G 5G22                  
  24039974.07446 126330927.04546      3752.16846        41.489    24039975.64441
  98439701.19741      2923.77041        26.213  
  24585899.16442 129199772.94852      2569.39142        33.952    24585901.46141
 100675159.55651      2002.12141        25.293  
  22675695.54146 119161583.20946      -668.00046        41.562    22675695.54441
  92853175.32341      -520.52341        32.117  
  23196362.05847 121897695.12347     -2370.32847        44.869    23196359.92044
  94985224.85744     -1847.01244        37.603  
  20261912.47849 116407524.20249       595.41449        49.115    20261909.97947
  90705432.07547       463.95747        43.385  
  23868006.24446 125427202.10946     -2182.44546        42.700    23868005.90442
  97735461.58442     -1700.61342        32.968  
  23094862.03146 121364311.97446     -2843.39146        42.015    23094860.11342
  94569583.58242     -2215.63742        32.513  
  20048674.60249 115286956.59849     -1165.16849        50.234    20048672.54146
  89832272.53146      -907.92646        42.865  
  21723065.42248 114155484.14248      2723.41448        47.550    21723065.21444
  88952324.68544      2122.13744        38.873  
  22017440.18448 115702423.95248      2504.29748        47.256    22017435.52744
  90157707.84344      1951.39844        37.245  
 04 07 03 06 20 26.0000000  0  9G30G15G26G18G29G21G 9G 5G22                     
  24039259.96245 126327174.36045      3753.00045        41.098    24039261.54041
  98436777.02541      2924.41841        29.280  
  22675822.69346 119162251.39146      -668.31246        41.717    22675822.75243
  92853695.98443      -520.76643        34.528  
  23196813.05847 121900065.11547     -2369.92647        44.785    23196810.91043
  94987071.60043     -1846.69943        34.867  
  20261799.18549 116406928.79449       595.03149        49.106    20261796.67647
  90704968.12147       463.65647        43.610  
  23868421.51946 125429384.35746     -2182.49646        42.743    23868421.12142
  97737162.03042     -1700.64842        34.177  
  23095403.07046 121367155.16846     -2843.18846        42.298    23095401.09442
  94571799.05542     -2215.47342        34.289  
  20048896.29049 115288121.57049     -1165.19949        50.280    20048894.22147
  89833180.30247      -907.94947        43.400  
  21722547.15048 114152760.57848      2723.47348        47.530    21722546.93845
  88950202.43045      2122.18445        39.191  
  22016963.58448 115699919.32148      2504.53948        47.416    22016958.91143
  90155756.18443      1951.58643        36.075  
 04 07 03 06 20 27.0000000  0  9G30G15G26G18G29G21G 9G 5G22                     
  24038545.73645 126323420.99645      3753.96545        40.773    24038547.29241
  98433852.32941      2925.16841        29.567  
  22675949.82246 119162919.49546      -668.09446        42.009    22675949.83541
  92854216.59641      -520.59841        32.136  
  23197263.94147 121902434.49647     -2369.12147        45.235    23197261.79443
  94988917.86443     -1846.07443        35.937  
  20261685.87449 116406333.28249       595.58649        49.096    20261683.36047
  90704504.08947       464.09047        43.430  
  23868836.68746 125431566.05446     -2181.29746        42.604    23868836.33042
  97738862.05142     -1699.71942        32.289  
  23095944.05546 121369997.91246     -2842.45346        42.129    23095941.99241
  94574014.17941     -2214.90641        31.232  
  20049117.93649 115289286.32449     -1164.66049        50.249    20049115.87046
  89834087.90246      -907.53146        42.974  
  21722028.82348 114150036.71548      2724.00448        47.558    21722028.58645
  88948079.94545      2122.59845        38.998  
  22016486.90248 115697414.33648      2505.15648        47.356    22016482.24844
  90153804.25144      1952.06644        37.511  
 04 07 03 06 20 28.0000000  0  9G30G15G26G18G29G21G 9G 5G22                     
  24037831.37945 126319667.13345      3753.77045        40.716    24037832.92841
  98430927.24141      2925.01241        31.526  
  22676076.99546 119163587.74556      -668.77746        42.081    22676076.96742
  92854737.30842      -521.12942        33.298  
  23197714.73847 121904803.50747     -2369.20747        45.022    23197712.62842
  94990763.83842     -1846.14142        34.126  
  20261572.58449 116405737.90749       594.93849        49.160    20261570.07246
  90704040.16246       463.58646        43.297  
  23869251.80146 125433747.35946     -2181.59046        42.301    23869251.41442
  97740561.76642     -1699.94542        32.264  
  23096484.98246 121372840.43146     -2842.77346        42.121    23096482.90841
  94576229.13441     -2215.15241        30.739  
  20049339.58849 115290451.08149     -1165.21149        50.266    20049337.52246
  89834995.50746      -907.96146        42.843  
  21721510.47948 114147312.76848      2723.63748        47.451    21721510.23045
  88945957.38945      2122.31245        38.964  
  22016010.20548 115694909.21548      2504.75048        47.538    22016005.55843
  90151852.21643      1951.75043        36.456  
 04 07 03 06 20 29.0000000  0  9G30G15G26G18G29G21G 9G 5G22                     
  24037117.06245 126315913.37545      3753.70345        40.576    24037118.57041
  98428002.22941      2924.96141        31.958  
  22676204.30746 119164256.72246      -669.52046        42.343    22676204.31542
  92855258.59442      -521.70742        33.987  
  23198165.57947 121907172.72647     -2369.41047        45.025    23198163.49843
  94992609.98343     -1846.29743        34.733  
  20261459.43349 116405143.23749       594.28549        49.113    20261456.90747
  90703576.78047       463.07447        44.038  
  23869666.94946 125435928.88746     -2181.54746        42.691    23869666.54241
  97742261.65641     -1699.91041        31.704  
  23097025.95646 121375683.25346     -2843.09846        41.935    23097023.84642
  94578444.33042     -2215.40242        33.311  
  20049561.35049 115291616.43649     -1165.84449        50.251    20049559.27246
  89835903.57546      -908.45346        43.048  
  21720992.23748 114144589.33848      2723.10548        47.554    21720991.97545
  88943835.23745      2121.89845        39.111  
  22015533.59948 115692404.53848      2504.32848        47.450    22015528.92944
  90149900.51344      1951.42244        36.697  
 04 07 03 06 20 30.0000000  0  9G30G15G26G18G29G21G 9G 5G22                     
  24036402.78345 126312159.83345      3752.94945        40.165    24036404.37042
  98425077.39042      2924.37142        33.642  
  22676331.75946 119164926.50146      -670.24246        42.092    22676331.76442
  92855780.48242      -522.27042        33.729  
  23198616.48447 121909542.24047     -2370.00847        44.885    23198614.44142
  94994456.35842     -1846.76242        34.383  
  20261346.43249 116404549.36649       593.25449        49.125    20261343.90747
  90703114.02147       462.27347        43.792  
  23870082.14346 125438110.73046     -2182.25846        42.654    23870081.77143
  97743961.79343     -1700.46543        35.965  
  23097567.03046 121378526.50846     -2843.54746        42.336    23097564.87441
  94580659.83741     -2215.75441        30.942  
  20049783.23649 115292782.46649     -1166.57849        50.264    20049781.16646
  89836812.17246      -909.02346        42.935  
  21720474.11248 114141866.51748      2722.27348        47.674    21720473.82444
  88941713.55844      2121.25044        38.510  
  22015057.08948 115689900.40348      2503.60548        47.432    22015052.42144
  90147949.23844      1950.85944        37.628  
 04 07 03 06 20 31.0000000  0 10G30G14G15G26G18G29G21G 9G 5G22                  
  24035688.52845 126308406.44345      3753.19945        40.504    24035690.09942
  98422152.70342      2924.57442        33.533  
  24582963.75142 129184345.20852      2570.83242        33.023                  
                                                
  22676459.36446 119165597.08246      -671.14846        42.082    22676459.37243
  92856303.01453      -522.97743        34.900  
  23199067.43647 121911912.01447     -2369.93847        44.901    23199065.43843
  94996302.93943     -1846.70743        34.553  
  20261233.57849 116403956.25149       592.76249        49.233    20261231.04147
  90702651.85447       461.89147        43.659  
  23870497.39946 125440292.85446     -2182.52046        42.570    23870497.06044
  97745662.13444     -1700.67244        37.034  
  23098108.16846 121381370.17146     -2843.99246        42.581    23098106.09641
  94582875.66641     -2216.10541        31.653  
  20050005.25049 115293949.14849     -1167.10249        50.245    20050003.18446
  89837721.27646      -909.43446        42.877  
  21719956.09048 114139144.25848      2721.82048        47.602    21719955.78445
  88939592.31845      2120.89545        39.623  
  22014580.67048 115687396.76948      2503.34448        47.583    22014575.99743
  90145998.35143      1950.68043        36.022  
 04 07 03 06 20 32.0000000  0  9G30G15G26G18G29G21G 9G 5G22                     
  24034974.30545 126304653.24545      3752.95345        39.883    24034975.87242
  98419228.12842      2924.37542        32.396  
  22676587.12946 119166268.49046      -671.85546        42.261    22676587.10442
  92856826.20542      -523.52742        33.574  
  23199518.44347 121914282.09947     -2370.21947        44.921    23199516.48843
  94998149.76243     -1846.92643        35.282  
  20261120.87449 116403363.95749       591.89849        49.180    20261118.33047
  90702190.33047       461.21547        43.757  
  23870912.72246 125442475.28246     -2182.85246        42.627    23870912.39741
  97747362.72541     -1700.93041        32.148  
  23098649.37546 121384214.22046     -2844.46546        42.391    23098647.29841
  94585091.82441     -2216.46941        31.490  
  20050227.39649 115295116.52349     -1167.59449        50.260    20050225.32746
  89838630.91646      -909.81646        43.184  
  21719438.19148 114136422.61348      2721.38748        47.548    21719437.85944
  88937471.55444      2120.55944        38.240  
  22014104.36248 115684893.68948      2502.77748        47.584    22014099.68944
  90144047.90144      1950.21544        36.720  
 04 07 03 06 20 33.0000000  0  9G30G15G26G18G29G21G 9G 5G22                     
  24034260.11945 126300900.13645      3752.93045        40.524    24034261.69842
  98416303.62142      2924.35942        33.240  
  22676715.04346 119166940.61746      -672.71546        42.299    22676715.08843
  92857349.94243      -524.19543        36.014  
  23199969.49947 121916652.39247     -2370.75447        45.073    23199967.58143
  94999996.75643     -1847.34443        35.929  
  20261008.30249 116402772.36649       590.93849        49.136    20261005.75946
  90701729.35246       460.46946        43.151  
  23871328.07746 125444657.91146     -2182.88746        42.992    23871327.71242
  97749063.47342     -1700.95342        32.722  
  23099190.65646 121387058.59746     -2844.85546        42.429    23099188.49742
  94587308.21742     -2216.77342        32.694  
  20050449.65349 115296284.49149     -1168.48449        50.258    20050447.58146
  89839541.01946      -910.51246        43.032  
  21718920.38548 114133701.48448      2720.52348        47.647    21718920.04945
  88935351.19845      2119.88745        39.189  
  22013628.13448 115682391.05348      2502.18048        47.421    22013623.45944
  90142097.79944      1949.74644        37.383  
 04 07 03 06 20 34.0000000  0  9G30G15G26G18G29G21G 9G 5G22                     
  24033545.96345 126297147.25745      3752.66045        40.293    24033547.52741
  98413379.29441      2924.14841        25.580  
  22676843.12046 119167613.57146      -673.35546        42.387    22676843.13143
  92857874.32043      -524.69543        34.717  
  23200420.60247 121919022.99047     -2370.87947        44.631    23200418.69643
  95001843.97443     -1847.44143        35.179  
  20260895.88849 116402181.58649       590.24249        49.150    20260893.33746
  90701269.00446       459.92646        43.219  
  23871743.49246 125446840.88946     -2183.18446        42.707    23871743.08243
  97750764.48643     -1701.18443        34.988  
  23099731.99946 121389903.39446     -2844.93846        42.660    23099729.84541
  94589524.93741     -2216.83641        32.169  
  20050672.04849 115297453.14549     -1169.11349        50.303    20050669.97646
  89840451.66046      -911.00046        43.044  
  21718402.69848 114130980.95948      2720.07048        47.640    21718402.35245
  88933231.30945      2119.53145        40.049  
  22013152.00948 115679888.95348      2501.77048        47.517    22013147.30643
  90140148.11543      1949.42643        36.605  
 04 07 03 06 20 35.0000000  0  9G30G15G26G18G29G21G 9G 5G22                     
  24032831.80445 126293394.44945      3752.64545        40.648    24032833.41341
  98410455.04841      2924.14141        28.092  
  22676971.32346 119168287.22546      -674.19546        42.298    22676971.31142
  92858399.24442      -525.35242        32.972  
  23200871.73747 121921393.74047     -2370.84047        44.499    23200869.85443
  95003691.31343     -1847.41043        34.688  
  20260783.60949 116401591.47749       589.70349        49.218    20260781.03946
  90700809.17546       459.50446        43.142  
  23872158.94646 125449024.03046     -2183.22746        42.571    23872158.55742
  97752465.64342     -1701.21942        33.879  
  23100273.40846 121392748.50046     -2845.12546        42.318    23100271.27642
  94591741.89342     -2216.98842        32.572  
  20050894.54649 115298622.35049     -1169.48449        50.351    20050892.46947
  89841362.72847      -911.28947        43.548  
  21717885.10148 114128260.91348      2719.73848        47.766    21717884.74744
  88931111.79844      2119.27344        38.635  
  22012675.96348 115677387.28348      2501.29348        47.363    22012671.24143
  90138198.76543      1949.05543        36.366  
 04 07 03 06 20 36.0000000  0  9G30G15G26G18G29G21G 9G 5G22                     
  24032117.67445 126289641.73145      3752.50445        40.802    24032119.27041
  98407530.87041      2924.03541        30.003  
  22677099.65346 119168961.59146      -674.86346        42.227    22677099.70442
  92858924.72442      -525.87142        32.960  
  23201322.90647 121923764.68647     -2371.07047        44.404    23201321.07343
  95005538.80243     -1847.59043        35.636  
  20260671.46349 116401002.07249       588.94149        49.166    20260668.87547
  90700349.89847       458.91447        43.588  
  23872574.45346 125451207.36746     -2183.99246        42.309    23872574.06244
  97754166.94444     -1701.81644        36.697  
  23100814.87946 121395593.90446     -2845.70346        42.309    23100812.71842
  94593959.08242     -2217.43842        32.270  
  20051117.14749 115299792.13449     -1170.14549        50.324    20051115.07646
  89842274.25146      -911.80546        43.147  
  21717367.60548 114125541.36648      2719.20348        47.685    21717367.22944
  88928992.66844      2118.85544        38.740  
  22012199.99248 115674886.03848      2500.75848        47.383    22012195.25844
  90136249.74044      1948.64144        37.221  
 04 07 03 06 20 37.0000000  0  9G30G15G26G18G29G21G 9G 5G22                     
  24031403.55845 126285889.04145      3752.52345        40.618    24031405.12942
  98404606.70842      2924.04742        33.819  
  22677228.09746 119169636.56346      -675.50046        42.107    22677228.11543
  92859450.66643      -526.36743        34.632  
  23201774.10947 121926135.74847     -2371.37547        44.341    23201772.33943
  95007386.37743     -1847.82843        36.416  
  20260559.42749 116400413.26649       588.32449        49.145    20260556.83746
  90699891.08846       458.43046        43.259  
  23872989.95846 125453390.84846     -2183.64146        42.309    23872989.60542
  97755868.35542     -1701.54342        32.611  
  23101356.38046 121398439.54146     -2845.99646        42.383    23101354.18541
  94596176.47741     -2217.66441        30.371  
  20051339.84449 115300962.41949     -1170.82449        50.292    20051337.77546
  89843186.16446      -912.33246        43.127  
  21716850.17848 114122822.23448      2718.66448        47.772    21716849.79645
  88926873.86645      2118.43845        39.303  
  22011724.08848 115672385.13948      2500.57048        47.415    22011719.34543
  90134300.98343      1948.49243        35.124  
 04 07 03 06 20 38.0000000  0  9G30G15G26G18G29G21G 9G 5G22                     
  24030689.43445 126282136.34845      3752.60945        40.509    24030691.05241
  98401682.54241      2924.11741        31.833  
  22677356.66646 119170312.20246      -675.96946        42.608    22677356.74043
  92859977.13343      -526.73043        34.676  
  23202225.31947 121928506.93647     -2371.35247        44.220    23202223.56544
  95009234.05244     -1847.80944        36.974  
  20260447.51049 116399825.09649       587.86349        49.184    20260444.90847
  90699432.77347       458.07047        43.451  
  23873405.49946 125455574.43446     -2183.69146        42.131    23873405.13343
  97757569.85443     -1701.58243        34.498  
  23101897.93746 121401285.41646     -2846.23446        42.220    23101895.75741
  94598394.04941     -2217.84841        31.779  
  20051562.64149 115302133.20949     -1171.13749        50.275    20051560.57546
  89844098.46846      -912.57846        42.720  
  21716332.84548 114120103.54948      2718.19148        47.697    21716332.45245
  88924755.41445      2118.06645        39.549  
  22011248.26448 115669884.62648      2500.13748        47.515    22011243.52044
  90132352.53244      1948.15644        37.388  
 04 07 03 06 20 40.0000000  0  9G30G15G26G18G29G21G 9G 5G22                     
  24029261.22145 126274631.14645      3752.05145        40.864    24029262.87142
  98395834.35742      2923.68042        33.261  
  22677614.20646 119171665.51546      -677.39146        42.533    22677614.25342
  92861031.65942      -527.84042        32.893  
  23203127.84947 121933249.82547     -2371.84847        43.834    23203126.18344
  95012929.81844     -1848.19544        36.905  
  20260224.05649 116398650.75949       586.46149        49.211    20260221.45546
  90698517.71146       456.98046        42.970  
  23874236.68646 125459942.16646     -2184.17246        42.255    23874236.30843
  97760973.29043     -1701.95743        34.929  
  23102981.22746 121406978.02146     -2846.79346        42.052    23102979.03241
  94602829.84941     -2218.28541        30.551  
  20052008.53549 115304476.41749     -1172.25449        50.210    20052006.46947
  89845924.34347      -913.44947        43.453  
  21715298.41748 114114667.53748      2717.43048        47.707    21715298.01644
  88920519.56444      2117.47344        38.852  
  22010296.84748 115664884.79048      2499.38748        47.440    22010292.06644
  90128456.55844      1947.57044        36.768  
 04 07 03 06 20 41.0000000  0  9G30G15G26G18G29G21G 9G 5G22                     
  24028547.12445 126270878.62045      3752.72745        40.551    24028548.81643
  98392910.31643      2924.20743        35.084  
  22677743.15946 119172343.17146      -677.90646        42.276    22677743.23341
  92861559.70441      -528.24241        30.982  
  23203579.14447 121935621.44847     -2371.48847        43.866    23203577.48843
  95014777.83443     -1847.91843        35.770  
  20260112.51249 116398064.55649       585.70349        49.158    20260109.90446
  90698060.93046       456.39146        43.160  
  23874652.31246 125462126.26746     -2184.21146        42.269    23874651.89342
  97762675.17442     -1701.98442        32.845  
  23103522.94046 121409824.71746     -2846.79346        41.905    23103520.70041
  94605048.04541     -2218.28541        30.989  
  20052231.63949 115305648.81449     -1172.59849        50.279    20052229.56747
  89846837.89747      -913.71547        43.404  
  21714781.33848 114111950.22348      2716.96148        47.630    21714780.92144
  88918402.17944      2117.10944        37.947  
  22009821.24548 115662385.46348      2499.15248        47.562    22009816.46244
  90126509.03044      1947.38744        36.949  
 04 07 03 06 20 42.0000000  0  9G30G15G26G18G29G21G 9G 5G22                     
  24027833.01545 126267126.00645      3752.56645        41.028    24027834.73541
  98389986.19441      2924.07841        30.615  
  22677872.20646 119173021.34946      -678.57846        42.613    22677872.34941
  92862088.16041      -528.76641        31.893  
  23204030.44447 121937993.09847     -2371.75847        44.023    23204028.84943
  95016625.86743     -1848.12543        35.117  
  20260001.06049 116397478.84549       585.30149        49.220    20259998.45346
  90697604.52846       456.07446        42.788  
  23875067.94646 125464310.36046     -2184.28946        42.205    23875067.50043
  97764377.05443     -1702.05143        35.512  
  23104064.69046 121412671.53746     -2847.11746        41.688    23104062.40141
  94607266.32541     -2218.53941        26.763  
  20052454.82049 115306821.59149     -1173.15249        50.226    20052452.74546
  89847751.74746      -914.14846        43.091  
  21714264.31548 114109233.18748      2716.88348        47.678    21714263.89244
  88916285.00644      2117.04744        38.618  
  22009345.69148 115659886.35748      2498.73448        47.426    22009340.90644
  90124561.67744      1947.06244        37.559  
 04 07 03 06 20 43.0000000  0  9G30G15G26G18G29G21G 9G 5G22                     
  24027118.87846 126263373.24946      3752.49646        41.430    24027120.63242
  98387061.99242      2924.02742        34.308  
  22678001.35346 119173700.01046      -678.95746        42.799    22678001.52942
  92862616.99542      -529.06242        32.246  
  23204481.73947 121940364.73547     -2371.96147        43.790    23204480.17743
  95018473.89143     -1848.28543        35.540  
  20259889.70649 116396893.62449       584.96149        49.220    20259887.09946
  90697148.51146       455.80946        43.047  
  23875483.57446 125466494.44146     -2184.48046        42.041    23875483.11443
  97766078.92943     -1702.19943        35.212  
  23104606.43946 121415518.46046     -2847.07846        41.789    23104604.13741
  94609484.69641     -2218.50841        29.670  
  20052678.06449 115307994.73749     -1173.43049        50.247    20052675.98847
  89848665.88947      -914.36347        43.398  
  21713747.35048 114106516.47048      2716.43048        47.738    21713746.91944
  88914168.08644      2116.69544        38.593  
  22008870.18948 115657387.48748      2498.60948        47.530    22008865.39843
  90122614.51143      1946.96543        36.435  
 04 07 03 06 20 44.0000000  0  9G30G15G26G18G29G21G 9G 5G22                     
  24026404.73745 126259620.55245      3752.61345        40.968    24026406.59742
  98384137.82442      2924.11742        34.365  
  22678130.64046 119174379.39956      -680.19946        43.057    22678130.86442
  92863146.38242      -530.02742        32.630  
  23204933.07047 121942736.52247     -2372.25447        43.860    23204931.55044
  95020322.04144     -1848.51244        36.679  
  20259778.47449 116396309.07849       583.83249        49.220    20259775.86046
  90696693.01846       454.93046        43.081  
  23875899.23046 125468678.68946     -2184.69946        42.127    23875898.77442
  97767780.93342     -1702.36742        33.687  
  23105148.23946 121418365.65246     -2847.55946        41.722    23105145.93342
  94611703.27142     -2218.88742        32.537  
  20052901.41549 115309168.43049     -1174.21549        50.249    20052899.32746
  89849580.45346      -914.97746        43.329  
  21713230.47349 114103800.20949      2715.77349        47.846    21713230.02144
  88912051.52544      2116.18444        38.673  
  22008394.75348 115654889.02548      2498.00848        47.418    22008389.96344
  90120667.65744      1946.49644        37.095  
 04 07 03 06 20 45.0000000  0  9G30G15G26G18G29G21G 9G 5G22                     
  24025690.66146 126255868.13046      3752.12546        41.145    24025692.48641
  98381213.88241      2923.74241        28.622  
  22678260.10046 119175059.61846      -680.66046        42.837    22678260.33442
  92863676.42142      -530.38742        33.636  
  23205384.45747 121945108.64947     -2372.38747        43.628    23205382.96943
  95022170.44843     -1848.61743        35.536  
  20259667.41049 116395725.38449       583.18449        49.212    20259664.77746
  90696238.19246       454.42646        43.311  
  23876314.97346 125470863.34046     -2185.07846        42.218    23876314.52142
  97769483.27242     -1702.66042        33.245  
  23105690.11846 121421213.32446     -2848.02046        42.200    23105687.82343
  94613922.24943     -2219.23843        35.120  
  20053124.90349 115310342.86549     -1174.85549        50.245    20053122.81646
  89850495.59946      -915.47746        42.971  
  21712713.71148 114101084.60648      2715.28548        47.772    21712713.25544
  88909935.46944      2115.80544        38.413  
  22007919.43948 115652391.17348      2497.57448        47.333    22007914.65444
  90118721.28944      1946.16044        37.816  
 04 07 03 06 20 46.0000000  0  9G30G15G26G18G29G21G 9G 5G22                     
  24024976.58345 126252115.67745      3752.33245        40.966    24024978.46541
  98378289.89141      2923.89841        31.340  
  22678389.67446 119175740.42746      -681.15246        42.639    22678389.92042
  92864206.91342      -530.77042        34.180  
  23205835.85947 121947480.83347     -2372.33247        43.791    23205834.45943
  95024018.90243     -1848.57443        35.413  
  20259556.45649 116395142.26649       582.74249        49.092    20259553.81546
  90695783.81246       454.08246        43.108  
  23876730.71746 125473048.06546     -2184.93846        42.192    23876730.20843
  97771185.65943     -1702.55143        35.169  
  23106232.05646 121424061.20246     -2847.95746        42.037    23106229.79942
  94616141.39642     -2219.19142        32.479  
  20053348.47849 115311517.73949     -1175.18849        50.216    20053346.39846
  89851411.08646      -915.73446        43.239  
  21712197.03048 114098369.38848      2714.93848        47.759    21712196.55744
  88907819.71644      2115.53144        38.756  
  22007444.16348 115649893.60648      2497.36348        47.362    22007439.40644
  90116775.13444      1945.99644        36.783  
 04 07 03 06 20 47.0000000  0  9G30G15G26G18G29G21G 9G 5G22                     
  24024262.49145 126248363.19245      3752.57445        40.969    24024264.40742
  98375365.86842      2924.08642        33.792  
  22678519.34446 119176421.85446      -682.00446        42.688    22678519.64943
  92864737.90043      -531.43443        35.465  
  23206287.27747 121949853.11047     -2372.41447        43.705    23206285.91443
  95025867.43243     -1848.63743        35.846  
  20259445.60949 116394559.72749       582.18049        49.178    20259442.96546
  90695329.88846       453.64546        43.222  
  23877146.49046 125475232.86446     -2184.99646        41.851    23877145.96141
  97772888.08641     -1702.59841        31.386  
  23106774.00946 121426909.22946     -2848.25446        41.768    23106771.76042
  94618360.61942     -2219.42642        32.283  
  20053572.14549 115312693.08449     -1175.60949        50.202    20053570.06846
  89852326.93846      -916.06246        43.226  
  21711680.42049 114095654.53549      2714.64149        47.868    21711679.92544
  88905704.24844      2115.30144        38.139  
  22006968.96648 115647396.37848      2496.99248        47.522    22006964.20344
  90114829.24544      1945.70344        38.292  
 04 07 03 06 20 48.0000000  0  9G30G15G26G18G29G21G 9G 5G22                     
  24023548.41845 126244610.64545      3752.52045        40.975    24023550.31942
  98372441.80442      2924.03942        32.753  
  22678649.11846 119177103.80346      -682.46546        42.566    22678649.44941
  92865269.27341      -531.79741        31.305  
  23206738.70247 121952225.42247     -2372.55547        43.784    23206737.39142
  95027715.98942     -1848.74642        34.065  
  20259334.85749 116393977.72049       581.58249        49.108    20259332.22046
  90694876.37746       453.17646        43.125  
  23877562.28446 125477417.72446     -2185.56646        42.235    23877561.75442
  97774590.56742     -1703.04342        32.991  
  23107316.00146 121429757.44546     -2848.49246        41.612    23107313.80041
  94620580.00341     -2219.60941        31.710  
  20053795.88549 115313868.83949     -1176.16849        50.206    20053793.81546
  89853243.11546      -916.49646        43.165  
  21711163.86948 114092940.03148      2714.20348        47.721    21711163.38244
  88903589.05744      2114.96144        38.198  
  22006493.82248 115644899.41848      2496.72348        47.557    22006489.04844
  90112883.56044      1945.49644        37.518  
 04 07 03 06 20 49.0000000  0  9G30G15G26G18G29G21G 9G 5G22                     
  24022834.31645 126240858.02345      3752.70745        40.950    24022836.16342
  98369517.67542      2924.18442        33.924  
  22678779.00846 119177786.30046      -682.77046        42.705    22678779.36042
  92865801.09042      -532.03142        33.563  
  23207190.12447 121954597.74147     -2372.58247        43.939    23207188.86942
  95029564.55242     -1848.77042        33.355  
  20259224.21249 116393396.24649       581.18049        49.064    20259221.57346
  90694423.28146       452.86346        42.956  
  23877978.04546 125479602.60446     -2185.07046        41.925    23877977.56042
  97776293.06442     -1702.66042        32.825  
  23107858.01846 121432605.78546     -2848.49246        41.314    23107855.80041
  94622799.48641     -2219.60941        26.632  
  20054019.70349 115315045.00549     -1176.43049        50.176    20054017.64247
  89854159.60947      -916.70347        43.403  
  21710647.38848 114090225.86048      2713.88348        47.744    21710646.89544
  88901474.12244      2114.71144        38.612  
  22006018.72548 115642402.72548      2496.57848        47.701    22006013.95344
  90110938.08444      1945.38344        36.926  
 04 07 03 06 20 50.0000000  0  9G30G15G26G18G29G21G 9G 5G22                     
  24022120.19745 126237105.30845      3752.67645        41.072    24022122.08843
  98366593.48943      2924.16043        34.714  
  22678909.01146 119178469.37146      -683.63346        42.456    22678909.37641
  92866333.35441      -532.70341        28.345  
  23207641.53947 121956970.10547     -2372.46947        43.829    23207640.30843
  95031413.14243     -1848.68043        36.023  
  20259113.66649 116392815.29049       580.58249        49.007    20259111.02046
  90693970.58446       452.39846        43.329  
  23878393.83346 125481787.51246     -2185.06646        42.021    23878393.28142
  97777995.58942     -1702.65242        33.683  
  23108400.08046 121435454.27846     -2848.90246        41.420    23108397.89442
  94625019.10142     -2219.92642        32.573  
  20054243.60549 115316221.58449     -1176.98049        50.149    20054241.55146
  89855076.42846      -917.12946        43.048  
  21710130.97348 114087512.01948      2713.32848        47.696    21710130.48145
  88899359.44445      2114.27745        39.203  
  22005543.68748 115639906.29648      2496.05548        47.773    22005538.90443
  90108992.81643      1944.97343        36.028  
 04 07 03 06 20 51.0000000  0  9G30G15G26G18G29G21G 9G 5G22                     
  24021406.08045 126233352.60745      3752.43845        41.073    24021407.93341
  98363669.33341      2923.98041        28.789  
  22679039.11146 119179153.03146      -684.10546        42.580    22679039.45442
  92866866.06642      -533.07442        33.099  
  23208092.98947 121959342.55047     -2372.49247        44.056    23208091.80144
  95033261.79544     -1848.69944        37.773  
  20259003.23349 116392234.95149       579.89149        48.943    20259000.59647
  90693518.37247       451.85947        43.517  
  23878809.65346 125483972.54546     -2185.42646        41.715    23878809.08842
  97779698.21942     -1702.93442        34.090  
  23108942.17646 121438302.99546     -2849.20746        41.274    23108939.95042
  94627238.88142     -2220.16442        33.187  
  20054467.58849 115317398.64649     -1177.54749        50.142    20054465.53847
  89855993.61647      -917.57047        43.366  
  21709614.62948 114084798.57348      2713.02748        47.741    21709614.12645
  88897245.07045      2114.04345        39.634  
  22005068.71449 115637410.22649      2495.72349        47.848    22005063.90843
  90107047.82443      1944.71543        36.326  
 04 07 03 06 20 52.0000000  0  9G30G15G26G18G29G21G 9G 5G22                     
  24020691.94246 126229599.92146      3752.73446        41.822    24020693.86641
  98360745.18741      2924.21941        29.685  
  22679169.32246 119179837.35446      -684.55146        42.438    22679169.73041
  92867399.30041      -533.41841        30.792  
  23208544.45747 121961715.12347     -2372.47747        43.842    23208543.30843
  95035110.54743     -1848.68843        34.487  
  20258892.92249 116391655.22849       579.38749        48.981    20258890.29047
  90693066.63847       451.46947        43.518  
  23879225.49646 125486157.72246     -2185.27046        41.646    23879224.93242
  97781400.94742     -1702.81242        33.220  
  23109484.30846 121441151.94546     -2848.96946        41.257    23109482.13141
  94629458.83841     -2219.98041        30.261  
  20054691.67349 115318576.21049     -1177.84049        50.106    20054689.62646
  89856911.19946      -917.80146        43.174  
  21709098.36349 114082085.56449      2712.72349        47.785    21709097.85044
  88895131.03744      2113.80944        38.563  
  22004593.81749 115634914.50749      2495.45349        47.969    22004589.00343
  90105103.10843      1944.50443        36.439  
 04 07 03 06 20 53.0000000  0  9G30G15G26G18G29G21G 9G 5G22                     
  24019977.81846 126225847.23346      3752.77746        41.783    24019979.80941
  98357821.01941      2924.24641        31.677  
  22679299.67046 119180522.26946      -685.45746        42.805    22679300.05642
  92867932.99942      -534.12542        33.731  
  23208995.94847 121964087.80747     -2372.78547        43.750    23208994.81143
  95036959.39443     -1848.92643        34.944  
  20258782.72049 116391076.10249       578.67649        48.970    20258780.08846
  90692615.37246       450.91446        42.936  
  23879641.31946 125488342.94246     -2185.04746        41.889    23879640.76643
  97783103.71943     -1702.63743        35.866  
  23110026.46946 121444001.10746     -2849.61746        41.279    23110024.35741
  94631678.94741     -2220.48841        31.310  
  20054915.84649 115319754.24149     -1178.33649        50.143    20054913.79346
  89857829.14546      -918.18846        43.249  
  21708582.18148 114079372.95248      2712.24648        47.683    21708581.66245
  88893017.31745      2113.43445        39.810  
  22004118.96649 115632419.11749      2495.17649        47.955    22004114.16144
  90103158.65144      1944.28944        36.820  
 04 07 03 06 20 54.0000000  0  9G30G15G26G18G29G21G 9G 5G22                     
  24019263.72546 126222094.61846      3752.32046        42.004    24019265.72141
  98354896.90941      2923.89141        30.100  
  22679430.15246 119181207.88146      -686.11346        42.193    22679430.49642
  92868467.24742      -534.63742        33.201  
  23209447.46847 121966460.63847     -2373.24247        44.047    23209446.35843
  95038808.34843     -1849.28143        34.760  
  20258672.65149 116390497.65249       577.92249        48.990    20258670.02046
  90692164.63246       450.32446        42.736  
  23880057.21046 125490528.39046     -2185.35946        41.989    23880056.63242
  97784806.66542     -1702.87942        34.411  
  23110568.69645 121446850.56145     -2849.85945        40.863    23110566.62342
  94633899.28142     -2220.67642        33.523  
  20055140.12849 115320932.83549     -1179.02749        50.151    20055138.07946
  89858747.52646      -918.72746        42.991  
  21708066.08748 114076660.82248      2711.69948        47.732    21708065.55845
  88890903.97345      2113.00845        39.189  
  22003644.19649 115629924.15349      2494.59849        48.013    22003639.39344
  90101214.52744      1943.84044        36.757  
 04 07 03 06 20 55.0000000  0  9G30G15G26G18G29G21G 9G 5G22                     
  24018549.65646 126218342.07846      3752.26246        42.201    24018551.66442
  98351972.85142      2923.84042        32.302  
  22679560.76446 119181894.15446      -686.63746        42.687    22679561.15942
  92869002.00942      -535.04342        32.962  
  23209899.01847 121968833.64347     -2373.01247        44.238    23209897.97743
  95040657.44243     -1849.10243        35.481  
  20258562.69749 116389919.84149       577.47749        48.961    20258560.06946
  90691714.39046       449.98046        42.763  
  23880473.12546 125492713.99046     -2185.60246        41.836    23880472.57842
  97786509.72742     -1703.07042        33.350  
  23111110.98345 121449700.28345     -2850.04345        41.051    23111108.93841
  94636119.82841     -2220.82441        27.187  
  20055364.50549 115322111.95049     -1179.42249        50.158    20055362.44946
  89859666.31746      -919.03546        43.265  
  21707550.07748 114073949.14548      2711.43048        47.767    21707549.55545
  88888790.98345      2112.80145        39.688  
  22003169.50349 115627429.56749      2494.38749        48.023    22003164.70443
  90099270.69743      1943.67643        36.347  
 04 07 03 06 20 56.0000000  0  9G30G15G26G18G29G21G 9G 5G22                     
  24017835.55146 126214589.37646      3752.65646        42.217    24017837.57141
  98349048.66541      2924.14841        30.629  
  22679691.48046 119182580.92456      -687.14846        42.233    22679691.87843
  92869537.15643      -535.44543        35.412  
  23210350.56347 121971206.60547     -2373.18847        44.285    23210349.54242
  95042506.50342     -1849.23842        33.757  
  20258452.84349 116389342.52449       576.92649        48.924    20258450.21146
  90691264.53146       449.55146        43.175  
  23880889.04446 125494899.56246     -2185.74646        41.948    23880888.47442
  97788212.76442     -1703.18442        34.085  
  23111653.27346 121452550.09246     -2850.26646        41.167    23111651.30542
  94638340.46042     -2220.99242        33.335  
  20055588.95749 115323291.43949     -1179.87949        50.233    20055586.90546
  89860585.39846      -919.39146        42.752  
  21707034.11348 114071237.75948      2711.03148        47.776    21707033.55844
  88886678.21744      2112.48844        38.862  
  22002694.86049 115624935.22949      2494.01649        48.275    22002690.05244
  90097327.06344      1943.38744        37.254  
 04 07 03 06 20 57.0000000  0  9G30G15G26G18G29G21G 9G 5G22                     
  24017121.42146 126210836.63446      3752.41846        42.587    24017123.48841
  98346124.45341      2923.96141        29.665  
  22679822.28946 119183268.27746      -688.00046        42.268    22679822.63942
  92870072.74542      -536.10542        34.057  
  23210802.11447 121973579.60347     -2373.18847        44.098    23210801.10343
  95044355.58443     -1849.24243        36.211  
  20258343.09349 116388765.75049       576.37949        48.927    20258340.45947
  90690815.09847       449.12547        43.616  
  23881304.95846 125497085.20746     -2185.98046        41.992    23881304.39642
  97789915.86942     -1703.36342        32.983  
  23112195.60646 121455400.04746     -2850.20346        41.344    23112193.65141
  94640561.22141     -2220.94141        31.630  
  20055813.48849 115324471.34549     -1180.19549        50.245    20055811.44346
  89861504.80646      -919.63746        43.142  
  21706518.23249 114068526.72349      2710.66849        47.942    21706517.65545
  88884565.72145      2112.20745        38.931  
  22002220.26849 115622441.16149      2493.74649        48.330    22002215.44145
  90095383.63145      1943.17645        38.902  
 04 07 03 06 20 58.0000000  0  9G30G15G26G18G29G21G 9G 5G22                     
  24016407.29646 126207083.83246      3752.60546        42.233    24016409.41841
  98343200.19741      2924.10941        30.537  
  22679953.21146 119183956.17346      -688.25046        42.130    22679953.49243
  92870608.76743      -536.30143        34.492  
  23211253.68247 121975952.68147     -2373.39147        44.058    23211252.70243
  95046204.72843     -1849.40243        36.225  
  20258233.44449 116388189.54549       575.76249        48.962    20258230.80746
  90690366.10746       448.64146        43.276  
  23881720.89946 125499270.92846     -2186.00046        41.945    23881720.31442
  97791619.03242     -1703.37942        34.157  
  23112737.96246 121458250.18846     -2850.35246        41.341    23112736.09042
  94642782.11942     -2221.05542        34.398  
  20056038.10149 115325651.70049     -1180.74249        50.249    20056036.05646
  89862424.56646      -920.06246        43.167  
  21706002.42249 114065816.05549      2710.31649        48.038    21706001.82544
  88882453.51244      2111.93444        38.681  
  22001745.73649 115619947.40149      2493.57849        48.299    22001740.92344
  90093440.43844      1943.04344        37.645  
 04 07 03 06 20 59.0000000  0  9G30G15G26G18G29G21G 9G 5G22                     
  24015693.16346 126203331.07946      3752.68446        42.590    24015695.28741
  98340275.98941      2924.16841        31.682  
  22680084.26446 119184644.74946      -688.99646        42.264    22680084.55441
  92871145.30941      -536.88341        30.740  
  23211705.25947 121978325.88747     -2373.53147        43.934    23211704.34842
  95048053.98142     -1849.50842        34.226  
  20258123.91649 116387613.96849       575.20349        48.906    20258121.28646
  90689917.60546       448.20746        43.175  
  23882136.87146 125501456.79646     -2186.31246        41.986    23882136.28842
  97793322.30242     -1703.62542        32.960  
  23113280.38846 121461100.59946     -2850.61746        41.554    23113278.61242
  94645003.22942     -2221.26242        33.067  
  20056262.81549 115326832.55349     -1181.26249        50.288    20056260.76246
  89863344.71246      -920.46946        43.048  
  21705486.68749 114063105.82749      2709.81649        48.250    21705486.08744
  88880341.64944      2111.54344        38.576  
  22001271.27549 115617454.02349      2492.95349        48.352    22001266.46144
  90091497.54644      1942.55944        37.576  
 04 07 03 06 21  0.0000000  0  9G30G15G26G18G29G21G 9G 5G22                     
  24014979.03546 126199578.29746      3752.68446        42.659    24014981.16441
  98337351.73541      2924.16441        31.798  
  22680215.41246 119185333.87046      -689.78146        42.094    22680215.61641
  92871682.28341      -537.49641        29.097  
  23212156.84947 121980699.13147     -2373.59047        43.980    23212155.99842
  95049903.25942     -1849.55542        34.375  
  20258014.49949 116387038.95149       574.64849        48.882    20258011.86546
  90689469.53946       447.77346        42.763  
  23882552.82646 125503642.66346     -2185.73846        42.282    23882552.25243
  97795025.56343     -1703.17643        35.081  
  23113822.83046 121463951.14846     -2850.53946        41.533    23113821.09942
  94647224.43842     -2221.20342        32.488  
  20056487.60649 115328013.85049     -1181.71949        50.299    20056485.56347
  89864265.20147      -920.82447        43.570  
  21704971.01849 114060395.95049      2709.70749        48.228    21704970.39944
  88878230.05944      2111.45744        37.507  
  22000796.87149 115614960.92449      2492.89549        48.380    22000792.06644
  90089554.86944      1942.51244        37.126  
 04 07 03 06 21  1.0000000  0  9G30G15G26G18G29G21G 9G 5G22                     
  24014264.91446 126195825.50946      3752.69946        42.649    24014267.01941
  98334427.49641      2924.18441        31.482  
  22680346.69446 119186023.66646      -690.28946        42.601    22680346.90042
  92872219.79242      -537.89142        32.561  
  23212608.47647 121983072.47947     -2373.59047        43.968    23212607.66243
  95051752.62043     -1849.55543        34.801  
  20257905.19649 116386464.55649       574.03149        48.906    20257902.56646
  90689021.95946       447.29346        43.255  
  23882968.81246 125505828.70846     -2186.08646        41.645    23882968.26442
  97796728.97142     -1703.44542        34.296  
  23114365.31646 121466801.94546     -2850.93446        41.634    23114363.53641
  94649445.81641     -2221.51241        31.647  
  20056712.50049 115329195.65449     -1182.10249        50.250    20056710.45146
  89865186.08946      -921.12146        42.900  
  21704455.44549 114057686.51949      2709.20349        48.294    21704454.81244
  88876118.81344      2111.06244        38.575  
  22000322.53649 115612468.19549      2492.59449        48.318    22000317.73844
  90087612.48044      1942.27744        37.627  
 04 07 03 06 21  2.0000000  0  9G30G15G26G18G29G21G 9G 5G22                     
  24013550.80946 126192072.77046      3752.49246        42.648    24013552.89341
  98331503.29541      2924.02041        30.514  
  22680478.09646 119186714.08946      -691.21546        42.619    22680478.27542
  92872757.80142      -538.60942        32.562  
  23213060.11047 121985445.96047     -2373.59047        43.954    23213059.36243
  95053602.08343     -1849.55543        35.901  
  20257796.01649 116385890.79149       573.23449        48.848    20257793.38346
  90688574.86846       446.67246        42.805  
  23883384.83346 125508014.89146     -2186.09846        42.250    23883384.24543
  97798432.51743     -1703.45743        35.701  
  23114907.85846 121469653.00346     -2851.49646        41.776    23114906.16643
  94651667.40943     -2221.95343        34.693  
  20056937.48949 115330377.96149     -1182.80549        50.277    20056935.44246
  89866107.36846      -921.66846        42.998  
  21703939.94749 114054977.51749      2708.44949        48.286    21703939.30344
  88874007.90044      2110.47744        38.207  
  21999848.26949 115609975.84049      2492.02349        48.278    21999843.47844
  90085670.38244      1941.83244        38.244  
 04 07 03 06 21  3.0000000  0  9G30G15G26G18G29G21G 9G 5G22                     
  24012836.70746 126188320.15346      3752.35246        42.889    24012838.86941
  98328579.19141      2923.91441        28.016  
  22680609.65046 119187405.24056      -691.57046        42.821    22680609.78542
  92873296.37542      -538.88742        32.876  
  23213511.79747 121987819.65147     -2373.93847        43.878    23213511.05944
  95055451.72144     -1849.82444        37.217  
  20257686.97049 116385317.75949       572.63349        48.761    20257684.35246
  90688128.35146       446.20346        43.033  
  23883800.89746 125510201.32946     -2186.32446        41.711    23883800.26743
  97800136.24043     -1703.63343        35.005  
  23115450.46246 121472504.40646     -2851.78946        42.251    23115448.76541
  94653889.27641     -2222.18041        31.344  
  20057162.58449 115331560.88049     -1183.28149        50.212    20057160.54746
  89867029.12546      -922.03946        42.950  
  21703424.55749 114052269.04549      2708.13349        48.331    21703423.88444
  88871897.40144      2110.23044        38.123  
  21999374.08849 115607483.96049      2491.60949        48.232    21999369.29144
  90083728.65844      1941.51244        37.524  
 04 07 03 06 21  4.0000000  0  9G30G15G26G18G29G21G 9G 5G22                     
  24012122.64346 126184567.64446      3752.51646        42.670    24012124.76041
  98325655.16541      2924.04341        26.375  
  22680741.33046 119188097.10746      -692.22746        42.854    22680741.49141
  92873835.49141      -539.40241        32.011  
  23213963.52447 121990193.54647     -2373.97347        43.692    23213962.79743
  95057301.51443     -1849.85243        36.324  
  20257578.05749 116384745.42349       571.87949        48.805    20257575.44446
  90687682.37246       445.61746        43.149  
  23884217.01246 125512387.97246     -2186.84846        41.760    23884216.35743
  97801840.11243     -1704.03943        36.093  
  23115993.12946 121475356.10546     -2852.03546        41.959    23115991.48042
  94656111.38842     -2222.36742        32.581  
  20057387.79949 115332744.36349     -1183.89149        50.241    20057385.76646
  89867951.32346      -922.51646        42.996  
  21702909.26249 114049561.06749      2707.60249        48.349    21702908.56044
  88869787.28844      2109.81644        38.295  
  21998899.99749 115604992.51449      2491.12949        48.271    21998895.20144
  90081787.27344      1941.13744        37.084  
 04 07 03 06 21  5.0000000  0  9G30G15G26G18G29G21G 9G 5G22                     
  24011408.57546 126180815.19146      3752.20346        43.091    24011410.72841
  98322731.18041      2923.79741        32.082  
  22680873.15546 119188789.67846      -693.04746        42.902    22680873.23241
  92874375.14941      -540.03941        29.862  
  23214415.27747 121992567.63847     -2374.47347        43.561    23214414.56143
  95059151.44343     -1850.24243        36.395  
  20257469.27249 116384173.76649       571.19149        48.852    20257466.67146
  90687236.92546       445.08246        42.822  
  23884633.13846 125514574.77046     -2187.02346        41.173    23884632.52644
  97803544.10644     -1704.17644        36.671  
  23116535.84746 121478208.08346     -2852.24246        41.882    23116534.18743
  94658333.68643     -2222.53543        35.008  
  20057613.11449 115333928.41149     -1184.52749        50.258    20057611.08246
  89868873.95846      -923.01246        42.586  
  21702394.05449 114046853.58549      2706.97749        48.358    21702393.34544
  88867677.55644      2109.32844        38.561  
  21998425.98749 115602501.48849      2490.55549        48.279    21998421.20644
  90079846.21644      1940.68844        38.242  
 04 07 03 06 21  6.0000000  0  9G30G15G26G18G29G21G 9G 5G22                     
  24010694.51046 126177062.66046      3752.54746        43.024    24010696.58341
  98319807.12441      2924.06241        30.541  
  22681005.06146 119189482.79546      -693.60946        42.767    22681005.12842
  92874915.24042      -540.47742        34.009  
  23214867.03547 121994941.73647     -2374.27047        43.554    23214866.33443
  95061001.37943     -1850.08643        35.352  
  20257360.59449 116383602.64849       570.61349        48.914    20257357.99046
  90686791.89346       444.62946        42.892  
  23885049.28346 125516761.62246     -2187.32046        41.612    23885048.62842
  97805248.13642     -1704.41042        34.209  
  23117078.58946 121481060.22846     -2852.46146        42.434    23117076.92941
  94660556.12841     -2222.70341        26.510  
  20057838.51749 115335112.87449     -1184.84849        50.282    20057836.48446
  89869796.91546      -923.26246        43.112  
  21701878.91749 114044146.43249      2706.77049        48.405    21701878.17344
  88865568.08844      2109.16844        38.170  
  21997952.03349 115600010.74649      2490.49649        48.253    21997947.25644
  90077905.38244      1940.64544        36.760  
 04 07 03 06 21  7.0000000  0  9G30G15G26G18G29G21G 9G 5G22                     
  24009980.44346 126173310.10746      3752.71946        43.225    24009982.45341
  98316883.06441      2924.19541        31.325  
  22681137.08946 119190176.51446      -694.13346        42.838    22681137.13341
  92875455.80641      -540.88741        31.972  
  23215318.81447 121997315.92447     -2374.25447        43.589    23215318.13443
  95062851.39143     -1850.07443        36.210  
  20257252.01549 116383032.10749       570.19149        48.869    20257249.42446
  90686347.31346       444.30146        42.868  
  23885465.44646 125518948.58246     -2187.43846        41.491    23885464.79742
  97806952.26342     -1704.50042        33.851  
  23117621.36546 121483912.57346     -2852.45346        42.208    23117619.72441
  94662778.76541     -2222.69541        30.547  
  20058064.00249 115336297.80049     -1185.23849        50.253    20058061.97746
  89870720.23546      -923.56646        42.929  
  21701363.84749 114041439.67449      2706.54749        48.267    21701363.07544
  88863458.92344      2108.99644        38.654  
  21997478.13149 115597520.31449      2490.35549        48.247    21997473.35344
  90075964.78944      1940.53544        37.888  
 04 07 03 06 21  8.0000000  0  9G30G15G26G18G29G21G 9G 5G22                     
  24009266.37146 126169557.58546      3752.34446        43.094    24009268.37341
  98313959.02341      2923.90641        28.906  
  22681269.23946 119190870.85646      -694.76246        42.804    22681269.20842
  92875996.85342      -541.37542        34.065  
  23215770.60847 121999690.21147     -2374.52747        43.595    23215769.92843
  95064701.48843     -1850.28543        35.732  
  20257143.56049 116382462.18749       569.50049        48.865    20257140.97146
  90685903.22146       443.76246        42.925  
  23885881.63046 125521135.63846     -2187.15646        41.671    23885880.96042
  97808656.46242     -1704.28142        33.938  
  23118164.19346 121486765.14146     -2853.04346        41.998    23118162.55142
  94665001.55242     -2223.15242        32.463  
  20058289.57549 115337483.21149     -1185.78949        50.236    20058287.54546
  89871643.93146      -923.99646        43.116  
  21700848.85849 114038733.32849      2706.06249        48.257    21700848.07344
  88861350.08344      2108.61744        38.838  
  21997004.30149 115595030.24549      2489.82849        48.101    21996999.53544
  90074024.47444      1940.12144        37.719  
 04 07 03 06 21  9.0000000  0  9G30G15G26G18G29G21G 9G 5G22                     
  24008552.30747 126165805.06547      3752.45747        43.407    24008554.35941
  98311034.98241      2923.98841        32.065  
  22681401.49546 119191565.81246      -695.28946        43.024    22681401.44141
  92876538.36641      -541.78541        28.555  
  23216222.42447 122002064.61647     -2374.57447        43.401    23216221.78043
  95066551.67243     -1850.32043        36.423  
  20257035.21549 116381892.86449       568.91049        48.997    20257032.63446
  90685459.59046       443.30546        42.475  
  23886297.84246 125523322.79946     -2187.16046        41.530    23886297.14543
  97810360.74443     -1704.28543        36.217  
  23118707.06146 121489617.93046     -2853.15646        42.054    23118705.40641
  94667224.50641     -2223.24241        30.173  
  20058515.24349 115338669.10749     -1186.22349        50.288    20058513.21846
  89872568.00446      -924.33246        43.188  
  21700333.94549 114036027.40149      2705.67649        48.238    21700333.14344
  88859241.57444      2108.31644        38.098  
  21996530.53749 115592540.52249      2489.36349        48.132    21996525.78944
  90072084.42544      1939.76244        37.199  
 04 07 03 06 21 10.0000000  0  9G30G15G26G18G29G21G 9G 5G22                     
  24007838.23847 126162052.52547      3752.30947        43.370    24007840.24141
  98308110.91641      2923.87541        26.464  
  22681533.88146 119192261.39146      -696.15246        42.779    22681533.81941
  92877080.37841      -542.46141        31.490  
  23216674.25746 122004439.08346     -2374.70746        43.313    23216673.64744
  95068401.91144     -1850.42644        37.337  
  20256926.98349 116381324.13149       568.24649        48.960    20256924.41046
  90685016.42346       442.78546        42.653  
  23886714.06146 125525510.09146     -2187.16846        41.586    23886713.28942
  97812065.12342     -1704.28942        33.548  
  23119249.97046 121492470.91046     -2853.15246        42.122    23119248.32842
  94669447.59542     -2223.23842        32.915  
  20058740.99649 115339855.46949     -1186.80549        50.214    20058738.97946
  89873492.44246      -924.78546        43.077  
  21699819.11649 114033321.86349      2705.07049        48.275    21699818.28944
  88857133.36744      2107.84444        38.020  
  21996056.82749 115590051.10649      2489.12549        47.981    21996052.07444
  90070144.62944      1939.57444        37.956  
 04 07 03 06 21 11.0000000  0  9G30G15G26G18G29G21G 9G 5G22                     
  24007124.16546 126158300.06746      3752.10546        43.291    24007126.09342
  98305186.91442      2923.71542        32.628  
  22681666.39046 119192957.61446      -696.75846        42.656    22681666.25142
  92877622.88742      -542.93042        32.252  
  23217126.11047 122006813.69647     -2374.64547        43.662    23217125.52844
  95070252.25844     -1850.37544        36.855  
  20256818.87749 116380756.05549       567.63749        48.954    20256816.30746
  90684573.76546       442.31246        42.558  
  23887130.32346 125527697.52646     -2187.83646        41.294    23887129.56743
  97813769.61643     -1704.80943        34.946  
  23119792.92746 121495324.16046     -2853.52346        42.429    23119791.31541
  94671670.91641     -2223.52741        30.283  
  20058966.84949 115341042.36149     -1187.39849        50.200    20058964.83146
  89874417.29346      -925.25046        42.712  
  21699304.36049 114030616.77849      2704.66449        48.267    21699303.53244
  88855025.50844      2107.52744        38.165  
  21995583.19049 115587562.10849      2488.59049        48.070    21995578.45744
  90068205.15244      1939.15644        37.986  
 04 07 03 06 21 12.0000000  0  9G30G15G26G18G29G21G 9G 5G22                     
  24006410.10746 126154547.66046      3752.24646        43.112    24006411.98241
  98302262.96141      2923.82441        30.959  
  22681799.04146 119193654.55646      -697.50046        43.076    22681798.88741
  92878165.96141      -543.50841        31.143  
  23217577.99447 122009188.48047     -2374.89147        43.662    23217577.44444
  95072102.74044     -1850.56644        37.172  
  20256710.90249 116380188.65949       566.95349        48.969    20256708.33446
  90684131.64246       441.77746        42.312  
  23887546.61946 125529885.14046     -2187.82846        41.596    23887545.83042
  97815474.23642     -1704.80542        32.499  
  23120335.93546 121498177.71546     -2853.88746        42.681    23120334.31541
  94673894.46741     -2223.81241        28.299  
  20059192.80649 115342229.81049     -1187.83249        50.113    20059190.80446
  89875342.58146      -925.58646        42.837  
  21698789.71049 114027912.19249      2704.37149        48.101    21698788.87245
  88852918.03945      2107.30145        39.208  
  21995109.64149 115585073.52449      2488.23449        47.937    21995104.90844
  90066265.99644      1938.87944        36.712  
 04 07 03 06 21 13.0000000  0 10G30G14G15G26G18G29G21G 9G 5G22                  
  24005696.02646 126150795.07846      3752.41046        43.168    24005697.86841
  98299338.85741      2923.94941        31.165  
  24562419.90541 129076386.91151      2571.30141        31.023                  
                                                
  22681931.76146 119194351.91946      -697.71946        42.987    22681931.54541
  92878709.34041      -543.68441        31.248  
  23218029.87447 122011563.19547     -2374.77347        43.634    23218029.34243
  95073953.16643     -1850.47743        36.296  
  20256603.01149 116379621.68349       566.74249        48.980    20256600.44446
  90683689.83946       441.61346        42.732  
  23887962.88046 125532072.66446     -2187.22346        41.770    23887962.15843
  97817178.80643     -1704.33243        35.939  
  23120878.96746 121501031.30846     -2854.00446        42.557    23120877.32441
  94676118.04141     -2223.90241        30.591  
  20059418.82549 115343417.56549     -1188.05949        50.114    20059416.82346
  89876268.10446      -925.76246        42.968  
  21698275.09149 114025207.81949      2704.22349        48.147    21698274.25044
  88850810.73844      2107.18444        38.721  
  21994636.11349 115582585.10649      2488.12549        47.917    21994631.40044
  90064326.97344      1938.79744        37.600  
 04 07 03 06 21 14.0000000  0  9G30G15G26G18G29G21G 9G 5G22                     
  24004981.93246 126147042.40046      3752.60546        43.069    24004983.81241
  98296414.70341      2924.10541        30.814  
  22682064.56746 119195049.80646      -698.28146        42.912    22682064.40441
  92879253.15441      -544.11741        30.654  
  23218481.75247 122013937.91347     -2374.98847        43.801    23218481.28244
  95075803.59344     -1850.64544        37.355  
  20256495.21549 116379055.23449       565.98049        48.973    20256492.65346
  90683248.45146       441.02046        42.952  
  23888379.15846 125534260.26546     -2187.85946        41.791    23888378.44242
  97818883.42842     -1704.82842        34.241  
  23121422.00946 121503885.00446     -2854.00846        42.610    23121420.33941
  94678341.69241     -2223.90641        31.852  
  20059644.91349 115344605.70749     -1188.56249        50.080    20059642.92146
  89877193.93146      -926.15646        43.006  
  21697760.53749 114022503.77849      2703.77049        48.022    21697759.70344
  88848703.69644      2106.83244        38.720  
  21994162.63649 115580096.94149      2487.84049        47.865    21994157.97244
  90062388.13844      1938.57444        37.270  
 04 07 03 06 21 15.0000000  0  9G30G15G26G18G29G21G 9G 5G22                     
  24004267.83046 126143289.75546      3752.70746        43.076    24004269.62042
  98293490.57742      2924.18442        32.677  
  22682197.50546 119195748.32846      -698.77046        42.920    22682197.30941
  92879797.47941      -544.50041        28.069  
  23218933.65047 122016312.75947     -2375.18047        43.440    23218933.19643
  95077654.12043     -1850.79343        35.534  
  20256387.53549 116378489.38949       565.36349        48.935    20256384.97546
  90682807.53246       440.53946        42.666  
  23888795.45146 125536447.95846     -2187.75446        42.041    23888794.71241
  97820588.12041     -1704.74641        32.212  
  23121965.11146 121506738.93646     -2854.12146        42.539    23121963.44842
  94680565.53042     -2223.99242        34.288  
  20059871.10149 115345794.33549     -1188.86749        50.003    20059869.10046
  89878120.13446      -926.39546        42.999  
  21697246.06149 114019800.15449      2703.30149        47.970    21697245.21744
  88846596.97744      2106.46544        38.144  
  21993689.22649 115577609.13449      2487.57049        47.966    21993684.56144
  90060449.58844      1938.36344        37.135  
 04 07 03 06 21 16.0000000  0  9G30G15G26G18G29G21G 9G 5G22                     
  24003553.73646 126139537.11246      3752.64146        43.141    24003555.45641
  98290566.44241      2924.13341        28.498  
  22682330.57246 119196447.49246      -699.56246        42.979    22682330.32343
  92880342.28643      -545.11743        35.384  
  23219385.55847 122018687.73047     -2375.21947        43.379    23219385.17043
  95079504.74943     -1850.82443        36.331  
  20256279.97949 116377924.18249       564.80149        48.935    20256277.41446
  90682367.11146       440.10246        43.000  
  23889211.78446 125538635.76446     -2187.75846        41.915    23889211.02443
  97822292.90943     -1704.75043        35.093  
  23122508.24346 121509593.09546     -2854.43446        42.581    23122506.60141
  94682789.54741     -2224.23841        29.182  
  20060097.37849 115346983.47349     -1189.52049        49.992    20060095.38246
  89879046.73846      -926.90246        43.014  
  21696731.66749 114017096.96749      2702.99249        47.996    21696730.83445
  88844490.60145      2106.22345        38.955  
  21993215.88449 115575121.68749      2487.23449        47.800    21993211.23544
  90058511.31844      1938.10244        37.794  
 04 07 03 06 21 17.0000000  0  9G30G15G26G18G29G21G 9G 5G22                     
  24002839.62046 126135784.45246      3752.64146        43.075    24002841.40741
  98287642.30041      2924.13741        27.679  
  22682463.74046 119197147.24346      -700.10546        43.078    22682463.46942
  92880887.53442      -545.53942        32.460  
  23219837.48047 122021062.71647     -2375.38347        43.438    23219837.15743
  95081355.38343     -1850.94943        35.956  
  20256172.53149 116377359.54449       564.10549        48.881    20256169.95346
  90681927.13346       439.55946        42.309  
  23889628.13146 125540823.66246     -2188.13746        42.296    23889627.38142
  97823997.77142     -1705.04342        34.245  
  23123051.40746 121512447.43146     -2854.57846        42.721    23123049.77142
  94685013.72242     -2224.35242        33.241  
  20060323.74349 115348173.06049     -1190.02349        49.937    20060321.75146
  89879973.69146      -927.29346        42.686  
  21696217.35149 114014394.16249      2702.42649        47.872    21696216.51545
  88842384.52345      2105.78145        39.544  
  21992742.59948 115572634.55948      2486.73848        47.685    21992737.95544
  90056573.29744      1937.71544        38.058  
 04 07 03 06 21 18.0000000  0  9G30G15G26G18G29G21G 9G 5G22                     
  24002125.53546 126132031.96946      3752.33646        42.721    24002127.30342
  98284718.30842      2923.89842        32.504  
  22682597.04246 119197847.76146      -700.98446        43.182    22682596.72141
  92881433.39441      -546.22741        31.137  
  23220289.46347 122023437.98347     -2375.43847        43.533    23220289.14944
  95083206.23744     -1850.99244        36.817  
  20256065.22749 116376795.65849       563.40249        48.944    20256062.64346
  90681487.73946       439.01246        42.849  
  23890044.54246 125543011.87546     -2188.84446        42.230    23890043.75543
  97825702.86443     -1705.59843        35.341  
  23123594.63746 121515302.13846     -2854.85546        42.694    23123593.08641
  94687238.17941     -2224.56641        29.954  
  20060550.22849 115349363.26949     -1190.60949        49.987    20060548.23746
  89880901.12446      -927.75046        42.595  
  21695703.12549 114011691.90849      2701.92649        47.985    21695702.30544
  88840278.86944      2105.39544        38.871  
  21992269.40949 115570147.92449      2486.35549        47.790    21992264.79344
  90054635.65744      1937.41844        37.418  
 04 07 03 06 21 19.0000000  0  9G30G15G26G18G29G21G 9G 5G22                     
  24001411.46746 126128279.52646      3752.55146        41.994    24001413.22041
  98281794.32241      2924.06641        31.889  
  22682730.49747 119198548.99747      -701.51647        43.673    22682730.10141
  92881979.81341      -546.64141        31.734  
  23220741.46847 122025813.43647     -2375.50447        43.595    23220741.19744
  95085057.23744     -1851.04744        37.069  
  20255958.05249 116376232.45749       562.81249        48.908    20255955.46646
  90681048.87946       438.55146        42.472  
  23890460.96546 125545200.22646     -2188.39846        42.383    23890460.22443
  97827408.06143     -1705.25443        34.541  
  23124137.93846 121518157.16146     -2855.13346        42.858    23124136.42743
  94689462.85343     -2224.78143        34.689  
  20060776.81849 115350554.05249     -1191.04749        49.933    20060774.83546
  89881829.00846      -928.09046        43.150  
  21695189.00649 114008990.16149      2701.38749        47.975    21695188.18745
  88838173.61045      2104.97345        39.209  
  21991796.30248 115567661.72248      2485.93848        47.611    21991791.70044
  90052698.35644      1937.09044        38.032  
 04 07 03 06 21 20.0000000  0  9G30G15G26G18G29G21G 9G 5G22                     
  24000697.41246 126124527.15346      3752.30946        42.713    24000699.16041
  98278870.41741      2923.88341        25.087  
  22682864.06247 119199250.87347      -702.30147        43.611    22682863.59141
  92882526.71941      -547.25041        27.773  
  23221193.49846 122028189.03946     -2375.64146        43.270    23221193.26843
  95086908.36943     -1851.15243        34.607  
  20255851.00249 116375669.91149       562.15649        48.884    20255848.41246
  90680610.53346       438.03946        42.624  
  23890877.42646 125547388.69646     -2188.68046        42.656    23890876.62042
  97829113.34742     -1705.47342        32.713  
  23124681.28146 121521012.41046     -2855.30146        42.917    23124679.71541
  94691687.72541     -2224.91441        31.675  
  20061003.50849 115351745.35449     -1191.55949        49.916    20061001.53946
  89882757.29646      -928.49246        42.989  
  21694674.96549 114006288.84649      2701.00049        47.972    21694674.16144
  88836068.68844      2104.67244        38.773  
  21991323.26148 115565175.90848      2485.48848        47.515    21991318.67744
  90050761.36244      1936.74244        38.012  
 04 07 03 06 21 21.0000000  0  9G30G15G26G18G29G21G 9G 5G22                     
  23999983.36746 126120774.85646      3752.11346        42.726    23999985.02041
  98275946.53041      2923.72341        29.894  
  22682997.78047 119199953.47147      -703.31247        43.623    22682997.24041
  92883074.18741      -548.03941        29.051  
  23221645.56147 122030564.80547     -2376.16447        43.572    23221645.35043
  95088759.60543     -1851.55943        35.259  
  20255744.08249 116375108.05449       561.28149        48.897    20255741.48846
  90680172.72646       437.35946        42.867  
  23891293.91846 125549577.40946     -2189.30146        42.696    23891293.10441
  97830818.83241     -1705.95741        31.129  
  23125224.68246 121523867.99946     -2856.20346        43.041    23125223.21542
  94693912.85842     -2225.61742        33.171  
  20061230.30749 115352937.21849     -1192.35949        49.828    20061228.33047
  89883686.02047      -929.11347        43.551  
  21694161.02749 114003588.03249      2700.44949        47.867    21694160.23345
  88833964.15945      2104.24245        38.917  
  21990850.30548 115562690.51448      2485.00848        47.510    21990845.72043
  90048824.69443      1936.36743        36.376  
 04 07 03 06 21 22.0000000  0  9G30G15G26G18G29G21G 9G 5G22                     
  23999269.30446 126117022.44646      3752.29746        42.596    23999270.90341
  98273022.58841      2923.86741        29.943  
  22683131.57746 119200656.51546      -703.37946        43.291    22683131.00441
  92883622.02541      -548.09041        30.356  
  23222097.63147 122032940.54847     -2375.89547        43.591    23222097.46144
  95090610.83144     -1851.34844        37.119  
  20255637.25249 116374546.66349       561.00049        48.891    20255634.65446
  90679735.27846       437.14146        42.913  
  23891710.41346 125551766.08846     -2188.59446        42.110    23891709.55643
  97832524.29543     -1705.40643        35.053  
  23125768.08246 121526723.64446     -2855.77746        43.006    23125766.56841
  94696138.03841     -2225.28541        28.104  
  20061457.16449 115354129.44149     -1192.58249        49.840    20061455.19546
  89884615.02246      -929.28946        43.101  
  21693647.13749 114000887.51349      2700.19149        47.876    21693646.37045
  88831859.86045      2104.04345        39.580  
  21990377.38648 115560205.34348      2484.91448        47.246    21990372.80744
  90046888.20044      1936.29344        37.093  
 04 07 03 06 21 23.0000000  0  9G30G15G26G18G29G21G 9G 5G22                     
  23998555.20546 126113269.89246      3752.60246        42.693    23998556.73541
  98270098.51541      2924.10241        32.131  
  22683265.47047 119201360.09147      -704.00847        43.388    22683264.89541
  92884170.27341      -548.58241        29.807  
  23222549.70046 122035316.26746     -2376.09446        43.325    23222549.55444
  95092462.04744     -1851.50444        37.736  
  20255530.51349 116373985.75549       560.52349        48.806    20255527.90646
  90679298.20346       436.77046        42.468  
  23892126.89546 125553954.75546     -2188.85546        42.389    23892126.04243
  97834229.74243     -1705.60943        35.668  
  23126311.51146 121529579.39946     -2855.95746        43.055    23126309.96241
  94698363.31141     -2225.42641        31.365  
  20061684.09849 115355322.01049     -1192.87549        49.836    20061682.13946
  89885544.29746      -929.51646        43.064  
  21693133.29849 113998187.27449      2699.88349        48.004    21693132.54944
  88829755.78444      2103.80144        38.829  
  21989904.51748 115557720.38448      2484.66448        47.251    21989899.94944
  90044951.86944      1936.09844        37.923  
 04 07 03 06 21 24.0000000  0  9G30G15G26G18G29G21G 9G 5G22                     
  23997841.10246 126109517.33146      3752.33246        43.037    23997842.67241
  98267174.44641      2923.89141        28.974  
  22683399.47646 119202064.23146      -704.50846        43.179    22683398.90741
  92884718.96241      -548.96941        30.060  
  23223001.77347 122037692.03247     -2375.95747        43.374    23223001.64243
  95094313.29143     -1851.39843        36.190  
  20255423.88749 116373425.41149       559.92649        48.775    20255421.27246
  90678861.57446       436.30146        43.057  
  23892543.37846 125556143.49746     -2188.87546        42.419    23892542.51742
  97835935.25142     -1705.62542        33.356  
  23126854.98046 121532435.29846     -2856.19546        43.089    23126853.50142
  94700588.68342     -2225.60942        33.764  
  20061911.11649 115356515.02749     -1193.32449        49.819    20061909.16346
  89886473.91946      -929.86746        42.581  
  21692619.53949 113995487.40649      2699.50449        48.121    21692618.77445
  88827651.99545      2103.50845        39.427  
  21989431.70648 115555235.74748      2484.37148        47.212    21989427.13744
  90043015.79244      1935.87144        37.766  
 04 07 03 06 21 25.0000000  0  9G30G15G26G18G29G21G 9G 5G22                     
  23997127.00746 126105764.74546      3752.21546        43.039    23997128.52642
  98264250.36042      2923.80542        32.469  
  22683533.59046 119202768.98146      -705.17246        42.948    22683533.04141
  92885268.11541      -549.48841        31.291  
  23223453.86647 122040067.88147     -2375.96547        43.802    23223453.76743
  95096164.60243     -1851.40643        35.829  
  20255317.36649 116372865.65049       559.36349        48.799    20255314.75146
  90678425.39846       435.86346        42.955  
  23892959.90346 125558332.33246     -2188.59846        42.455    23892959.00643
  97837640.85243     -1705.40243        35.344  
  23127398.48646 121535291.41046     -2856.33246        42.842    23127396.99542
  94702814.22742     -2225.71542        32.624  
  20062138.21549 115357708.50849     -1193.89849        49.791    20062136.26846
  89887403.90346      -930.31246        42.600  
  21692105.85149 113992787.93349      2699.32449        48.139    21692105.08845
  88825548.51245      2103.36745        39.277  
  21988958.94148 115552751.43148      2484.07848        47.108    21988954.40044
  90041079.96344      1935.64144        38.360  
 04 07 03 06 21 26.0000000  0  9G30G15G26G18G29G21G 9G 5G22                     
  23996412.95646 126102012.25646      3752.10946        42.965    23996414.38641
  98261326.33241      2923.71941        30.929  
  22683667.83846 119203474.40146      -705.90646        43.321    22683667.22442
  92885817.79342      -550.05942        32.622  
  23223905.99747 122042443.93547     -2376.32447        43.557    23223905.96144
  95098016.06344     -1851.68444        36.844  
  20255210.98249 116372306.57949       558.47749        48.747    20255208.35946
  90677989.75846       435.17246        42.476  
  23893376.46546 125560521.37946     -2189.68846        42.771    23893375.52442
  97839346.59342     -1706.25442        32.277  
  23127942.04446 121538147.82246     -2856.88346        42.901    23127940.56842
  94705040.00242     -2226.14542        32.561  
  20062365.42649 115358902.54149     -1194.55549        49.808    20062363.48346
  89888334.31746      -930.82446        43.255  
  21691592.26049 113990088.94949      2698.43049        48.254    21691591.51045
  88823445.40945      2102.66845        39.446  
  21988486.25848 115550267.53548      2483.46148        47.061    21988481.72344
  90039144.46044      1935.16044        38.518  
 04 07 03 06 21 27.0000000  0  9G30G15G26G18G29G21G 9G 5G22                     
  23995698.90446 126098259.84146      3752.11746        43.114    23995700.31541
  98258402.38441      2923.72741        29.858  
  22683802.23346 119204180.55346      -706.76246        42.994    22683801.53141
  92886368.04541      -550.72741        31.059  
  23224358.16247 122044820.14047     -2376.34847        43.771    23224358.11042
  95099867.63942     -1851.70742        33.979  
  20255104.72149 116371748.19949       557.79349        48.757    20255102.09646
  90677554.65546       434.64146        43.160  
  23893793.04646 125562710.59246     -2189.63746        42.274    23893792.08444
  97841052.46944     -1706.21544        37.135  
  23128485.64646 121541004.50246     -2856.85946        42.751    23128484.16841
  94707265.97541     -2226.12941        30.298  
  20062592.74349 115360097.14649     -1195.00849        49.747    20062590.82146
  89889265.18146      -931.18046        42.825  
  21691078.75949 113987390.46449      2698.03149        48.057    21691078.00744
  88821342.69344      2102.35944        38.756  
  21988013.65948 115547784.07948      2483.06648        47.163    21988009.12444
  90037209.29844      1934.85544        36.907  
 04 07 03 06 21 28.0000000  0  9G30G15G26G18G29G21G 9G 5G22                     
  23994984.86146 126094507.51446      3752.17646        43.182    23994986.25441
  98255478.52341      2923.77741        31.071  
  22683936.74746 119204887.39246      -707.30146        43.232    22683936.03441
  92886918.81441      -551.14841        29.183  
  23224810.35647 122047196.55247     -2376.70347        43.391    23224810.33444
  95101719.38844     -1851.98044        37.307  
  20254998.60049 116371190.52749       557.10949        48.822    20254995.97246
  90677120.10646       434.10946        41.957  
  23894209.68146 125564900.03746     -2189.75846        42.446    23894208.72643
  97842758.52243     -1706.30943        34.564  
  23129029.31446 121543861.51446     -2857.09846        42.632    23129027.78142
  94709492.20142     -2226.31642        33.016  
  20062820.17049 115361292.31849     -1195.60249        49.689    20062818.26346
  89890196.48346      -931.64146        42.555  
  21690565.36049 113984692.47649      2697.50849        48.162    21690564.61845
  88819240.36745      2101.94945        38.891  
  21987541.14448 115545301.04948      2482.60948        47.092    21987536.59844
  90035274.47244      1934.49644        37.624  
 04 07 03 06 21 29.0000000  0  9G30G15G26G18G29G21G 9G 5G22                     
  23994270.83947 126090755.23947      3752.25447        43.552    23994272.12341
  98252554.68341      2923.84041        31.320  
  22684071.40346 119205594.88646      -707.78146        43.107    22684070.62941
  92887470.09841      -551.52041        30.648  
  23225262.58947 122049573.08347     -2376.62147        43.386    23225262.59143
  95103571.22843     -1851.91443        36.199  
  20254892.59749 116370633.46849       556.70349        48.838    20254889.95246
  90676686.03246       433.79346        43.330  
  23894626.34346 125567089.59446     -2189.90246        42.810    23894625.38141
  97844464.66941     -1706.42641        30.704  
  23129573.02946 121546718.75946     -2857.38346        42.717    23129571.52642
  94711718.61942     -2226.53942        32.839  
  20063047.68349 115362487.99449     -1195.96149        49.696    20063045.80346
  89891128.18046      -931.92246        43.086  
  21690052.03149 113981994.92549      2697.21149        48.370    21690051.31845
  88817138.38045      2101.71945        39.922  
  21987068.68748 115542818.39648      2482.40648        47.013    21987064.16044
  90033339.94244      1934.34044        38.257  
 04 07 03 06 21 30.0000000  0  9G30G15G26G18G29G21G 9G 5G22                     
  23993556.79547 126087002.81847      3752.50047        43.743    23993558.04441
  98249630.70341      2924.02341        25.707  
  22684206.12946 119206302.85546      -708.19146        42.843    22684205.33842
  92888021.77342      -551.84042        33.110  
  23225714.80647 122051949.57747     -2376.45747        43.556    23225714.87443
  95105423.04443     -1851.78943        35.901  
  20254786.68849 116370076.88449       556.25849        48.902    20254784.02646
  90676252.32946       433.44546        43.228  
  23895042.99546 125569279.15646     -2189.85946        42.781    23895042.03342
  97846170.81342     -1706.39142        32.697  
  23130116.75246 121549576.09146     -2857.38746        42.275    23130115.21141
  94713945.11341     -2226.54341        32.174  
  20063275.26949 115363684.01249     -1196.21549        49.707    20063273.39546
  89892060.14146      -932.11746        43.193  
  21689538.76549 113979297.64549      2697.05549        48.269    21689538.06145
  88815036.60445      2101.59845        39.246  
  21986596.27648 115540335.95548      2482.25448        46.785    21986591.76344
  90031405.57144      1934.21944        37.628  
 04 07 03 06 21 31.0000000  0  9G30G15G26G18G29G21G 9G 5G22                     
  23992842.74147 126083250.34747      3752.40647        43.606    23992843.95841
  98246706.69241      2923.94941        27.974  
  22684340.98546 119207011.40646      -709.06646        42.921    22684340.12343
  92888573.88643      -552.52343        34.689  
  23226167.02146 122054326.11746     -2376.80146        43.227    23226167.12644
  95107274.88844     -1852.05544        37.123  
  20254680.88649 116369520.86849       555.64549        48.891    20254678.21646
  90675819.07146       432.96546        42.905  
  23895459.64646 125571468.74046     -2189.81246        42.360    23895458.65542
  97847876.97642     -1706.35242        33.756  
  23130660.50146 121552433.56546     -2857.66846        42.400    23130658.98742
  94716171.71642     -2226.75842        32.257  
  20063502.94449 115364880.48249     -1196.85549        49.707    20063501.07346
  89892992.45546      -932.61746        42.939  
  21689025.56949 113976600.74549      2696.44149        48.234    21689024.88545
  88812935.12545      2101.12145        40.007  
  21986123.92748 115537853.82148      2481.73848        46.805    21986119.42044
  90029471.44744      1933.82044        37.400  
 04 07 03 06 21 32.0000000  0  9G30G15G26G18G29G21G 9G 5G22                     
  23992128.69846 126079497.98846      3752.22346        43.003    23992129.90641
  98243782.77441      2923.80941        28.765  
  22684475.96046 119207720.66246      -709.51646        42.938    22684475.12441
  92889126.56041      -552.87141        28.353  
  23226619.27647 122056702.84047     -2376.84447        43.362    23226619.42943
  95109126.87843     -1852.09043        36.462  
  20254575.21249 116368965.54849       554.93449        48.987    20254572.52646
  90675386.35346       432.41446        42.481  
  23895876.34346 125573658.51846     -2189.51646        42.640    23895875.34543
  97849583.30243     -1706.12143        34.829  
  23131204.31046 121555291.36446     -2858.27746        42.374    23131202.78941
  94718398.55241     -2227.23441        31.352  
  20063730.72749 115366077.50949     -1197.39549        49.637    20063728.86646
  89893925.20246      -933.03946        42.710  
  21688512.47249 113973904.34149      2696.12949        48.156    21688511.79845
  88810834.02945      2100.87545        39.318  
  21985651.65048 115535372.11448      2481.41048        46.891    21985647.14744
  90027537.65144      1933.56244        37.427  
 04 07 03 06 21 33.0000000  0  9G30G15G26G18G29G21G 9G 5G22                     
  23991414.67146 126075745.71346      3752.22746        43.281    23991415.80841
  98240858.92841      2923.80941        23.295  
  22684611.06846 119208430.62646      -710.50846        42.669    22684610.21441
  92889679.78741      -553.64541        28.829  
  23227071.56246 122059079.77546     -2377.06646        42.938    23227071.76744
  95110979.03144     -1852.26244        37.049  
  20254469.67849 116368410.93449       554.06649        48.930    20254466.98546
  90674954.18346       431.73846        42.678  
  23896293.09046 125575848.55546     -2190.21946        42.859    23896292.05841
  97851289.81841     -1706.67241        30.894  
  23131748.19046 121558149.47846     -2858.36346        42.473    23131746.69741
  94720625.66341     -2227.30141        28.833  
  20063958.61649 115367275.11249     -1198.07449        49.655    20063956.76246
  89894858.39746      -933.56646        42.875  
  21687999.46949 113971208.44549      2695.47349        48.316    21687998.79944
  88808733.33344      2100.36344        38.712  
  21985179.47348 115532890.86248      2480.90648        47.051    21985174.97744
  90025604.20944      1933.17244        37.515  
 04 07 03 06 21 34.0000000  0  9G30G15G26G18G29G21G 9G 5G22                     
  23990700.67246 126071993.53846      3752.10946        43.271    23990701.75741
  98237935.15741      2923.71941        20.676  
  22684746.29446 119209141.26846      -710.98046        42.927    22684745.43942
  92890233.53442      -554.01642        32.876  
  23227523.89446 122061456.86246     -2377.19146        43.038    23227524.11744
  95112831.30944     -1852.35944        37.633  
  20254364.26849 116367856.98149       553.59449        48.920    20254361.56346
  90674522.53146       431.36746        42.895  
  23896709.84846 125578038.70646     -2190.27046        43.023    23896708.77242
  97852996.42642     -1706.70742        33.726  
  23132292.13446 121561007.85946     -2858.66446        42.211    23132290.57942
  94722852.96142     -2227.53942        33.801  
  20064186.61349 115368473.26049     -1198.51649        49.748    20064184.76246
  89895792.02046      -933.91046        43.177  
  21687486.55049 113968513.01649      2695.16849        48.225    21687485.89545
  88806632.99945      2100.12945        39.369  
  21984707.37148 115530410.01748      2480.55148        46.974    21984702.87944
  90023671.08244      1932.89544        37.958  
 04 07 03 06 21 35.0000000  0  9G30G15G26G18G29G21G 9G 5G22                     
  23989986.65946 126068241.32646      3752.30546        43.324    23989987.66741
  98235011.37341      2923.87541        29.313  
  22684881.65646 119209852.50946      -711.64146        43.192    22684880.76041
  92890787.73941      -554.52741        29.839  
  23227976.23746 122063834.04646     -2377.24246        42.934    23227976.45744
  95114683.65644     -1852.39844        37.437  
  20254258.96449 116367303.61049       553.06649        48.967    20254256.25246
  90674091.33446       430.95746        42.849  
  23897126.63146 125580228.97346     -2189.93846        43.006    23897125.57242
  97854703.13842     -1706.44942        32.986  
  23132836.07646 121563866.40846     -2858.34446        41.722    23132834.51141
  94725080.40941     -2227.28541        28.894  
  20064414.68949 115369671.85449     -1198.88349        49.753    20064412.84146
  89896725.99146      -934.19946        42.847  
  21686973.70849 113965817.98349      2694.85949        48.136    21686973.04945
  88804532.97345      2099.88745        39.469  
  21984235.33348 115527929.48048      2480.41848        47.084    21984230.86144
  90021738.19744      1932.78944        38.516  
 04 07 03 06 21 36.0000000  0  9G30G15G26G18G29G21G 9G 5G22                     
  23989272.64346 126064489.11946      3752.17246        43.245    23989273.62141
  98232087.56841      2923.76641        23.219  
  22685017.12447 119210564.35347      -712.19947        43.400    22685016.24741
  92891342.41841      -554.96541        30.246  
  23228428.58946 122066211.31746     -2377.45746        43.210    23228428.83343
  95116536.07143     -1852.56643        36.317  
  20254153.77849 116366750.84049       552.23849        49.030    20254151.05946
  90673660.60446       430.31246        42.857  
  23897543.44146 125582419.34946     -2190.66846        43.090    23897542.37442
  97856409.92142     -1707.01642        32.599  
  23133380.09046 121566725.20346     -2858.74646        41.705    23133378.61543
  94727308.06043     -2227.59843        34.860  
  20064642.85749 115370870.92249     -1199.32849        49.858    20064641.01046
  89897660.32746      -934.54346        43.155  
  21686460.94549 113963123.35149      2694.19949        48.150    21686460.29844
  88802433.26444      2099.37144        38.863  
  21983763.35548 115525449.29648      2479.77748        47.049    21983758.90643
  90019805.58643      1932.28943        36.521  
 04 07 03 06 21 37.0000000  0  9G30G15G26G18G29G21G 9G 5G22                     
  23988558.62046 126060736.86046      3752.23846        42.753    23988559.58641
  98229163.74641      2923.82441        29.324  
  22685152.70646 119211276.77546      -712.94546        42.862    22685151.81541
  92891897.57241      -555.54341        30.295  
  23228880.97347 122068588.64047     -2377.40247        43.386    23228881.21743
  95118388.53343     -1852.52343        36.297  
  20254048.69549 116366198.62349       551.86749        48.970    20254045.96646
  90673230.30246       430.02346        43.285  
  23897960.25546 125584609.77846     -2190.69946        42.861    23897959.18443
  97858116.74243     -1707.04343        34.969  
  23133924.11646 121569584.15246     -2859.02346        41.991    23133922.66142
  94729535.82742     -2227.80942        32.278  
  20064871.11149 115372070.43549     -1199.87149        49.703    20064869.28346
  89898595.01346      -934.96946        42.814  
  21685948.25049 113960429.08149      2693.92249        48.265    21685947.60745
  88800333.83645      2099.15645        39.974  
  21983291.43348 115522969.41248      2479.63748        46.972    21983286.98444
  90017873.20644      1932.18044        37.671  
 04 07 03 06 21 38.0000000  0  9G30G15G26G18G29G21G 9G 5G22                     
  23987844.58646 126056984.57346      3752.03946        42.700    23987845.55141
  98226239.86541      2923.66441        30.041  
  22685288.38747 119211989.76547      -713.30147        43.657    22685287.54642
  92892453.15842      -555.82042        32.273  
  23229333.33846 122070965.99846     -2377.45346        43.268    23229333.61343
  95120241.02543     -1852.56243        35.377  
  20253943.71649 116365646.97249       551.31649        48.937    20253940.98646
  90672800.44446       429.59446        43.018  
  23898377.09246 125586800.29546     -2190.48046        43.099    23898376.01843
  97859823.64143     -1706.87143        34.731  
  23134468.18946 121572443.26146     -2859.24646        41.891    23134466.71941
  94731763.71541     -2227.98441        31.634  
  20065099.44449 115373270.37949     -1200.35249        49.752    20065097.63146
  89899530.03746      -935.34446        43.173  
  21685435.63149 113957735.17749      2693.64849        48.257    21685434.98345
  88798234.69745      2098.94545        39.541  
  21982819.57948 115520489.83648      2479.19948        47.171    21982815.14244
  90015941.07344      1931.84044        37.205  
 04 07 03 06 21 39.0000000  0  9G30G15G26G18G29G21G 9G 5G22                     
  23987130.54746 126053232.22546      3751.91846        42.838    23987131.41741
  98223315.94841      2923.57041        31.775  
  22685424.18247 119212703.31447      -713.94547        43.625    22685423.34142
  92893009.15642      -556.32442        34.032  
  23229785.72647 122073343.41047     -2377.62947        43.388    23229786.05143
  95122093.55443     -1852.69943        36.204  
  20253838.85749 116365095.88549       550.57049        48.907    20253836.11546
  90672371.02546       429.01246        43.209  
  23898793.94546 125588990.86246     -2190.91846        43.167    23898792.77742
  97861530.56942     -1707.21142        33.922  
  23135012.26546 121575302.56146     -2859.53946        41.655    23135010.83942
  94733991.73442     -2228.21542        32.707  
  20065327.85849 115374470.74749     -1200.74249        49.632    20065326.06446
  89900465.39246      -935.64546        42.698  
  21684923.07049 113955041.64249      2693.14149        48.214    21684922.43145
  88796135.83745      2098.54745        39.033  
  21982347.77948 115518010.54848      2479.03148        47.160    21982343.34143
  90014009.15843      1931.71143        36.629  
 04 07 03 06 21 40.0000000  0  9G30G15G26G18G29G21G 9G 5G22                     
  23986416.50446 126049479.93446      3752.06646        42.749    23986417.34741
  98220392.06241      2923.67641        23.868  
  22685560.11147 119213417.54447      -714.66847        43.391    22685559.19842
  92893565.69642      -556.88742        33.093  
  23230238.14746 122075720.99846     -2377.78546        43.132    23230238.50243
  95123946.21443     -1852.82443        36.006  
  20253734.12049 116364545.44149       549.90649        48.866    20253731.36346
  90671942.10446       428.49646        43.206  
  23899210.83246 125591181.59546     -2191.12146        43.187    23899209.60642
  97863237.61242     -1707.37942        32.997  
  23135556.41446 121578162.10946     -2859.60546        41.754    23135555.02041
  94736219.94141     -2228.26641        31.620  
  20065556.37249 115375671.65749     -1201.31249        49.694    20065554.60446
  89901401.16546      -936.09046        42.952  
  21684410.60649 113952348.57849      2692.60549        48.362    21684409.96645
  88794037.35145      2098.13345        39.048  
  21981876.05948 115515531.66848      2478.59448        47.050    21981871.61544
  90012077.56544      1931.36744        37.692  
 04 07 03 06 21 41.0000000  0  9G30G15G26G18G29G21G 9G 5G22                     
  23985702.48246 126045727.72846      3751.84846        42.228    23985703.22541
  98217468.25641      2923.51241        23.981  
  22685696.17047 119214132.45147      -715.54747        43.805    22685695.22041
  92894122.76541      -557.57041        31.851  
  23230690.58647 122078098.70147     -2378.12547        43.419    23230690.97243
  95125798.96243     -1853.08643        36.450  
  20253629.50149 116363995.67349       549.37149        48.860    20253626.73546
  90671513.71446       428.07846        42.903  
  23899627.74846 125593372.50346     -2191.24646        43.177    23899626.51843
  97864944.80943     -1707.47343        35.603  
  23136100.60946 121581021.93546     -2860.19946        41.892    23136099.22341
  94738448.35441     -2228.73441        27.515  
  20065784.99349 115376873.10349     -1202.02349        49.721    20065783.23446
  89902337.35946      -936.64546        43.029  
  21683898.22949 113949655.97449      2692.24649        48.342    21683897.58045
  88791939.21545      2097.85245        39.755  
  21981404.41548 115513053.19248      2478.12148        47.074    21981399.96444
  90010146.28244      1931.00044        36.678  
 04 07 03 06 21 42.0000000  0  9G30G15G26G18G29G21G 9G 5G22                     
  23984988.47346 126041975.54746      3752.27746        42.599    23984989.07842
  98214544.50842      2923.84842        32.517  
  22685832.34547 119214848.00547      -715.98047        44.026    22685831.33642
  92894680.33942      -557.91042        33.667  
  23231143.06146 122080476.57346     -2377.82046        43.147    23231143.48643
  95127651.85743     -1852.85243        36.537  
  20253525.00849 116363446.56449       548.68049        48.877    20253522.24246
  90671085.83446       427.53946        42.699  
  23900044.72646 125595563.60146     -2191.21546        43.034    23900043.42341
  97866652.14441     -1707.44541        29.071  
  23136644.85146 121583882.02646     -2860.36346        41.657    23136643.41741
  94740677.00241     -2228.85941        30.299  
  20066013.71049 115378075.07849     -1202.28949        49.765    20066011.97046
  89903273.96146      -936.85246        42.846  
  21683385.94149 113946963.85149      2691.73049        48.474    21683385.30145
  88789841.45745      2097.44945        39.461  
  21980932.83948 115510575.11548      2477.86348        46.970    21980928.40044
  90008215.31444      1930.80144        37.854  
 04 07 03 06 21 43.0000000  0  9G30G15G26G18G29G21G 9G 5G22                     
  23984274.46646 126038223.37746      3751.94946        42.865    23984275.00641
  98211620.75441      2923.59441        30.714  
  22685968.65547 119215564.16947      -716.37947        43.989    22685967.60641
  92895238.38641      -558.21941        30.433  
  23231595.56346 122082854.56046     -2378.36746        43.170    23231596.04143
  95129504.83243     -1853.27743        35.592  
  20253420.63049 116362898.03749       548.22749        48.950    20253417.86946
  90670658.41246       427.18846        42.849  
  23900461.69046 125597754.76346     -2191.22346        43.211    23900460.32642
  97868359.54442     -1707.45342        33.019  
  23137189.15946 121586742.31646     -2860.50846        42.306    23137187.69141
  94742905.79341     -2228.97341        25.578  
  20066242.51449 115379277.52249     -1202.85549        49.721    20066240.78246
  89904210.92946      -937.29346        42.686  
  21682873.72549 113944272.11049      2691.44549        48.366    21682873.08345
  88787744.00345      2097.22745        39.691  
  21980461.33548 115508097.36848      2477.49248        47.034    21980456.88444
  90006284.60744      1930.51244        37.603  
 04 07 03 06 21 44.0000000  0  9G30G15G26G18G29G21G 9G 5G22                     
  23983560.44146 126034471.11746      3752.08646        42.898    23983560.95141
  98208696.89941      2923.69941        29.500  
  22686105.04347 119216280.86747      -717.01247        44.089    22686104.01541
  92895796.84841      -558.71541        31.814  
  23232048.05746 122085232.53846     -2378.16046        43.239    23232048.56143
  95131357.80243     -1853.11343        36.443  
  20253316.35149 116362350.03549       547.65249        48.827    20253313.58846
  90670231.39646       426.73846        43.126  
  23900878.65546 125599945.94346     -2191.31246        43.077    23900877.21942
  97870066.94942     -1707.52342        33.993  
  23137733.48046 121589602.70946     -2860.41046        42.244    23137732.04841
  94745134.63441     -2228.90641        31.684  
  20066471.39049 115380480.35549     -1203.10949        49.734    20066469.68346
  89905148.20146      -937.49246        42.767  
  21682361.57749 113941580.70149      2691.16449        48.434    21682360.93645
  88785646.80445      2097.00845        39.564  
  21979989.88248 115505619.88848      2477.32848        47.115    21979985.42044
  90004354.10444      1930.38344        37.398  
 04 07 03 06 21 45.0000000  0  9G30G15G26G18G29G21G 9G 5G22                     
  23982846.39246 126030718.76346      3752.13746        42.939    23982847.05641
  98205772.99841      2923.73841        30.883  
  22686241.53147 119216998.08247      -717.87947        44.182    22686240.48741
  92896355.71341      -559.39141        30.694  
  23232500.54746 122087610.51846     -2378.36746        43.123    23232501.07543
  95133210.76643     -1853.27743        36.524  
  20253212.16949 116361802.52649       546.96149        48.804    20253209.39446
  90669804.76846       426.19946        43.013  
  23901295.61446 125602137.13546     -2191.34046        43.074    23901294.19642
  97871774.37342     -1707.54342        33.800  
  23138277.81646 121592463.22746     -2860.57046        41.831    23138276.36341
  94747363.61941     -2229.02341        29.781  
  20066700.33849 115381683.55949     -1203.59449        49.684    20066698.65146
  89906085.76346      -937.86746        42.765  
  21681849.48149 113938889.59249      2690.78949        48.321    21681848.82845
  88783549.83645      2096.71545        39.662  
  21979518.47048 115503142.63848      2476.94148        46.904    21979514.01144
  90002423.77644      1930.08244        38.020  
 04 07 03 06 21 46.0000000  0  9G30G15G26G18G29G21G 9G 5G22                     
  23982132.36146 126026966.45946      3752.39546        42.610    23982132.90741
  98202849.11441      2923.94141        22.831  
  22686378.15247 119217715.97157      -718.27347        44.129    22686377.10541
  92896915.10341      -559.69541        30.914  
  23232953.06946 122089988.62446     -2378.16446        42.971    23232953.66643
  95135063.83343     -1853.11743        36.542  
  20253108.11349 116361255.69349       546.50849        48.784    20253105.32846
  90669378.66446       425.84846        42.988  
  23901712.61746 125604328.49246     -2191.40646        42.903    23901711.20442
  97873481.91442     -1707.59842        34.390  
  23138822.21646 121595324.03446     -2861.16046        42.285    23138820.77241
  94749592.81241     -2229.48441        26.836  
  20066929.39349 115382887.31049     -1204.13749        49.645    20066927.71546
  89907023.75146      -938.29346        42.703  
  21681337.48349 113936198.97849      2690.22349        48.402    21681336.82545
  88781453.25145      2096.27345        39.735  
  21979047.14048 115500665.82448      2476.54348        46.921    21979042.66444
  90000493.79244      1929.77044        38.294  
 04 07 03 06 21 47.0000000  0  9G30G15G26G18G29G21G 9G 5G22                     
  23981418.33346 126023214.21846      3752.09446        43.029    23981418.83541
  98199925.30241      2923.70741        27.534  
  22686514.89747 119218434.51247      -719.09847        44.265    22686513.85541
  92897475.00541      -560.34041        31.862  
  23233405.63046 122092366.91346     -2378.53146        42.658    23233406.26944
  95136917.04644     -1853.40244        37.261  
  20253004.17649 116360709.49549       545.74649        48.868    20253001.38746
  90668953.05746       425.25446        42.442  
  23902129.63046 125606520.01446     -2191.65646        43.111    23902128.26643
  97875189.58143     -1707.79743        35.235  
  23139366.66246 121598185.05046     -2861.38746        42.008    23139365.17541
  94751822.18241     -2229.66041        30.911  
  20067158.54449 115384091.56649     -1204.57049        49.724    20067156.88646
  89907962.13446      -938.62946        43.212  
  21680825.56349 113933508.79249      2689.90649        48.286    21680824.91145
  88779357.00845      2096.02745        40.052  
  21978575.87548 115498189.37248      2476.07848        46.843    21978571.41444
  89998564.09244      1929.41044        37.595  
 04 07 03 06 21 48.0000000  0  9G30G15G26G18G29G21G 9G 5G22                     
  23980704.30846 126019461.96246      3752.15646        42.671    23980704.77341
  98197001.47141      2923.75441        29.159  
  22686651.75747 119219153.62547      -719.39847        44.145    22686650.65543
  92898035.35643      -560.57443        34.996  
  23233858.17446 122094745.22246     -2378.29746        42.757    23233858.88944
  95138770.26744     -1853.22344        36.754  
  20252900.35749 116360163.87549       545.22749        48.868    20252897.54846
  90668527.89946       424.84846        43.006  
  23902546.67446 125608711.59446     -2192.02346        42.836    23902545.30742
  97876897.29242     -1708.07842        32.531  
  23139911.12846 121601046.26846     -2861.49646        42.017    23139909.73541
  94754051.69741     -2229.74641        29.301  
  20067387.78249 115385296.27949     -1204.92249        49.625    20067386.13846
  89908900.86846      -938.90246        42.906  
  21680313.71749 113930818.99749      2689.53949        48.337    21680313.06545
  88777261.06945      2095.74245        40.331  
  21978104.67248 115495713.24948      2475.94148        46.999    21978100.19844
  89996634.64544      1929.30144        38.009  
 04 07 03 06 21 49.0000000  0  9G30G15G26G18G29G21G 9G 5G22                     
  23979990.27946 126015709.65546      3752.32446        43.105    23979990.76141
  98194077.60941      2923.89141        30.654  
  22686788.74047 119219873.33447      -720.25047        44.100    22686787.64941
  92898596.16541      -561.23841        29.372  
  23234310.74646 122097123.61046     -2378.76246        42.669    23234311.50044
  95140623.55744     -1853.58244        38.826  
  20252796.63149 116359618.79449       544.69149        48.907    20252793.81746
  90668103.16046       424.43446        42.725  
  23902963.74146 125610903.24846     -2191.97346        42.761    23902962.42142
  97878605.07442     -1708.03942        32.290  
  23140455.62946 121603907.64746     -2861.58246        41.962    23140454.26641
  94756281.34041     -2229.81241        25.959  
  20067617.10549 115386501.41249     -1205.52349        49.661    20067615.45946
  89909839.93146      -939.37146        42.656  
  21679801.94549 113928129.56249      2689.13749        48.273    21679801.28845
  88775165.40645      2095.43045        40.387  
  21977633.53148 115493237.43548      2475.32448        47.024    21977629.03644
  89994705.43544      1928.82044        37.786  
 04 07 03 06 21 50.0000000  0  9G30G15G26G18G29G21G 9G 5G22                     
  23979276.25846 126011957.40946      3751.94946        42.968    23979276.72342
  98191153.77742      2923.59442        32.401  
  22686925.83147 119220593.67447      -720.78547        44.299    22686924.69542
  92899157.46442      -561.65242        33.196  
  23234763.34346 122099502.13046     -2378.72346        42.466    23234764.10644
  95142476.95444     -1853.55544        36.820  
  20252693.03449 116359074.38449       543.90249        48.882    20252690.20946
  90667678.94546       423.81646        42.937  
  23903380.82546 125613095.05646     -2191.77046        42.413    23903379.45641
  97880312.97541     -1707.87941        32.157  
  23141000.17646 121606769.27346     -2861.68046        42.074    23140998.81441
  94758511.18241     -2229.88341        25.037  
  20067846.52549 115387707.07949     -1206.03549        49.654    20067844.88446
  89910779.41246      -939.77046        42.846  
  21679290.26249 113925440.59149      2688.57849        48.372    21679289.60145
  88773070.10645      2094.99245        39.716  
  21977162.46848 115490762.00148      2475.11348        47.002    21977157.96244
  89992776.52844      1928.65644        37.678  
 04 07 03 06 21 51.0000000  0  9G30G15G26G18G29G21G 9G 5G22                     
  23978562.24346 126008205.23346      3751.72746        42.915    23978562.71641
  98188230.01041      2923.42641        28.670  
  22687063.04947 119221314.72047      -721.63347        44.024    22687061.90941
  92899719.33241      -562.31641        32.204  
  23235215.97046 122101880.83846     -2378.96946        42.210    23235216.80044
  95144330.49544     -1853.74644        37.624  
  20252589.56749 116358530.63749       543.18849        48.893    20252586.73346
  90667255.24646       423.26246        43.150  
  23903797.95546 125615287.04946     -2192.73846        42.751    23903796.61243
  97882021.02443     -1708.63343        34.518  
  23141544.81446 121609631.21246     -2862.37546        41.826    23141543.41342
  94760741.27742     -2230.42642        34.221  
  20068076.05349 115388913.30149     -1206.69949        49.727    20068074.41947
  89911719.32547      -940.28947        43.343  
  21678778.67649 113922752.10849      2688.07049        48.470    21678778.00745
  88770975.18645      2094.59845        39.246  
  21976691.47748 115488286.99948      2474.63348        46.945    21976686.98344
  89990847.95444      1928.28144        38.481  
 04 07 03 06 21 52.0000000  0  9G30G15G26G18G29G21G 9G 5G22                     
  23977848.22446 126004453.05246      3751.98846        42.713    23977848.67241
  98185306.22841      2923.62541        30.232  
  22687200.40647 119222036.38057      -722.02047        44.094    22687199.26842
  92900281.66642      -562.61742        34.214  
  23235668.61746 122104259.63846     -2378.69946        42.369    23235669.47444
  95146184.10744     -1853.53544        37.249  
  20252486.21249 116357987.51849       542.77049        48.863    20252483.37646
  90666832.03746       422.93446        42.942  
  23904215.10246 125617479.17146     -2192.15246        42.849    23904213.85142
  97883729.16542     -1708.17642        32.272  
  23142089.46746 121612493.33146     -2862.20746        41.852    23142088.05641
  94762971.51441     -2230.28941        28.843  
  20068305.67149 115390120.00549     -1207.01649        49.752    20068304.05046
  89912659.61646      -940.53546        42.785  
  21678267.15849 113920064.04649      2687.79749        48.480    21678266.48045
  88768880.59245      2094.38345        39.986  
  21976220.55948 115485812.34848      2474.43448        46.788    21976216.06144
  89988919.65544      1928.12544        37.527  
 04 07 03 06 21 53.0000000  0  9G30G15G26G18G29G21G 9G 5G22                     
  23977134.20546 126000700.88246      3752.26246        42.418    23977134.64342
  98182382.45742      2923.83642        33.577  
  22687337.87047 119222758.64847      -722.73847        43.919    22687336.70741
  92900844.49141      -563.17241        31.930  
  23236121.28046 122106638.51646     -2378.84846        42.589    23236122.14844
  95148037.77544     -1853.65244        38.613  
  20252382.96649 116357444.97849       542.02749        48.951    20252380.11646
  90666409.28046       422.35546        42.958  
  23904632.27046 125619671.36446     -2192.35946        43.151    23904630.98142
  97885437.38442     -1708.33642        33.680  
  23142634.14046 121615355.64646     -2862.25446        41.318    23142632.71842
  94765201.90542     -2230.32842        33.730  
  20068535.37949 115391327.16149     -1207.44949        49.725    20068533.76546
  89913600.26146      -940.87146        42.850  
  21677755.72349 113917376.36549      2687.44549        48.444    21677755.04145
  88766786.29845      2094.10945        39.107  
  21975749.70148 115483338.03048      2473.89848        46.848    21975745.22044
  89986991.61744      1927.71144        37.991  
 04 07 03 06 21 54.0000000  0  9G30G15G26G18G29G21G 9G 5G22                     
  23976420.18146 125996948.75046      3751.90646        41.835    23976420.60841
  98179458.71141      2923.55941        22.337  
  22687475.44547 119223481.54357      -723.33647        43.616    22687474.22642
  92901407.79242      -563.64142        33.572  
  23236573.96046 122109017.56346     -2379.42246        42.220    23236574.90545
  95149891.56645     -1854.09845        39.836  
  20252279.84749 116356903.07349       541.41449        49.008    20252277.00346
  90665987.01846       421.87946        43.004  
  23905049.46246 125621863.73346     -2192.60546        43.213    23905048.13142
  97887145.72642     -1708.52742        33.953  
  23143178.87946 121618218.23346     -2862.85946        41.624    23143177.53141
  94767432.49241     -2230.79741        30.501  
  20068765.17849 115392534.82649     -1208.14149        49.651    20068763.57746
  89914541.29846      -941.41046        42.636  
  21677244.36749 113914689.13749      2686.88749        48.479    21677243.68145
  88764692.35245      2093.67645        39.700  
  21975278.91248 115480864.07748      2473.55148        46.935    21975274.44044
  89985063.86344      1927.43844        38.615  
 04 07 03 06 21 55.0000000  0 10G30G14G15G26G18G29G21G 9G 5G22                  
  23975706.19646 125993196.75246      3751.89146        42.383    23975706.62941
  98176535.10841      2923.55141        29.109  
  24541872.61742 128968394.27252      2571.05142        32.364                  
                                                
  22687613.16947 119224205.20447      -724.11747        43.863    22687612.01041
  92901971.66541      -564.25041        32.096  
  23237026.67746 122111396.83546     -2379.66446        42.095    23237027.69645
  95151745.54245     -1854.28545        38.961  
  20252176.86549 116356361.91349       540.73849        48.939    20252174.01746
  90665565.33346       421.35246        42.845  
  23905466.70846 125624056.31646     -2192.76246        43.228    23905465.37842
  97888854.22342     -1708.64842        33.027  
  23143723.66446 121621081.13646     -2863.33246        41.308    23143722.32241
  94769663.32841     -2231.16841        30.669  
  20068995.09949 115393743.10949     -1208.73049        49.648    20068993.50546
  89915482.81446      -941.87146        43.323  
  21676733.12849 113912002.46449      2686.28949        48.438    21676732.42745
  88762598.84645      2093.21145        39.096  
  21974808.22748 115478390.62848      2473.05148        46.840    21974803.75144
  89983136.49744      1927.05144        37.036  
 04 07 03 06 21 56.0000000  0  9G30G15G26G18G29G21G 9G 5G22                     
  23974992.19646 125989444.73546      3751.80546        42.276    23974992.56341
  98173611.47541      2923.48841        25.048  
  22687751.01547 119224929.47447      -724.69947        43.667    22687749.91141
  92902536.02441      -564.70341        30.725  
  23237479.42046 122113776.15046     -2379.56246        42.220    23237480.49144
  95153599.55144     -1854.20744        36.744  
  20252074.00249 116355821.35149       540.16049        49.023    20252071.14946
  90665144.11846       420.90246        42.984  
  23905883.97746 125626249.01946     -2192.74646        43.176    23905882.64742
  97890562.81442     -1708.64142        32.229  
  23144268.49046 121623944.26246     -2863.29746        41.183    23144267.19641
  94771894.33241     -2231.14541        22.735  
  20069225.11249 115394951.86549     -1209.10249        49.617    20069223.52646
  89916424.70146      -942.16046        42.980  
  21676221.95849 113909316.18949      2685.97349        48.637    21676221.24145
  88760505.64645      2092.96145        39.639  
  21974337.59148 115475917.50148      2472.84848        46.713    21974333.14044
  89981209.38144      1926.89144        37.028  
 04 07 03 06 21 57.0000000  0  9G30G15G26G18G29G21G 9G 5G22                     
  23974278.18746 125985692.72846      3751.89146        42.253    23974278.49441
  98170687.84041      2923.55541        25.456  
  22687888.96347 119225654.31747      -725.27747        43.620    22687887.81942
  92903100.83642      -565.15642        32.943  
  23237932.16646 122116155.54346     -2379.62146        42.082    23237933.30544
  95155453.62844     -1854.25444        36.936  
  20251971.24249 116355281.36249       539.54749        48.939    20251968.38346
  90664723.34346       420.42246        42.818  
  23906301.25846 125628441.79246     -2192.87146        43.320    23906299.87141
  97892271.45941     -1708.73841        31.832  
  23144813.36645 121626807.55245     -2863.54345        41.093    23144812.03242
  94774125.47142     -2231.33642        32.511  
  20069455.20449 115396161.05449     -1209.52049        49.470    20069453.62946
  89917366.92646      -942.48446        43.287  
  21675710.86349 113906630.30049      2685.51249        48.602    21675710.13645
  88758412.74945      2092.60245        39.659  
  21973867.02248 115473444.69848      2472.58648        46.695    21973862.57844
  89979282.52944      1926.68844        37.204  
 04 07 03 06 21 58.0000000  0  9G30G15G26G18G29G21G 9G 5G22                     
  23973564.15946 125981940.55746      3752.02046        42.304    23973564.41341
  98167764.06841      2923.65241        31.041  
  22688027.01847 119226379.64647      -725.69947        43.395    22688025.87641
  92903666.03041      -565.48441        31.734  
  23238384.89946 122118534.91146     -2379.71146        42.047    23238386.12144
  95157307.69044     -1854.32444        37.897  
  20251868.58349 116354741.85249       539.06249        48.884    20251865.71046
  90664302.94546       420.04746        42.779  
  23906718.55046 125630634.55846     -2192.90246        43.148    23906717.16141
  97893980.09941     -1708.76241        30.970  
  23145358.25145 121629670.91545     -2863.52745        41.074    23145356.87641
  94776356.66241     -2231.32441        31.648  
  20069685.36849 115397370.59049     -1209.92249        49.549    20069683.80247
  89918309.42147      -942.80147        44.074  
  21675199.82549 113903944.67849      2685.26249        48.602    21675199.08045
  88756320.05945      2092.41045        39.739  
  21973396.48348 115470972.10948      2472.34448        46.749    21973392.07644
  89977355.83944      1926.50044        37.619  
 04 07 03 06 21 59.0000000  0  9G30G15G26G18G29G21G 9G 5G22                     
  23972850.09346 125978188.22046      3752.38746        42.567    23972850.33641
  98164840.17341      2923.93841        29.810  
  22688165.14547 119227105.41947      -726.03147        43.363    22688163.96842
  92904231.56742      -565.74242        34.145  
  23238837.63246 122120914.23046     -2379.73446        42.066    23238838.89044
  95159161.70244     -1854.34044        36.826  
  20251766.00449 116354202.79649       538.64849        48.866    20251763.12246
  90663882.90346       419.72346        42.723  
  23907135.82646 125632827.27946     -2193.00846        43.122    23907134.47941
  97895688.70541     -1708.84441        29.461  
  23145903.15545 121632534.33645     -2863.50845        40.700    23145901.75741
  94778587.90141     -2231.30941        31.596  
  20069915.59349 115398580.44849     -1210.22349        49.386    20069914.04446
  89919252.16646      -943.03546        43.279  
  21674688.83249 113901259.32949      2684.89849        48.589    21674688.07545
  88754227.57845      2092.12545        39.312  
  21972925.98848 115468499.71848      2472.09848        46.723    21972921.57144
  89975429.29744      1926.30944        36.764  
 04 07 03 06 22  0.0000000  0  9G30G15G26G18G29G21G 9G 5G22                     
  23972136.04246 125974435.94046      3752.16846        42.769    23972136.26341
  98161916.30241      2923.76641        29.366  
  22688303.38447 119227831.79947      -726.92647        43.377    22688302.18342
  92904797.57042      -566.43842        33.538  
  23239290.39746 122123293.59046     -2379.35246        42.323    23239291.68043
  95161015.74043     -1854.04343        36.332  
  20251663.53049 116353664.30749       538.28549        48.756    20251660.65146
  90663463.30146       419.44146        43.174  
  23907553.08746 125635020.08046     -2192.59446        42.818    23907551.78042
  97897397.37842     -1708.52342        33.291  
  23146448.08945 121635397.95045     -2863.65645        40.311    23146446.73041
  94780819.28541     -2231.42241        31.504  
  20070145.89949 115399790.76649     -1210.50849        49.402    20070144.37346
  89920195.26746      -943.25846        43.305  
  21674177.91649 113898574.35849      2684.70349        48.677    21674177.13645
  88752135.39545      2091.97345        40.019  
  21972455.55648 115466027.64448      2472.09848        46.785    21972451.14244
  89973503.00944      1926.30944        38.215  
 04 07 03 06 22  1.0000000  0  9G30G15G26G18G29G21G 9G 5G22                     
  23971421.99146 125970683.63346      3752.27046        42.929    23971422.12441
  98158992.45341      2923.84841        24.328  
  22688441.74747 119228558.82447      -727.30147        43.441    22688440.58641
  92905364.08341      -566.73041        30.679  
  23239743.17346 122125673.12046     -2379.57446        42.297    23239744.49144
  95162869.92144     -1854.21944        37.091  
  20251561.18549 116353126.48849       537.41049        48.728    20251558.31146
  90663044.22146       418.75846        43.283  
  23907970.39346 125637213.03346     -2193.34846        43.158    23907969.10842
  97899106.18342     -1709.10542        34.169  
  23146993.08645 121638261.82445     -2863.87145        39.717    23146991.69041
  94783050.86341     -2231.59041        31.562  
  20070376.30149 115401001.60649     -1211.11749        49.406    20070374.79646
  89921138.78046      -943.73046        43.144  
  21673667.08149 113895889.86349      2684.12549        48.601    21673666.30545
  88750043.58445      2091.52345        39.630  
  21971985.20748 115463555.96948      2471.36348        46.667    21971980.79144
  89971577.03244      1925.73444        37.500  
 04 07 03 06 22  2.0000000  0  9G30G15G26G18G29G21G 9G 5G22                     
  23970707.96446 125966931.41646      3751.99646        42.814    23970708.18941
  98156068.66041      2923.63741        26.880  
  22688580.23647 119229286.51447      -728.14847        43.524    22688579.04442
  92905931.11142      -567.39142        32.615  
  23240195.99246 122128052.77846     -2379.82846        42.268    23240197.34543
  95164724.20143     -1854.41443        35.585  
  20251458.96049 116352589.29549       536.68849        48.679    20251456.06646
  90662625.62746       418.19546        43.133  
  23908387.72746 125639406.10746     -2193.46546        42.752    23908386.45043
  97900815.07143     -1709.19543        35.117  
  23147538.11545 121641125.96445     -2864.57445        40.070    23147536.60442
  94785282.65342     -2232.14142        33.667  
  20070606.80849 115402212.95949     -1211.72349        49.545    20070605.31847
  89922082.69447      -944.20347        43.444  
  21673156.33749 113893205.81349      2683.71549        48.719    21673155.54745
  88747952.12045      2091.20345        39.536  
  21971514.91748 115461084.67448      2470.85948        46.692    21971510.53944
  89969651.35144      1925.34044        37.663  
 04 07 03 06 22  3.0000000  0  9G30G15G26G18G29G21G 9G 5G22                     
  23969993.94146 125963179.29146      3752.18446        42.962    23969994.21841
  98153144.92941      2923.78141        29.928  
  22688718.85447 119230014.91747      -728.84047        43.835    22688717.60641
  92906498.68541      -567.93441        30.869  
  23240648.84146 122130432.66046     -2380.00846        42.713    23240650.23242
  95166578.65542     -1854.55542        34.410  
  20251356.86449 116352052.80349       536.12949        48.629    20251353.96746
  90662207.58346       417.75846        43.026  
  23908805.10046 125641599.39346     -2193.14146        42.858    23908803.80542
  97902524.13142     -1708.94542        33.038  
  23148083.17545 121643990.38545     -2864.50045        39.837    23148081.61841
  94787514.65141     -2232.08641        31.356  
  20070837.42749 115403424.87849     -1212.24649        49.563    20070835.94146
  89923027.04346      -944.60946        42.996  
  21672645.68249 113890522.27349      2683.28549        48.765    21672644.86745
  88745861.05145      2090.86745        39.732  
  21971044.71748 115458613.82548      2470.53548        46.466    21971040.33443
  89967726.00943      1925.09043        36.228  
 04 07 03 06 22  4.0000000  0  9G30G15G26G18G29G21G 9G 5G22                     
  23969279.93346 125959427.15346      3752.09046        42.944    23969280.13441
  98150221.18941      2923.70741        25.135  
  22688857.59947 119230743.87047      -729.28147        43.683    22688856.31741
  92907066.70941      -568.27341        31.580  
  23241101.68746 122132812.55246     -2380.18446        42.402    23241103.12044
  95168433.11444     -1854.69144        36.702  
  20251254.87949 116351516.86849       535.56649        48.609    20251251.97746
  90661789.97246       417.32046        42.792  
  23909222.47046 125643792.74546     -2193.43846        42.928    23909221.22742
  97904233.22342     -1709.17642        34.212  
  23148628.26045 121646854.98745     -2864.69145        39.938    23148626.75941
  94789746.80041     -2232.23441        30.595  
  20071068.12849 115404637.23749     -1212.68049        49.630    20071066.64047
  89923971.73947      -944.94947        43.344  
  21672135.10549 113887839.09549      2682.97749        48.739    21672134.26245
  88743770.26545      2090.62945        39.330  
  21970574.56848 115456143.26748      2470.29348        46.386    21970570.20044
  89965800.89944      1924.91044        37.227  
 04 07 03 06 22  5.0000000  0  9G30G15G26G18G29G21G 9G 5G22                     
  23968565.93346 125955675.05546      3751.78946        43.102    23968566.15341
  98147297.45741      2923.46941        28.737  
  22688996.45547 119231473.49947      -730.06647        43.413    22688995.19941
  92907635.26441      -568.88741        30.642  
  23241554.57746 122135192.61346     -2380.42246        42.656    23241556.06344
  95170287.70644     -1854.87944        37.284  
  20251153.01549 116350981.59349       534.75449        48.662    20251150.11946
  90661372.87546       416.68846        43.074  
  23909639.89846 125645986.27746     -2193.41846        42.814    23909638.62743
  97905942.45243     -1709.16443        36.228  
  23149173.41745 121649719.85745     -2864.92645        39.316    23149171.83641
  94791979.19241     -2232.41441        31.291  
  20071298.92349 115405850.12049     -1213.18049        49.689    20071297.44946
  89924916.84446      -945.34046        43.085  
  21671624.61549 113885156.38949      2682.49249        48.725    21671623.75845
  88741679.84245      2090.25045        39.069  
  21970104.49548 115453673.13048      2469.85548        46.456    21970100.12844
  89963876.11944      1924.55944        37.826  
 04 07 03 06 22  6.0000000  0  9G30G15G26G18G29G21G 9G 5G22                     
  23967851.91446 125951922.91946      3752.20346        43.263    23967852.09241
  98144373.72041      2923.79341        29.991  
  22689135.41647 119232203.70047      -730.60547        43.740    22689134.13942
  92908204.25742      -569.30542        32.401  
  23242007.45846 122137572.70946     -2380.21546        42.688    23242008.99643
  95172142.32943     -1854.71543        35.172  
  20251051.25749 116350446.87749       534.28949        48.640    20251048.36246
  90660956.21046       416.32446        42.979  
  23910057.31346 125648179.85146     -2193.56646        42.770    23910056.05442
  97907651.72142     -1709.28142        33.779  
  23149718.60345 121652584.86845     -2865.34845        39.254    23149716.97241
  94794211.67741     -2232.74241        29.139  
  20071529.80049 115407063.42549     -1213.72749        49.704    20071528.32746
  89925862.27846      -945.76646        43.130  
  21671114.18749 113882474.04949      2681.97349        48.709    21671113.33344
  88739589.70744      2089.84444        38.781  
  21969634.48848 115451203.28148      2469.50848        46.408    21969630.13244
  89961951.56044      1924.28944        38.237  
 04 07 03 06 22  7.0000000  0  9G30G15G26G18G29G21G 9G 5G22                     
  23967137.93746 125948170.99346      3751.70746        43.052    23967138.12241
  98141450.14441      2923.40641        29.569  
  22689274.53447 119232934.73447      -731.64547        43.381    22689273.28841
  92908773.88841      -570.11741        29.859  
  23242460.41946 122139953.12746     -2380.71546        42.660    23242462.01143
  95173997.19843     -1855.10543        34.927  
  20250949.66149 116349912.96749       533.53149        48.571    20250946.75746
  90660540.17846       415.73446        43.052  
  23910474.80346 125650373.76446     -2193.93846        42.779    23910473.52243
  97909361.25743     -1709.57043        35.241  
  23150263.86245 121655450.31645     -2865.90645        39.973    23150262.31641
  94796444.47141     -2233.18041        29.934  
  20071760.81149 115408277.42649     -1214.52349        49.741    20071759.34746
  89926808.25346      -946.38746        43.145  
  21670603.88349 113879792.33849      2681.36349        48.662    21670603.01945
  88737500.06545      2089.37145        39.438  
  21969164.58348 115448733.98848      2468.93048        46.390    21969160.23644
  89960027.44144      1923.84044        37.603  
 04 07 03 06 22  8.0000000  0  9G30G15G26G18G29G21G 9G 5G22                     
  23966423.96946 125944419.12246      3751.48446        43.284    23966424.22041
  98138526.61641      2923.23041        29.480  
  22689413.77847 119233666.42147      -732.46947        43.649    22689412.45041
  92909344.03641      -570.75841        29.214  
  23242913.40146 122142333.68346     -2380.90246        42.427    23242915.01344
  95175852.17144     -1855.25044        37.352  
  20250848.18149 116349379.72749       532.66049        48.587    20250845.27946
  90660124.67046       415.05946        43.214  
  23910892.32646 125652567.84846     -2194.56246        42.652    23910891.08242
  97911070.92542     -1710.05542        34.163  
  23150809.18645 121658316.00245     -2865.96945        39.735    23150807.62441
  94798677.47841     -2233.22741        30.431  
  20071991.91949 115409491.94349     -1215.03549        49.737    20071990.46146
  89927754.62446      -946.78546        43.299  
  21670093.67249 113877111.08049      2680.76649        48.666    21670092.78444
  88735410.77844      2088.90644        38.387  
  21968694.74448 115446265.10348      2468.47348        46.654    21968690.41744
  89958103.63644      1923.48044        38.323  
 04 07 03 06 22  9.0000000  0  9G30G15G26G18G29G21G 9G 5G22                     
  23965710.01947 125940667.27747      3751.48847        43.671    23965710.23241
  98135603.09941      2923.23441        26.118  
  22689553.14547 119234398.71747      -732.86347        43.431    22689551.75741
  92909914.64741      -571.06641        31.564  
  23243366.40946 122144714.36046     -2381.00846        42.704    23243368.04243
  95177707.24343     -1855.33243        36.398  
  20250746.82049 116348847.10649       532.21149        48.619    20250743.92946
  90659709.64046       414.70746        43.298  
  23911309.86446 125654762.03646     -2194.34046        42.743    23911308.64842
  97912780.68042     -1709.88342        32.952  
  23151354.56345 121661181.94845     -2866.19945        39.935    23151353.02441
  94800910.68441     -2233.40641        31.694  
  20072223.12949 115410706.95949     -1215.43449        49.723    20072221.68546
  89928701.39046      -947.09446        42.846  
  21669583.53449 113874430.24849      2680.29749        48.501    21669582.62345
  88733321.81745      2088.53945        39.260  
  21968224.98348 115443796.57948      2468.10248        46.386    21968220.66944
  89956180.10844      1923.19144        36.968  
 04 07 03 06 22 10.0000000  0  9G30G15G26G18G29G21G 9G 5G22                     
  23964996.08447 125936915.53147      3752.00047        43.512    23964996.30841
  98132679.67041      2923.63341        31.999  
  22689692.63947 119235131.73247      -733.17247        43.404    22689691.28442
  92910485.82842      -571.30542        32.721  
  23243819.44746 122147095.22946     -2381.07446        42.445    23243821.13343
  95179562.46743     -1855.38743        35.976  
  20250645.60449 116348315.19749       531.40249        48.572    20250642.71346
  90659295.16546       414.07846        42.886  
  23911727.45046 125656956.45946     -2194.48046        42.342    23911726.25841
  97914490.61341     -1709.99241        31.588  
  23151899.97945 121664048.19945     -2866.57045        39.642    23151898.41341
  94803144.11341     -2233.69541        22.350  
  20072454.44449 115411922.54349     -1215.99249        49.788    20072453.00946
  89929648.60046      -947.53146        42.826  
  21669073.49549 113871749.95149      2679.89149        48.706    21669072.56445
  88731233.27745      2088.22345        38.941  
  21967755.30348 115441328.50948      2467.75848        46.449    21967750.97644
  89954256.93344      1922.96944        37.829  
 04 07 03 06 22 11.0000000  0  9G30G15G26G18G29G21G 9G 5G22                     
  23964282.11247 125933163.59547      3752.07447        43.664    23964282.32741
  98129756.08941      2923.69541        30.875  
  22689832.21347 119235865.17047      -733.74247        43.740    22689830.89941
  92911057.35141      -571.75041        31.160  
  23244272.46146 122149475.99346     -2380.70746        42.600    23244274.21343
  95181417.61143     -1855.09843        36.016  
  20250544.45349 116347783.66949       531.21949        48.563    20250541.56546
  90658880.98646       413.93446        43.056  
  23912145.00446 125659150.74246     -2194.17246        42.382    23912143.77342
  97916200.44742     -1709.74642        32.898  
  23152445.40545 121666914.41845     -2866.26645        39.911    23152443.73841
  94805377.50241     -2233.46541        27.493  
  20072685.80649 115413138.38649     -1216.05149        49.747    20072684.36946
  89930596.01246      -947.57446        42.370  
  21668563.50049 113869069.83449      2679.93849        48.724    21668562.55445
  88729144.87245      2088.26245        39.429  
  21967285.65348 115438860.56548      2467.88748        46.434    21967281.34944
  89952333.86144      1923.02744        38.311  
 04 07 03 06 22 12.0000000  0  9G30G15G26G18G29G21G 9G 5G22                     
  23963568.14347 125929411.68547      3751.66847        43.446    23963568.42141
  98126832.53641      2923.37941        30.569  
  22689971.91347 119236599.23747      -734.64847        43.637    22689970.60241
  92911629.34141      -572.45741        31.974  
  23244725.49146 122151856.85946     -2381.18846        42.734    23244727.27843
  95183272.82643     -1855.47343        36.105  
  20250443.42749 116347252.77949       530.38749        48.570    20250440.53947
  90658467.30247       413.28547        43.383  
  23912562.59746 125661345.17646     -2194.29746        42.209    23912561.38544
  97917910.38844     -1709.84844        36.763  
  23152990.88445 121669780.88645     -2866.98845        39.950    23152989.19741
  94807611.11441     -2234.02341        22.976  
  20072917.26149 115414354.74549     -1216.73849        49.754    20072915.83946
  89931543.82546      -948.10946        42.607  
  21668053.58849 113866390.16449      2679.21949        48.794    21668052.60845
  88727056.81445      2087.69945        39.549  
  21966816.06148 115436392.99548      2467.39548        46.272    21966811.80743
  89950411.08343      1922.64143        36.420  
 04 07 03 06 22 13.0000000  0  9G30G15G26G18G29G21G 9G 5G22                     
  23962854.18447 125925659.76647      3751.89147        43.749    23962854.47741
  98123908.92741      2923.54741        26.316  
  22690111.72147 119237333.90247      -735.10247        43.878    22690110.37842
  92912201.81242      -572.80942        33.377  
  23245178.56146 122154237.83246     -2381.14846        42.805    23245180.37543
  95185128.12743     -1855.44543        34.925  
  20250342.51149 116346722.48849       529.94549        48.592    20250339.62546
  90658054.08846       412.94146        43.205  
  23912980.21346 125663539.73546     -2194.68446        42.052    23912979.04543
  97919620.42943     -1710.14543        35.218  
  23153536.40345 121672647.52745     -2866.89845        40.095    23153534.75341
  94809844.84841     -2233.95741        26.900  
  20073148.80649 115415571.56149     -1217.09049        49.701    20073147.40246
  89932491.99446      -948.38746        43.021  
  21667543.75049 113863710.89549      2679.04749        48.711    21667542.75044
  88724969.07644      2087.56644        38.618  
  21966346.54648 115433925.78548      2466.94548        46.366    21966342.29143
  89948488.58243      1922.29343        36.661  
 04 07 03 06 22 14.0000000  0  9G30G15G26G18G29G21G 9G 5G22                     
  23962140.22447 125921907.88047      3751.85247        43.762    23962140.57141
  98120985.37941      2923.51641        29.652  
  22690251.65947 119238069.21747      -735.77047        43.614    22690250.31342
  92912774.78742      -573.33242        34.004  
  23245631.66046 122156618.92546     -2381.46546        42.752    23245633.48743
  95186983.52243     -1855.69143        36.188  
  20250241.71649 116346192.83749       529.25849        48.489    20250238.83546
  90657641.37346       412.40646        42.884  
  23913397.83646 125665734.41046     -2195.07446        42.346    23913396.75441
  97921330.56841     -1710.44941        32.165  
  23154081.95245 121675514.43545     -2867.32045        40.246    23154080.21841
  94812078.79241     -2234.28541        28.251  
  20073380.45349 115416788.88549     -1217.65649        49.776    20073379.05346
  89933440.55746      -948.82846        43.214  
  21667033.99149 113861032.08249      2678.48449        48.859    21667032.98345
  88722881.69145      2087.12945        39.644  
  21965877.09948 115431458.94748      2466.44548        46.186    21965872.84644
  89946566.36644      1921.90244        37.391  
 04 07 03 06 22 15.0000000  0  9G30G15G26G18G29G21G 9G 5G22                     
  23961426.27747 125918156.06947      3751.70747        43.603    23961426.61141
  98118061.88941      2923.40641        26.573  
  22690391.71947 119238805.18747      -736.50447        43.678    22690390.37941
  92913348.26441      -573.90241        31.781  
  23246084.76946 122159000.14346     -2381.28546        42.757    23246086.57043
  95188839.01743     -1855.55143        35.471  
  20250141.04849 116345663.84749       528.59449        48.638    20250138.17346
  90657229.17346       411.88746        43.176  
  23913815.48246 125667929.24746     -2194.79346        42.400    23913814.37341
  97923040.83241     -1710.23041        32.040  
  23154627.55045 121678381.57545     -2867.42245        40.231    23154625.73941
  94814312.90741     -2234.36741        24.132  
  20073612.19649 115418006.73549     -1218.10549        49.712    20073610.81246
  89934389.53046      -949.17646        42.816  
  21666524.32749 113858353.71849      2678.26249        48.860    21666523.29045
  88720794.65445      2086.95345        39.455  
  21965407.74248 115428992.50948      2466.17248        46.343    21965403.50244
  89944644.46644      1921.68844        37.608  
 04 07 03 06 22 16.0000000  0  9G30G15G26G18G29G21G 9G 5G22                     
  23960712.31847 125914404.16747      3751.52347        43.891    23960712.62841
  98115138.34541      2923.26241        24.259  
  22690531.88547 119239541.68257      -736.82047        43.674    22690530.55541
  92913922.15341      -574.14841        31.336  
  23246537.88446 122161381.40946     -2381.33246        42.697    23246539.70943
  95190694.54843     -1855.58643        35.637  
  20250040.48049 116345135.37549       527.97749        48.492    20250037.60946
  90656817.37546       411.40646        43.199  
  23914233.14946 125670124.12546     -2195.49246        42.413    23914232.03442
  97924751.12342     -1710.77742        33.228  
  23155173.17945 121681248.81945     -2867.31245        40.560    23155171.26041
  94816547.11841     -2234.28141        32.141  
  20073844.01249 115419224.97949     -1218.63349        49.742    20073842.64546
  89935338.81146      -949.58646        43.025  
  21666014.72449 113855675.70149      2677.64549        48.803    21666013.66245
  88718707.89345      2086.47345        39.122  
  21964938.43048 115426526.33548      2465.97348        46.169    21964934.20844
  89942722.77344      1921.53544        37.394  
 04 07 03 06 22 17.0000000  0  9G30G15G26G18G29G21G 9G 5G22                     
  23959998.34547 125910652.28047      3752.07447        43.784    23959998.53241
  98112214.80841      2923.69141        23.645  
  22690672.16347 119240278.81647      -737.63747        43.588    22690670.86241
  92914496.55341      -574.78541        30.101  
  23246991.02646 122163762.75946     -2381.25846        43.055    23246992.91043
  95192550.13543     -1855.52743        35.532  
  20249940.03349 116344607.50649       527.50849        48.615    20249937.16246
  90656406.04846       411.04346        43.160  
  23914650.83746 125672319.08246     -2195.25846        41.988    23914649.73441
  97926461.48741     -1710.59441        30.410  
  23155718.85445 121684116.30945     -2867.48045        40.634    23155716.86541
  94818781.54641     -2234.40241        28.738  
  20074075.92049 115420443.69149     -1218.99249        49.777    20074074.55846
  89936288.45746      -949.86746        43.283  
  21665505.20049 113852998.09549      2677.29349        48.813    21665504.13145
  88716621.45145      2086.19945        39.547  
  21964469.18148 115424060.51148      2465.70748        46.203    21964464.96244
  89940801.35244      1921.32844        38.110  
