     2.11           OBSERVATION DATA    G (GPS)             RINEX VERSION / TYPE
AndroidGNSSReceiver RITSUMEIKAN KUBOLAB 1510553761777       PGM / RUN BY / DATE
flounder                                                    MARKER NAME
GNSSLogger+R        KUBOLAB                                 OBSERVER / AGENCY
0                   Android Receiver                        REC # / TYPE / VERS
0                   Android Anttena                         ANT # / TYPE
        0.0000        0.0000        0.0000                  APPROX POSITION XYZ
        0.0000        0.0000        0.0000                  ANTENNA: DELTA H/E/N
1     0                                                     WAVELENGTH FACT L1/2
3         L1    C1    S1                                    # / TYPES OF OBSERV
1.000                                                       INTERVAL
  2017    11    13     6    16    6.9998330     GPS         TIME OF FIRST OBS
                                                            END OF HEADER
 17 11 13  6 16  6.9998331  0  7G 5G13G15G18G20G21G24
    710009.194    21682024.246          32.503  
    535473.551    20872345.075          39.969  
   -170907.295    20538700.952          45.289  
  -1078194.894    24539739.492          35.849  
   -383717.002    20132252.831          43.311  
   -698888.492    23068043.327          42.189  
   -798215.284    22089439.199          24.304  
 17 11 13  6 16  7.9998331  0  7G 5G13G15G18G20G21G24
    711938.854    21682384.597          37.233  
    536929.721    20872621.783          40.626  
   -171296.195    20538623.307          46.176  
  -1081042.118    24539207.059          37.224  
   -384649.275    20132076.850          42.929  
   -700642.331    23067708.156          42.138  
   -801445.218    22088801.839          27.524  
 17 11 13  6 16  8.9998331  0  7G 5G13G15G18G20G21G24
    713868.178    21682747.644          34.028  
    538385.955    20872897.894          40.879  
   -171684.864    20538548.659          45.442  
  -1083889.477    24538656.640          36.888  
   -385581.288    20131899.076          43.403  
   -702395.943    23067375.088          42.801  
   -804675.436    22088182.470          30.287  
 17 11 13  6 16  9.9998331  0  7G 5G13G15G18G20G21G24
    715798.367    21683142.172          30.541  
    539842.705    20873177.900          40.670  
   -172072.957    20538473.108          45.132  
  -1086736.593    24538114.615          35.876  
   -386512.574    20131722.196          43.652  
   -704148.706    23067043.216          43.149  
   -807904.742    22087577.789          27.752  
 17 11 13  6 16 10.9998331  0  7G 5G13G15G18G20G21G24
    717730.202    21683484.537          31.778  
    541301.110    20873457.007          39.256  
   -172459.354    20538399.063          44.623  
  -1089582.519    24537572.890          35.672  
   -387442.160    20131546.220          42.796  
   -705899.792    23066710.449          42.240  
   -811132.3301   22086973.405          23.295  
 17 11 13  6 16 11.9998331  0  7G 5G13G15G18G20G21G24
    719662.725    21683849.085          36.090  
    542759.750    20873726.517          40.265  
   -172845.374    20538331.308          44.861  
  -1092428.331    24537028.766          36.349  
   -388371.203    20131370.841          43.418  
   -707650.262    23066375.880          42.651  
   -814359.553    22086342.942          25.013  
 17 11 13  6 16 12.9998331  0  7G 5G13G15G18G20G21G24
    721595.561    21684231.916          32.497  
    544218.741    20874008.024          40.585  
   -173231.197    20538260.857          44.732  
  -1095274.277    24536494.536          36.744  
   -389299.967    20131192.766          42.394  
   -709400.414    23066042.511          42.044  
   -817586.458    22085728.969          28.801  
 17 11 13  6 16 13.9998331  0  7G 5G13G15G18G20G21G24
    723528.438    21684596.168          31.740  
    545677.796    20874280.535          39.953  
   -173616.724    20538183.212          44.783  
  -1098120.408    24535950.413          37.784  
   -390228.295    20131018.285          43.071  
   -711150.124    23065703.144          42.307  
   -820813.077    22085109.595          32.928  
 17 11 13  6 16 14.9998331  0  7G 5G13G15G18G20G21G24
    725461.671    21684968.808          34.997  
    547137.262    20874551.249          39.464  
   -174001.757    20538112.761          45.076  
  -1100966.316    24535412.885          37.336  
   -391156.070    20130844.106          42.861  
   -712899.256    23065370.974          42.222  
   -824039.230    22084498.319          36.188  
 17 11 13  6 16 15.9998331  0  7G 5G13G15G18G20G21G24
    727395.599    21685346.545          33.793  
    548597.297    20874836.351          40.263  
   -174386.225    20538039.309          45.112  
  -1103812.077    24534873.560          37.812  
   -392083.168    20130667.828          43.407  
   -714647.668    23065039.106          42.284  
   -827264.837    22083888.242          37.736  
 17 11 13  6 16 16.9998331  0  7G 5G13G15G18G20G21G24
    729330.006    21685717.990          32.688  
    550057.715    20875115.158          40.039  
   -174770.116    20537964.963          45.132  
  -1106657.697    24534332.136          37.649  
   -393009.663    20130493.047          43.509  
   -716395.462    23064700.938          42.425  
   -830489.861    22083274.269          38.330  
 17 11 13  6 16 17.9998331  0  7G 5G13G15G18G20G21G24
    731264.779    21686073.241          32.535  
    551518.509    20875394.863          40.170  
   -175153.671    20537886.716          44.927  
  -1109503.298    24533793.409          37.645  
   -393935.665    20130315.870          43.259  
   -718142.712    23064363.373          42.189  
   -833714.406    22082659.092          38.196  
 17 11 13  6 16 18.9998331  0  7G 5G13G15G18G20G21G24
    733199.965    21686451.580          32.530  
    552979.565    20875676.370          39.618  
   -175536.892    20537814.764          44.905  
  -1112348.906    24533249.285          37.849  
   -394861.153    20130138.393          43.186  
   -719889.351    23064027.303          41.951  
   -836938.584    22082050.812          38.512  
 17 11 13  6 16 19.9998331  0  7G 5G13G15G18G20G21G24
    735135.654    21686819.727          32.673  
    554441.021    20875954.875          39.913  
   -175919.604    20537744.614          44.782  
  -1115194.406    24532712.058          37.958  
   -395786.156    20129963.315          42.997  
   -721635.559    23063696.334          41.844  
   -840162.264    22081430.544          38.538  
 17 11 13  6 16 20.9998331  0  7G 5G13G15G18G20G21G24
    737071.814    21687177.081          32.569  
    555902.914    20876236.980          39.921  
   -176301.773    20537667.868          44.767  
  -1118039.748    24532169.430          38.469  
   -396710.480    20129777.745          42.911  
   -723381.037    23063359.667          42.119  
   -843385.393    22080813.871          38.577  
 17 11 13  6 16 21.9998331  0  7G 5G13G15G18G20G21G24
    739008.596    21687560.515          33.334  
    557365.289    20876515.786          39.673  
   -176683.462    20537597.116          44.504  
  -1120884.972    24531626.506          38.563  
   -397634.220    20129604.464          42.723  
   -725125.784    23063025.098          42.432  
   -846607.989    22080201.992          38.533  
 17 11 13  6 16 22.9998331  0  7G 5G13G15G18G20G21G24
    740945.659    21687919.365          32.402  
    558827.865    20876795.496          39.563  
   -177064.811    20537526.364          44.106  
  -1123730.189    24531087.778          38.427  
   -398557.502    20129432.684          42.804  
   -726870.138    23062697.126          42.104  
   -849830.169    22079589.219          38.442  
 17 11 13  6 16 23.9998331  0  7G 5G13G15G18G20G21G24
    742883.023    21688284.812          35.817  
    560290.808    20877073.103          40.796  
   -177445.824    20537453.815          44.799  
  -1126575.445    24530543.057          38.719  
   -399480.374    20129252.506          42.602  
   -728613.996    23062361.061          41.259  
   -853052.041    22078977.641          38.893  
 17 11 13  6 16 24.9998331  0  7G 5G13G15G18G20G21G24
    744820.904    21688658.055          35.651  
    561753.951    20877350.709          40.972  
   -177826.450    20537381.868          45.230  
  -1129420.764    24529992.638          39.032  
   -400402.820    20129079.828          42.497  
   -730357.356    23062028.289          41.830  
   -856273.514    22078364.266          38.871  
 17 11 13  6 16 25.9998331  0  7G 5G13G15G18G20G21G24
    746758.850    21689018.406          33.563  
    563217.244    20877626.519          41.615  
   -178206.914    20537310.217          45.527  
  -1132266.212    24529462.906          39.539  
   -401324.940    20128903.851          42.776  
   -732100.418    23061699.117          42.447  
   -859494.793    22077752.091          39.045  
 17 11 13  6 16 26.9998331  0  7G 5G13G15G18G20G21G24
    748697.116    21689394.642          34.757  
    564680.695    20877902.027          41.573  
   -178587.101    20537239.762          45.581  
  -1135111.823    24528914.585          38.982  
   -402246.738    20128728.472          42.627  
   -733843.045    23061366.049          42.583  
   -862715.828    22077140.814          39.062  
 17 11 13  6 16 27.9998331  0  7G 5G13G15G18G20G21G24
    750635.610    21689780.178          34.825  
    566144.385    20878180.236          41.614  
   -178967.082    20537167.514          45.764  
  -1137957.502    24528376.756          39.429  
   -403168.159    20128554.293          42.520  
   -735585.384    23061034.478          42.442  
   -865936.526    22076528.337          39.319  
 17 11 13  6 16 28.9998331  0  7G 5G13G15G18G20G21G24
    752574.402    21690140.826          34.926  
    567608.236    20878457.542          41.716  
   -179346.757    20537094.367          45.693  
  -1140803.290    24527837.431          39.807  
   -404089.191    20128375.315          42.444  
   -737327.182    23060707.103          42.534  
   -869156.926    22075914.962          39.159  
 17 11 13  6 16 29.9998331  0  7G 5G13G15G18G20G21G24
    754513.303    21690508.973          34.844  
    569072.153    20878734.852          41.548  
   -179726.322    20537021.215          45.709  
  -1143649.369    24527302.900          39.918  
   -405010.029    20128204.132          42.442  
   -739068.813    23060381.831          42.802  
   -872377.170    22075302.787          39.352  
 17 11 13  6 16 30.9998331  0  7G 5G13G15G18G20G21G24
    756452.529    21690868.422          34.953  
    570536.268    20879008.864          41.640  
   -180105.631    20536950.163          45.355  
  -1146495.538    24526762.677          39.795  
   -405930.511    20128029.953          42.395  
   -740810.048    23060049.657          42.845  
   -875597.153    22074687.911          39.532  
 17 11 13  6 16 31.9998331  0  8G 5G13G15G18G20G21G24G30
    758391.930    21691235.967          33.969  
    572000.406    20879286.471          41.081  
   -180484.766    20536875.218          45.379  
  -1149341.959    24526223.949          39.305  
   -406850.752    20127855.176          42.794  
   -742550.961    23059721.087          42.416  
   -878816.937    22074077.232          38.903  
    111866.4871   24886587.375          22.459  
 17 11 13  6 16 32.9998331  0  8G 5G13G15G18G20G21G24G30
    760331.505    21691598.417          34.610  
    573464.740    20879558.982          41.000  
   -180863.733    20536808.663          45.721  
  -1152188.477    24525683.420          39.117  
   -407770.681    20127674.400          42.842  
   -744291.519    23059391.915          42.270  
   -882036.473    22073468.354          39.072  
    115159.2441   24887256.211          22.087  
 17 11 13  6 16 33.9998331  0  8G 5G13G15G18G20G21G24G30
    762271.294    21691955.173          34.675  
    574929.227    20879843.185          41.173  
   -181242.416    20536733.714          45.446  
  -1155035.197    24525147.393          39.272  
   -408690.270    20127501.722          42.539  
   -746031.730    23059060.945          42.044  
   -885255.736    22072854.382          38.861  
    118451.9161   24887912.754          21.920  
 17 11 13  6 16 34.9998331  0  8G 5G13G15G18G20G21G24G30
    764211.303    21692310.726          33.947  
    576393.823    20880122.890          41.781  
   -181620.955    20536661.466          45.654  
  -1157882.055    24524607.466          39.397  
   -409609.570    20127327.241          42.752  
   -747771.637    23058729.374          42.499  
   -888474.819    22072243.703          38.985  
    121744.8721   24888437.691          22.144  
 17 11 13  6 16 35.9998331  0  8G 5G13G15G18G20G21G24G30
    766151.497    21692678.572          32.964  
    577858.560    20880404.698          41.938  
   -181999.270    20536591.914          45.780  
  -1160729.099    24524069.039          39.378  
   -410528.598    20127153.363          42.904  
   -749511.167    23058404.097          42.361  
   -891693.644    22071638.123          38.565  
    125037.7521   24889087.943          22.678  
 17 11 13  6 16 36.9998331  0  8G 5G13G15G18G20G21G24G30
    768092.047    21693047.016          31.244  
    579323.456    20880685.900          41.324  
   -182377.334    20536517.563          45.536  
  -1163576.240    24523529.413          39.411  
   -411447.204    20126980.981          43.368  
   -751250.271    23058070.131          42.252  
   -894912.177    22071021.149          38.764  
    128330.5631   24889745.986          22.541  
 17 11 13  6 16 37.9998331  0  8G 5G13G15G18G20G21G24G30
    770032.835    21693401.670          29.813  
    580788.509    20880971.006          41.570  
   -182755.151    20536442.915          45.021  
  -1166423.532    24522983.492          39.379  
   -412365.552    20126806.802          43.363  
   -752989.045    23057740.657          42.167  
   -898130.468    22070412.573          38.724  
    131623.8591   24890363.558          22.172  
 17 11 13  6 16 38.9998331  0  8G 5G13G15G18G20G21G24G30
    771973.769    21693774.913          30.782  
    582253.791    20881248.913          41.361  
   -183132.714    20536369.166          45.083  
  -1169270.955    24522439.965          40.530  
   -413283.503    20126635.619          43.477  
   -754727.431    23057410.285          42.734  
   -901348.479    22069803.691          39.222  
    134917.1191   24890984.132          22.853  
 17 11 13  6 16 39.9998331  0  8G 5G13G15G18G20G21G24G30
    773914.997    21694147.553          30.905  
    583719.224    20881531.018          41.795  
   -183510.027    20536302.013          45.580  
  -1172118.436    24521895.846          40.491  
   -414201.112    20126462.640          43.037  
   -756465.479    23057075.717          43.084  
   -904566.196    22069192.414          39.375  
    138210.373    24891600.203          23.181  
 17 11 13  6 16 40.9998333  0  8G 5G13G15G18G20G21G24G30
    775856.527    21694589.746          30.300  
    585184.793    20881886.867          41.988  
   -183887.109    20536303.811          45.572  
  -1174966.114    24521426.666          40.729  
   -415118.414    20126360.408          43.315  
   -758203.074    23056826.589          42.904  
   -907783.669    22068660.584          39.077  
    141503.773    24892302.317          23.245  
 17 11 13  6 16 41.9998333  0  8G 5G13G15G18G20G21G24G30
    777798.438    21694956.393          29.337  
    586650.731    20882165.975          42.196  
   -184263.810    20536230.664          45.266  
  -1177813.734    24520880.745          40.754  
   -416035.192    20126188.327          43.476  
   -759940.199    23056492.919          42.813  
   -911000.696    22068046.009          38.889  
    144797.507    24892933.679          23.574  
 17 11 13  6 16 42.9998333  0  7G 5G13G15G18G20G21G24
    779740.785    21695317.643          27.489  
    588116.834    20882450.178          42.157  
   -184640.230    20536158.110          44.649  
  -1180661.497    24520333.327          40.093  
   -416951.644    20126011.752          43.589  
   -761676.909    23056158.053          42.579  
   -914217.458    22067436.831          38.308  
 17 11 13  6 16 43.9998333  0  7G 5G13G15G18G20G21G24
    781686.4581   21695708.270          22.699  
    589583.156    20882729.285          41.928  
   -185016.391    20536085.561          44.375  
  -1183509.322    24519782.908          39.425  
   -417867.673    20125833.673          43.417  
   -763413.144    23055830.980          42.933  
   -917433.858    22066821.654          38.397  
 17 11 13  6 16 44.9998333  0  7G 5G13G15G18G20G21G24
    783633.9061   21696078.516          19.648  
    591049.703    20883007.795          42.042  
   -185392.140    20536013.910          44.708  
  -1186357.174    24519239.984          40.119  
   -418783.322    20125663.093          43.336  
   -765148.965    23055497.009          43.100  
   -920649.906    22066213.077          38.848  
 17 11 13  6 16 45.9998333  0  7G 5G13G15G18G20G21G24
    785576.970    21696428.672          26.866  
    592516.459    20883286.301          41.784  
   -185767.715    20535941.963          45.160  
  -1189205.151    24518694.660          40.238  
   -419698.549    20125485.013          43.534  
   -766884.390    23055167.239          42.601  
   -923865.686    22065600.902          38.622  
 17 11 13  6 16 46.9998333  0  7G 5G13G15G18G20G21G24
    787520.306    21696800.715          27.318  
    593983.370    20883557.612          41.617  
   -186143.011    20535872.110          44.911  
  -1192053.246    24518153.232          40.099  
   -420613.478    20125315.633          43.330  
   -768619.430    23054838.368          42.388  
   -927081.180    22064991.122          38.247  
 17 11 13  6 16 47.9998333  0  7G 5G13G15G18G20G21G24
    789463.950    21697171.558          27.489  
    595450.592    20883840.615          41.905  
   -186518.036    20535800.760          45.037  
  -1194901.428    24517614.509          39.688  
   -421527.976    20125140.555          43.298  
   -770354.004    23054511.591          42.432  
   -930296.313    22064374.152          38.630  
 17 11 13  6 16 48.9998333  0  7G 5G13G15G18G20G21G24
    791407.951    21697597.863          29.430  
    596917.958    20884116.726          41.390  
   -186892.771    20535731.806          44.702  
  -1197749.684    24517077.278          40.092  
   -422442.116    20124966.672          43.256  
   -772088.145    23054174.627          42.263  
   -933511.171    22063764.371          38.448  
 17 11 13  6 16 49.9998333  0  8G 5G13G15G18G20G21G24G30
    793351.514    21697990.292          29.081  
    598385.636    20884393.133          41.335  
   -187267.130    20535661.058          45.840  
  -1200597.976    24516530.759          40.214  
   -423355.782    20124792.794          42.927  
   -773821.859    23053846.951          42.358  
   -936725.588    22063171.081          34.436  
    171152.229    24897995.974          23.703  
 17 11 13  6 16 50.9998333  0  8G 5G13G15G18G20G21G24G30
    795296.123    21698365.031          29.876  
    599853.338    20884668.345          42.312  
   -187641.334    20535593.901          46.038  
  -1203446.463    24515992.629          39.893  
   -424269.193    20124618.915          42.364  
   -775555.257    23053513.285          41.939  
   -939939.956    22062558.605          30.610  
    174447.163    24898628.535          23.199  
 17 11 13  6 16 51.9998333  0  8G 5G13G15G18G20G21G24G30
    797240.859    21698729.579          30.827  
    601321.337    20884950.148          42.590  
   -188015.281    20535521.653          46.044  
  -1206295.038    24515458.399          40.177  
   -425182.271    20124438.441          42.699  
   -777288.214    23053186.809          41.652  
   -943153.928    22061975.510          26.713  
    177742.1881   24899245.510          23.437  
 17 11 13  6 16 52.9998333  0  8G 5G13G15G18G20G21G24G30
    799186.402    21699094.428          31.452  
    602789.360    20885226.259          40.974  
   -188389.082    20535453.601          45.492  
  -1209143.837    24514919.973          40.191  
   -426095.073    20124269.357          43.205  
   -779020.893    23052851.940          42.300  
   -946367.608    22061298.581          35.621  
    181037.304    24899843.297          24.518  
 17 11 13  6 16 53.9998333  0  8G 5G13G15G18G20G21G24G30
    801131.386    21699479.363          32.174  
    604257.453    20885504.463          40.650  
   -188762.761    20535384.346          45.264  
  -1211992.881    24514383.645          40.473  
   -427007.658    20124098.777          43.145  
   -780753.316    23052523.369          42.177  
   -949581.222    22060691.200          36.552  
    184332.283    24900451.874          23.805  
 17 11 13  6 16 54.9998333  0  8G 5G13G15G18G20G21G24G30
    803076.689    21699826.220          32.165  
    605725.693    20885780.273          39.953  
   -189136.159    20535313.895          45.420  
  -1214842.027    24513840.721          40.618  
   -427919.878    20123921.897          43.206  
   -782485.357    23052196.597          42.514  
   -952794.545    22060087.117          35.397  
    187627.571    24901075.143          23.170  
 17 11 13  6 16 55.9998333  0  8G 5G13G15G18G20G21G24G30
    805022.275    21700195.567          32.711  
    607194.121    20886058.180          39.669  
   -189509.300    20535239.548          45.269  
  -1217691.295    24513295.096          41.043  
   -428831.743    20123747.120          42.977  
   -784217.024    23051861.125          42.641  
   -956007.620    22059473.441          35.102  
    190922.842    24901671.129          23.258  
 17 11 13  6 16 56.9998333  0  8G 5G13G15G18G20G21G24G30
    806968.350    21700560.111          33.058  
    608662.949    20886336.088          39.521  
   -189882.028    20535164.002          45.082  
  -1220540.534    24512754.872          41.096  
   -429743.099    20123570.541          42.689  
   -785948.025    23051530.155          42.551  
   -959220.152    22058859.468          36.239  
    194218.3631   24902323.479          22.980  
 17 11 13  6 16 57.9998333  0  8G 5G13G15G18G20G21G24G30
    808914.862    21700952.841          33.107  
    610132.099    20886617.892          40.321  
   -190254.345    20535092.648          45.319  
  -1223389.731    24512206.852          41.218  
   -430653.952    20123395.760          42.771  
   -787678.586    23051202.183          43.227  
   -962432.313    22058241.596          36.745  
    197514.3631   24902943.150          22.499  
 17 11 13  6 16 58.9998333  0  8G 5G13G15G18G20G21G24G30
    810861.503    21701326.983          32.896  
    611601.314    20886895.202          40.409  
   -190626.476    20535020.099          45.402  
  -1226239.101    24511666.026          41.341  
   -431564.503    20123224.281          42.932  
   -789408.799    23050876.309          43.452  
   -965644.236    22057626.720          36.837  
    200810.2741   24903537.338          22.944  
 17 11 13  6 16 59.9998333  0  8G 5G13G15G18G20G21G24G30
    812808.479    21701699.624          32.457  
    613070.824    20887174.907          40.074  
   -190998.295    20534950.546          45.168  
  -1229088.517    24511117.706          41.186  
   -432474.647    20123051.301          42.789  
   -791138.537    23050545.339          43.381  
   -968855.820    22057017.842          36.636  
    204106.1741   24904185.789          22.618  
 17 11 13  6 17  0.9998333  0  8G 5G13G15G18G20G21G24G30
    814755.787    21702083.057          32.392  
    614540.535    20887455.214          39.933  
   -191369.758    20534881.596          45.409  
  -1231937.972    24510572.382          41.171  
   -433384.345    20122878.020          42.824  
   -792867.844    23050217.066          43.607  
   -972067.045    22056403.568          36.978  
    207402.5311   24904830.343          22.630  
 17 11 13  6 17  1.9998333  0  8G 5G13G15G18G20G21G24G30
    816703.349    21702446.406          32.991  
    616010.481    20887742.118          40.128  
   -191741.011    20534810.844          45.236  
  -1234787.549    24510025.562          40.846  
   -434293.718    20122706.537          42.920  
   -794596.710    23049888.195          43.543  
   -975277.986    22055793.788          37.074  
    210698.8211   24905458.708          22.181  
 17 11 13  6 17  2.9998333  0  8G 5G13G15G18G20G21G24G30
    818651.305    21702820.547          33.017  
    617480.696    20888020.021          40.210  
   -192111.907    20534744.289          45.419  
  -1237637.172    24509482.337          40.811  
   -435202.638    20122533.557          42.985  
   -796325.143    23049558.721          43.636  
   -978488.578    22055183.414          36.991  
    213995.4471   24906078.378          22.376  
 17 11 13  6 17  3.9998333  0  8G 5G13G15G18G20G21G24G30
    820599.741    21703200.386          31.997  
    618951.309    20888300.629          40.067  
   -192482.326    20534672.639          45.444  
  -1240486.643    24508936.716          40.642  
   -436110.978    20122362.375          42.956  
   -798052.983    23049238.545          43.868  
   -981698.629    22054574.533          37.242  
    217292.3791   24906696.251          22.526  
 17 11 13  6 17  4.9998333  0  8G 5G13G15G18G20G21G24G30
    822548.591    21703551.144          31.416  
    620422.241    20888578.537          39.580  
   -192852.360    20534602.188          45.166  
  -1243336.160    24508393.491          40.240  
   -437018.823    20122185.801          42.772  
   -799780.232    23048907.571          43.521  
   -984908.243    22053957.262          37.009  
    220589.5181   24907342.005          22.434  
 17 11 13  6 17  5.9998333  0  8G 5G13G15G18G20G21G24G30
    824497.775    21703913.890          30.377  
    621893.423    20888862.740          39.990  
   -193222.026    20534532.339          45.490  
  -1246185.640    24507854.166          40.613  
   -437926.234    20122019.116          43.240  
   -801507.037    23048579.598          43.995  
   -988117.460    22053348.384          37.162  
    223886.9321   24907949.984          22.837  
 17 11 13  6 17  6.9998333  0  8G 5G13G15G18G20G21G24G30
    826447.202    21704279.337          29.657  
    623364.833    20889140.949          39.797  
   -193591.478    20534459.188          45.431  
  -1249035.249    24507316.337          40.805  
   -438833.276    20121843.737          43.365  
   -803233.408    23048255.225          43.832  
   -991326.435    22052739.503          36.947  
    227184.4781   24908590.341          22.944  
 17 11 13  6 17  7.9998333  0  8G 5G13G15G18G20G21G24G30
    828396.909    21704629.197          28.897  
    624836.432    20889419.755          39.726  
   -193960.558    20534387.838          45.498  
  -1251884.904    24506776.410          40.887  
   -439739.898    20121674.051          43.425  
   -804959.369    23047928.448          44.249  
   -994535.003    22052128.828          37.402  
    230482.2391   24909229.198          22.417  
 17 11 13  6 17  8.9998333  0  8G 5G13G15G18G20G21G24G30
    830347.164    21704987.149          27.675  
    626308.433    20889696.162          39.717  
   -194329.285    20534316.785          45.324  
  -1254734.513    24506239.480          40.980  
   -440646.028    20121502.873          43.430  
   -806684.771    23047601.077          44.204  
   -997743.156    22051519.950          37.258  
    233780.0701   24909860.560          22.655  
 17 11 13  6 17  9.9998333  0  8G 5G13G15G18G20G21G24G30
    832297.499    21705390.968          27.009  
    627780.530    20889979.166          39.716  
   -194697.798    20534245.737          45.429  
  -1257584.307    24505698.357          41.310  
   -441551.847    20121332.289          43.706  
   -808409.805    23047270.405          44.159  
  -1000951.062    22050918.267          37.136  
    237078.1691   24910466.144          22.453  
 17 11 13  6 17 10.9998333  0  8G 5G13G15G18G20G21G24G30
    834248.307    21705743.825          26.776  
    629252.926    20890256.773          39.256  
   -195065.952    20534179.482          45.401  
  -1260434.134    24505164.128          41.435  
   -442457.236    20121160.208          43.588  
   -810134.345    23046939.435          44.324  
  -1004158.559    22050307.588          37.301  
    240376.326    24911104.102          23.299  
 17 11 13  6 17 11.9998333  0  8G 5G13G15G18G20G21G24G30
    836199.418    21706146.746          27.264  
    630725.567    20890537.080          39.176  
   -195433.738    20534108.429          45.509  
  -1263283.933    24504619.703          41.736  
   -443362.129    20120987.228          43.640  
   -811858.423    23046613.260          44.248  
  -1007365.654    22049704.404          37.520  
    243674.6811   24911700.686          22.937  
 17 11 13  6 17 12.9998336  0  8G 5G13G15G18G20G21G24G30
    838150.873    21706593.441          27.997  
    632198.485    20890892.637          39.398  
   -195801.258    20534116.827          45.304  
  -1266133.844    24504163.724          41.618  
   -444266.665    20120888.600          43.553  
   -813582.039    23046361.737          44.110  
  -1010572.414    22049166.584          37.656  
    246973.2131   24912418.095          22.787  
 17 11 13  6 17 13.9998336  0  8G 5G13G15G18G20G21G24G30
    840102.623    21706937.900          27.937  
    633671.527    20891174.445          38.987  
   -196168.441    20534046.678          45.425  
  -1268983.828    24503618.400          41.571  
   -445170.790    20120714.721          43.718  
   -815305.278    23046031.967          43.925  
  -1013778.880    22048559.203          37.795  
    250272.0661   24913023.674          22.804  
 17 11 13  6 17 14.9998336  0  8G 5G13G15G18G20G21G24G30
    842054.702    21707309.044          27.927  
    635144.948    20891452.950          38.952  
   -196535.305    20533978.024          45.475  
  -1271833.824    24503080.873          41.866  
   -446074.474    20120547.138          43.656  
   -817028.022    23045700.696          43.855  
  -1016984.999    22047953.322          37.676  
    253570.899    24913694.608          23.367  
 17 11 13  6 17 15.9998336  0  8G 5G13G15G18G20G21G24G30
    844007.274    21707667.598          27.675  
    636618.628    20891729.959          38.885  
   -196901.788    20533903.376          45.414  
  -1274683.792    24502536.749          41.839  
   -446977.632    20120374.455          43.669  
   -818750.153    23045374.822          43.610  
  -1020190.593    22047342.944          37.897  
    256870.142    24914325.674          23.837  
 17 11 13  6 17 16.9998336  0  8G 5G13G15G18G20G21G24G30
    845960.117    21708046.835          27.512  
    638092.597    20892010.864          38.629  
   -197267.948    20533835.325          45.498  
  -1277533.822    24501993.227          42.043  
   -447880.409    20120203.277          43.669  
   -820471.896    23045040.254          43.711  
  -1023395.902    22046735.267          38.108  
    260169.574    24914940.550          23.782  
 17 11 13  6 17 17.9998336  0  8G 5G13G15G18G20G21G24G30
    847913.172    21708417.377          27.946  
    639566.744    20892292.668          38.485  
   -197633.804    20533764.272          45.332  
  -1280383.943    24501447.301          42.007  
   -448782.777    20120029.395          43.447  
   -822193.202    23044713.778          43.361  
  -1026600.878    22046126.385          37.769  
    263468.994    24915589.296          23.102  
 17 11 13  6 17 18.9998336  0  8G 5G13G15G18G20G21G24G30
    849866.629    21708784.024          28.498  
    641041.152    20892573.276          38.678  
   -197999.343    20533691.723          45.461  
  -1283234.071    24500899.582          41.927  
   -449684.729    20119856.114          43.594  
   -823914.069    23044385.504          43.526  
  -1029805.496    22045513.908          37.747  
    266768.746    24916157.105          23.350  
 17 11 13  6 17 19.9998336  0  8G 5G13G15G18G20G21G24G30
    851820.442    21709159.365          28.103  
    642515.764    20892857.479          38.642  
   -198364.601    20533622.170          45.116  
  -1286084.303    24500356.658          41.574  
   -450586.280    20119680.438          43.171  
   -825634.451    23044056.633          43.439  
  -1033009.780    22044904.132          37.288  
    270068.571    24916837.336          23.536  
 17 11 13  6 17 20.9998336  0  8G 5G13G15G18G20G21G24G30
    853774.628    21709522.111          28.251  
    643990.672    20893141.682          38.736  
   -198729.464    20533554.717          45.186  
  -1288934.526    24499810.135          41.413  
   -451487.349    20119511.952          43.197  
   -827354.381    23043730.458          43.513  
  -1036213.638    22044288.358          37.087  
    273368.6411   24917428.824          22.855  
 17 11 13  6 17 21.9998336  0  8G 5G13G15G18G20G21G24G30
    855729.089    21709898.652          27.739  
    645465.810    20893426.482          39.147  
   -199094.089    20533484.567          45.172  
  -1291784.828    24499259.419          41.308  
   -452388.059    20119338.074          43.051  
   -829073.825    23043406.084          43.653  
  -1039417.231    22043680.680          36.923  
    276668.877    24918062.285          23.908  
 17 11 13  6 17 22.9998336  0  8G 5G13G15G18G20G21G24G30
    857683.754    21710259.902          27.161  
    646941.062    20893712.487          39.215  
   -199458.494    20533415.612          45.374  
  -1294635.300    24498716.194          41.300  
   -453288.475    20119165.993          43.037  
   -830792.994    23043079.608          43.841  
  -1042620.582    22043068.505          37.054  
    279969.081    24918682.557          23.282  
 17 11 13  6 17 23.9998336  0  8G 5G13G15G18G20G21G24G30
    859638.703    21710644.836          27.872  
    648416.589    20893992.790          39.568  
   -199822.528    20533350.558          45.431  
  -1297485.788    24498168.475          41.327  
   -454188.424    20118993.013          42.940  
   -832511.656    23042756.435          43.993  
  -1045823.561    22042456.028          37.043  
    283269.616    24919307.026          24.043  
 17 11 13  6 17 24.9998336  0  8G 5G13G15G18G20G21G24G30
    861594.123    21711009.681          28.356  
    649892.479    20894278.494          40.000  
   -200186.217    20533280.408          45.436  
  -1300336.273    24497626.746          40.882  
   -455087.870    20118826.630          43.060  
   -834229.738    23042429.060          43.650  
  -1049026.113    22041847.447          36.728  
    286570.4241   24919969.266          23.970  
 17 11 13  6 17 25.9998336  0  8G 5G13G15G18G20G21G24G30
    863549.991    21711382.326          28.971  
    651368.611    20894564.494          40.149  
   -200549.500    20533214.751          45.518  
  -1303186.744    24497086.823          40.865  
   -455986.820    20118656.045          43.319  
   -835947.330    23042099.888          43.140  
  -1052228.236    22041234.373          37.171  
    289871.308    24920569.750          24.156  
 17 11 13  6 17 26.9998336  0  8G 5G13G15G18G20G21G24G30
    865505.9481   21711782.246          26.501  
    652845.069    20894845.102          40.898  
   -200912.433    20533141.906          45.862  
  -1306037.212    24496543.297          40.632  
   -456885.331    20118486.965          43.295  
   -837664.517    23041779.109          43.907  
  -1055429.973    22040633.589          38.359  
    293172.501    24921213.105          24.293  
 17 11 13  6 17 27.9998336  0  8G 5G13G15G18G20G21G24G30
    867462.082    21712090.434          25.678  
    654321.675    20895121.810          40.396  
   -201275.114    20533074.151          45.890  
  -1308887.841    24496000.674          41.388  
   -457783.515    20118315.482          44.662  
   -839381.245    23041451.739          41.581  
  -1058631.458    22040027.407          38.198  
    296473.996    24921878.045          24.127  
 17 11 13  6 17 28.9998336  0  8G 5G13G15G18G20G21G24G30
    869424.0841   21712489.460          21.926  
    655798.449    20895406.314          40.967  
   -201637.573    20533004.900          45.675  
  -1311738.578    24495461.349          41.323  
   -458681.354    20118144.300          44.412  
   -841097.564    23041125.864          41.469  
  -1061832.584    22039411.035          39.377  
    299775.230    24922494.116          25.019  
 17 11 13  6 17 29.9998336  0  8G 5G13G15G18G20G21G24G30
    871381.072    21712886.086          26.000  
    657275.367    20895681.823          41.497  
   -201999.787    20532937.145          46.450  
  -1314589.457    24494926.818          41.466  
   -459578.905    20117971.320          43.340  
   -842813.490    23040799.986          43.766  
  -1065033.518    22038801.259          39.281  
    303076.594    24923085.609          23.376  
 17 11 13  6 17 30.9998336  0  8G 5G13G15G18G20G21G24G30
    873338.126    21713253.330          27.942  
    658752.345    20895965.428          40.925  
   -202361.916    20532864.595          45.579  
  -1317440.529    24494390.786          41.109  
   -460476.159    20117799.239          42.926  
   -844529.210    23040475.312          43.229  
  -1068234.286    22038200.775          38.159  
    306378.108    24923711.574          23.932  
 17 11 13  6 17 31.9998336  0  8G 5G13G15G18G20G21G24G30
    875295.891    21713604.686          28.960  
    660229.505    20896250.229          40.862  
   -202723.779    20532797.142          45.753  
  -1320291.784    24493856.858          41.855  
   -461373.121    20117628.956          42.764  
   -846244.578    23040148.238          44.089  
  -1071434.788    22037584.102          37.532  
    309679.7221   24924335.743          22.417  
 17 11 13  6 17 32.9998336  0  8G 5G13G15G18G20G21G24G30
    877253.503    21714009.107          28.988  
    661706.912    20896530.536          41.049  
   -203085.321    20532727.589          45.333  
  -1323143.118    24493313.336          40.846  
   -462269.639    20117458.676          43.168  
   -847959.431    23039824.763          43.741  
  -1074634.931    22036979.417          37.419  
    312981.3401   24924931.733          21.413  
 17 11 13  6 17 33.9998336  0  8G 5G13G15G18G20G21G24G30
    879211.421    21714374.253          30.124  
    663184.487    20896807.842          41.076  
   -203446.613    20532659.839          44.980  
  -1325994.499    24492774.307          41.105  
   -463165.764    20117289.593          43.027  
   -849673.891    23039498.588          43.955  
  -1077834.709    22036365.444          37.605  
    316283.3871   24925552.900          21.766  
 17 11 13  6 17 34.9998336  0  8G 5G13G15G18G20G21G24G30
    881169.759    21714760.684          31.616  
    664662.375    20897092.346          41.323  
   -203807.500    20532591.185          45.113  
  -1328845.871    24492229.285          41.063  
   -464061.451    20117118.410          42.971  
   -851387.853    23039171.815          44.221  
  -1081034.107    22035764.960          36.712  
    319585.4321   24926198.654          21.741  
 17 11 13  6 17 35.9998336  0  8G 5G13G15G18G20G21G24G30
    883128.478    21715132.129          34.017  
    666140.616    20897366.955          41.021  
   -204167.973    20532525.830          45.344  
  -1331697.173    24491686.360          41.088  
   -464956.576    20116950.827          43.078  
   -853101.178    23038842.643          43.608  
  -1084233.046    22035157.278          36.324  
    322887.9321   24926842.907          21.715  
 17 11 13  6 17 36.9998336  0  8G 5G13G15G18G20G21G24G30
    885087.511    21715508.068          36.113  
    667619.117    20897645.465          41.001  
   -204528.107    20532454.480          45.523  
  -1334548.575    24491137.739          40.987  
   -465851.261    20116779.047          43.233  
   -854814.102    23038515.870          43.272  
  -1087431.549    22034542.703          36.295  
    326190.3101   24927449.987          20.558  
 17 11 13  6 17 37.9998336  0  8G 5G13G15G18G20G21G24G30
    887047.129    21715891.205          36.404  
    669098.064    20897920.075          40.620  
   -204887.771    20532385.229          45.240  
  -1337399.767    24490592.716          40.520  
   -466745.374    20116606.068          43.244  
   -856526.345    23038189.695          43.200  
  -1090629.577    22033943.123          36.155  
    329491.5401   24928063.061          20.317  
 17 11 13  6 17 38.9998336  0  8G 5G13G15G18G20G21G24G30
    889007.110    21716259.348          36.789  
    670577.307    20898202.476          40.569  
   -205247.008    20532316.275          45.280  
  -1340250.998    24490053.090          40.582  
   -467639.011    20116440.578          43.143  
   -858238.118    23037866.517          43.370  
  -1093827.207    22033333.944          36.422  
    332790.1291   24928681.536          20.587  
 17 11 13  6 17 39.9998336  0  8G 5G13G15G18G20G21G24G30
    890967.427    21716638.585          36.774  
    672056.790    20898479.184          40.803  
   -205605.950    20532250.623          45.127  
  -1343102.244    24489499.373          40.417  
   -468532.158    20116270.596          43.166  
   -859949.309    23037543.644          43.529  
  -1097024.385    22032714.270          36.869  
    336093.5211   24929303.902          19.455  
 17 11 13  6 17 40.9998336  0  8G 5G13G15G18G20G21G24G30
    892928.127    21717009.729          36.738  
    673536.593    20898757.991          40.941  
   -205964.513    20532181.668          45.284  
  -1345953.482    24488952.854          39.948  
   -469424.902    20116096.120          43.375  
   -861660.126    23037215.371          43.843  
  -1100221.216    22032112.887          36.909  
    339396.9141   24929945.761          20.010  
 17 11 13  6 17 41.9998336  0  8G 5G13G15G18G20G21G24G30
    894889.177    21717379.373          36.847  
    675016.679    20899039.799          41.054  
   -206322.740    20532112.116          45.393  
  -1348804.769    24488406.330          40.069  
   -470317.122    20115931.233          43.391  
   -863370.395    23036886.796          43.971  
  -1103417.684    22031508.508          36.861  
    342700.7081   24930569.327          19.205  
 17 11 13  6 17 42.9998336  0  8G 5G13G15G18G20G21G24G30
    896850.458    21717756.511          36.812  
    676496.855    20899321.005          41.063  
   -206680.712    20532048.859          45.380  
  -1351656.198    24487855.313          40.026  
   -471209.087    20115762.149          43.332  
   -865080.295    23036564.521          43.981  
  -1106613.868    22030889.134          36.627  
    346004.7391   24931192.295          18.963  
 17 11 13  6 17 43.9998336  0  8G 5G13G15G18G20G21G24G30
    898812.019    21718122.259          36.493  
    677977.250    20899604.907          40.922  
   -207038.456    20531980.506          45.067  
  -1354507.712    24487308.192          39.708  
   -472100.655    20115590.967          43.005  
   -866789.764    23036236.549          43.734  
  -1109809.816    22030281.155          36.093  
    349309.4631   24931819.164          18.333  
 17 11 13  6 17 44.9998336  0  8G 5G13G15G18G20G21G24G30
    900773.623    21718492.801          37.039  
    679457.624    20899890.610          41.422  
   -207396.155    20531913.052          45.250  
  -1357359.540    24486764.369          39.364  
   -472992.094    20115420.687          43.178  
   -868499.085    23035907.673          43.871  
  -1113005.620    22029673.478          36.017  
    352606.8151   24932444.828          18.757  
 17 11 13  6 17 45.9998339  0  8G 5G13G15G18G20G21G24G30
    902735.462    21718945.787          37.025  
    680938.157    20900249.461          41.730  
   -207753.607    20531921.446          45.340  
  -1360211.556    24486299.989          39.522  
   -473883.178    20115328.651          43.287  
   -870208.045    23035660.945          44.016  
  -1116201.195    22029135.950          35.693  
    355912.8181   24933147.243          17.775  
 17 11 13  6 17 46.9998339  0  8G 5G13G15G18G20G21G24G30
    904697.296    21719307.037          36.599  
    682418.597    20900534.262          41.910  
   -208111.072    20531852.797          45.246  
  -1363063.926    24485763.660          39.575  
   -474774.217    20115155.370          43.105  
   -871916.878    23035332.671          43.849  
  -1119396.720    22028528.870          35.280  
    359220.9281   24933796.592          18.543  
 17 11 13  6 17 47.9998339  0  8G 5G13G15G18G20G21G24G30
    906659.442    21719679.381          36.675  
    683899.235    20900819.363          42.371  
   -208468.290    20531780.248          45.324  
  -1365916.384    24485224.034          39.964  
   -475664.813    20114988.083          43.221  
   -873625.289    23035008.595          44.122  
  -1122591.921    22027916.092          35.220  
    362521.9051   24934426.156          17.922  
 17 11 13  6 17 48.9998339  0  7G 5G13G15G18G20G21G24
    908621.961    21720059.216          36.173  
    685380.153    20901106.568          42.273  
   -208825.131    20531716.389          45.143  
  -1368768.845    24484685.904          40.105  
   -476554.980    20114816.901          43.129  
   -875333.184    23034681.822          44.122  
  -1125786.684    22027310.212          34.696  
 17 11 13  6 17 49.9998339  0  7G 5G13G15G18G20G21G24
    910584.862    21720422.564          35.939  
    686861.392    20901383.276          42.483  
   -209181.612    20531646.836          45.369  
  -1371621.313    24484148.080          40.059  
   -477444.661    20114648.720          43.205  
   -877040.555    23034357.745          44.257  
  -1128981.138    22026702.233          34.747  
 17 11 13  6 17 50.9998339  0  7G 5G13G15G18G20G21G24
    912548.214    21720803.302          35.668  
    688342.999    20901666.877          42.588  
   -209537.619    20531582.982          45.348  
  -1374473.673    24483609.950          40.219  
   -478333.820    20114478.738          43.175  
   -878747.295    23034033.372          44.357  
  -1132175.086    22026092.754          34.553  
 17 11 13  6 17 51.9998339  0  7G 5G13G15G18G20G21G24
    914512.005    21721173.547          35.564  
    689824.949    20901953.479          42.764  
   -209893.219    20531516.130          45.387  
  -1377326.030    24483074.822          40.312  
   -479222.441    20114308.454          43.094  
   -880453.533    23033706.298          44.368  
  -1135368.493    22025493.771          34.402  
 17 11 13  6 17 52.9998339  0  7G 5G13G15G18G20G21G24
    916476.227    21721543.191          35.628  
    691307.233    20902237.084          42.652  
   -210248.402    20531447.476          45.512  
  -1380178.284    24482534.297          40.599  
   -480110.523    20114139.972          43.125  
   -882159.220    23033381.022          44.641  
  -1138561.520    22024886.089          34.190  
 17 11 13  6 17 53.9998339  0  7G 5G13G15G18G20G21G24
    918440.994    21721908.036          34.698  
    692789.976    20902514.093          42.563  
   -210603.104    20531381.222          45.435  
  -1383030.439    24481994.967          40.705  
   -480998.006    20113969.689          43.029  
   -883864.244    23033058.747          44.475  
  -1141753.992    22024273.316          33.986  
 17 11 13  6 17 54.9998339  0  7G 5G13G15G18G20G21G24
    920406.180    21722278.582          34.263  
    694273.062    20902796.495          42.503  
   -210957.305    20531313.768          45.397  
  -1385882.467    24481456.240          40.496  
   -481884.947    20113806.302          42.810  
   -885568.664    23032733.771          44.578  
  -1144945.945    22023678.826          33.973  
 17 11 13  6 17 55.9998339  0  7G 5G13G15G18G20G21G24
    922371.718    21722651.524          34.302  
    695756.453    20903079.799          42.369  
   -211311.157    20531244.517          45.293  
  -1388734.550    24480910.319          40.435  
   -482771.393    20113636.320          42.898  
   -887272.648    23032410.894          44.591  
  -1148137.604    22023052.861          33.783  
 17 11 13  6 17 56.9998339  0  7G 5G13G15G18G20G21G24
    924337.575    21723029.260          34.597  
    697240.019    20903362.205          42.462  
   -211664.753    20531173.464          45.369  
  -1391586.721    24480364.698          40.362  
   -483657.491    20113469.936          43.028  
   -888976.123    23032087.118          44.655  
  -1151328.821    22022459.571          33.670  
 17 11 13  6 17 57.9998339  0  7G 5G13G15G18G20G21G24
    926303.823    21723407.598          34.299  
    698723.923    20903644.309          42.407  
   -212017.936    20531108.711          45.304  
  -1394438.844    24479818.175          40.312  
   -484543.079    20113302.052          42.870  
   -890679.114    23031761.846          44.560  
  -1154519.639    22021853.389          33.864  
 17 11 13  6 17 58.9998339  0  7G 5G13G15G18G20G21G24
    928270.418    21723774.245          34.267  
    700208.018    20903919.818          42.366  
   -212370.871    20531037.658          45.314  
  -1397291.011    24479273.754          40.225  
   -485428.296    20113132.667          42.783  
   -892381.673    23031442.564          44.714  
  -1157710.165    22021241.214          33.926  
 17 11 13  6 17 59.9998339  0  7G 5G13G15G18G20G21G24
    930237.162    21724159.777          34.432  
    701692.324    20904205.220          42.179  
   -212723.562    20530971.404          44.992  
  -1400143.390    24478720.635          39.978  
   -486313.157    20112962.388          42.734  
   -894083.835    23031117.890          44.785  
  -1160900.368    22020643.426          34.128  
 17 11 13  6 18  0.9998339  0  7G 5G13G15G18G20G21G24
    932204.350    21724534.520          34.242  
    703176.841    20904483.730          42.165  
   -213075.881    20530904.552          45.164  
  -1402995.706    24478170.216          39.558  
   -487197.586    20112793.902          42.569  
   -895785.539    23030798.913          44.686  
  -1164090.150    22020046.240          34.112  
 17 11 13  6 18  1.9998339  0  7G 5G13G15G18G20G21G24
    934171.793    21724914.957          34.129  
    704661.560    20904765.534          42.254  
   -213427.941    20530835.899          45.113  
  -1405848.175    24477623.095          39.545  
   -488081.627    20112624.822          42.507  
   -897486.825    23030470.639          44.667  
  -1167279.716    22019426.871          34.187  
 17 11 13  6 18  2.9998339  0  7G 5G13G15G18G20G21G24
    936139.528    21725294.194          34.342  
    706146.496    20905048.537          42.257  
   -213779.773    20530768.148          45.117  
  -1408700.717    24477075.673          39.481  
   -488965.281    20112459.036          42.498  
   -899187.723    23030151.060          44.515  
  -1170468.865    22018831.779          33.993  
 17 11 13  6 18  3.9998339  0  7G 5G13G15G18G20G21G24
    938107.620    21725663.235          34.103  
    707631.701    20905331.243          42.326  
   -214131.217    20530700.092          45.009  
  -1411553.318    24476529.751          39.272  
   -489848.491    20112290.851          42.361  
   -900888.059    23029825.483          44.673  
  -1173657.697    22018220.804          33.917  
 17 11 13  6 18  4.9998339  0  7G 5G13G15G18G20G21G24
    940076.018    21726037.979          33.638  
    709117.142    20905617.244          42.113  
   -214482.356    20530634.737          44.767  
  -1414405.929    24475986.827          39.155  
   -490731.308    20112121.170          42.066  
   -902588.030    23029499.011          44.262  
  -1176846.219    22017622.719          33.520  
 17 11 13  6 18  5.9998339  0  7G 5G13G15G18G20G21G24
    942044.669    21726404.023          33.972  
    710602.719    20905895.453          42.381  
   -214833.293    20530569.983          45.071  
  -1417258.694    24475446.603          39.200  
   -491613.772    20111951.187          42.103  
   -904287.547    23029177.932          44.593  
  -1180034.440    22017014.440          33.952  
 17 11 13  6 18  6.9998339  0  7G 5G13G15G18G20G21G24
    944013.435    21726785.961          33.260  
    712088.402    20906180.253          42.494  
   -215184.050    20530505.527          45.218  
  -1420111.650    24474904.277          39.494  
   -492495.977    20111783.905          42.162  
   -905986.795    23028856.555          44.694  
  -1183222.500    22016399.267          34.190  
 17 11 13  6 18  7.9998339  0  7G 5G13G15G18G20G21G24
    945982.608    21727163.400          33.203  
    713574.295    20906468.055          42.637  
   -215534.499    20530442.872          45.371  
  -1422964.677    24474370.047          39.635  
   -493377.797    20111611.824          42.287  
   -907685.608    23028532.479          44.861  
  -1186410.173    22015803.578          34.731  
 17 11 13  6 18  8.9998339  0  7G 5G13G15G18G20G21G24
    947952.097    21727533.942          33.259  
    715060.529    20906751.360          42.682  
   -215884.594    20530373.620          45.276  
  -1425817.715    24473837.615          39.836  
   -494259.102    20111445.737          42.222  
   -909383.896    23028210.204          44.707  
  -1189597.427    22015196.498          34.455  
 17 11 13  6 18  9.9998339  0  7G 5G13G15G18G20G21G24
    949921.982    21727917.079          33.504  
    716546.993    20907032.862          42.922  
   -216234.338    20530308.863          45.498  
  -1428670.746    24473300.087          39.906  
   -495139.968    20111281.452          42.407  
   -911081.704    23027882.231          44.776  
  -1192784.308    22014578.625          34.566  
 17 11 13  6 18 10.9998339  0  7G 5G13G15G18G20G21G24
    951892.173    21728285.222          33.430  
    718033.710    20907320.664          42.789  
   -216583.746    20530240.510          45.268  
  -1431523.783    24472759.863          39.863  
   -496020.405    20111117.464          42.460  
   -912779.015    23027560.554          44.618  
  -1195970.758    22013983.838          34.489  
 17 11 13  6 18 11.9998339  0  7G 5G13G15G18G20G21G24
    953862.867    21728680.648          33.609  
    719520.849    20907605.766          43.142  
   -216932.663    20530176.354          45.562  
  -1434376.809    24472218.435          40.083  
   -496900.231    20110948.083          42.669  
   -914475.777    23027238.876          44.700  
  -1199156.730    22013370.463          34.368  
 17 11 13  6 18 12.9998339  0  7G 5G13G15G18G20G21G24
    955833.839    21729047.893          33.262  
    721008.194    20907889.672          43.123  
   -217281.340    20530109.804          45.402  
  -1437229.868    24471680.310          39.782  
   -497779.727    20110781.098          42.367  
   -916172.041    23026915.397          44.597  
  -1202342.400    22012770.276          34.509  
 17 11 13  6 18 13.9998339  0  7G 5G13G15G18G20G21G24
    957805.214    21729425.934          32.956  
    722495.829    20908173.875          43.257  
   -217629.621    20530039.950          45.566  
  -1440082.896    24471138.886          40.177  
   -498658.690    20110614.413          42.577  
   -917867.796    23026593.122          44.452  
  -1205527.633    22012158.101          34.572  
 17 11 13  6 18 14.9998339  0  7G 5G13G15G18G20G21G24
    959776.887    21729788.380          32.617  
    723983.675    20908457.777          43.406  
   -217977.610    20529977.592          45.522  
  -1442936.048    24470594.461          40.156  
   -499537.254    20110444.130          42.643  
   -919563.108    23026267.248          44.425  
  -1208712.545    22011549.524          34.100  
 17 11 13  6 18 15.9998339  0  7G 5G13G15G18G20G21G24
    961748.915    21730161.326          32.903  
    725471.832    20908741.081          43.491  
   -218325.221    20529912.237          45.729  
  -1445789.167    24470049.137          39.852  
   -500415.381    20110280.743          42.471  
   -921257.945    23025948.568          44.446  
  -1211897.043    22010937.947          33.569  
 17 11 13  6 18 16.9998339  0  7G 5G13G15G18G20G21G24
    963721.406    21730517.476          32.076  
    726960.341    20909022.584          43.500  
   -218672.416    20529848.382          45.896  
  -1448642.209    24469504.416          39.636  
   -501292.946    20110110.761          42.438  
   -922952.209    23025621.795          44.518  
  -1215081.082    22010330.265          33.332  
 17 11 13  6 18 17.9998341  0  7G 5G13G15G18G20G21G24
    965694.171    21730965.366          31.795  
    728449.052    20909383.537          43.404  
   -219019.325    20529857.674          45.827  
  -1451495.346    24469029.844          39.498  
   -502170.132    20110020.822          42.247  
   -924646.032    23025376.563          44.223  
  -1218264.712    22009801.130          33.457  
 17 11 13  6 18 18.9998341  0  7G 5G13G15G18G20G21G24
    967667.275    21731335.612          31.045  
    729938.002    20909660.843          43.383  
   -219365.933    20529791.721          45.969  
  -1454348.556    24468491.116          39.567  
   -503046.906    20109850.242          42.416  
   -926339.400    23025055.187          44.099  
  -1221448.047    22009196.751          33.244  
 17 11 13  6 18 19.9998341  0  7G 5G13G15G18G20G21G24
    969640.641    21731705.552          29.814  
    731427.181    20909943.846          43.174  
   -219712.209    20529724.869          45.890  
  -1457201.771    24467942.495          39.289  
   -503923.269    20109690.154          42.059  
   -928032.312    23024730.809          43.897  
  -1224631.069    22008588.471          33.009  
 17 11 13  6 18 20.9998341  0  7G 5G13G15G18G20G21G24
    971614.4421   21732110.873          28.684  
    732916.630    20910228.948          43.024  
   -220058.203    20529660.112          45.831  
  -1460055.084    24467392.979          39.124  
   -504799.240    20109520.468          42.194  
   -929724.793    23024406.135          43.630  
  -1227813.794    22007975.698          32.977  
 17 11 13  6 18 21.9998341  0  7G 5G13G15G18G20G21G24
    973587.8801   21732489.813          27.925  
    734406.167    20910510.154          42.884  
   -220403.982    20529593.556          46.161  
  -1462908.527    24466848.253          38.687  
   -505674.876    20109353.186          41.810  
   -931416.886    23024088.654          44.025  
  -1230996.017    22007369.813          31.552  
 17 11 13  6 18 22.9998341  0  7G 5G13G15G18G20G21G24
    975560.9331   21732871.148          26.163  
    735895.933    20910791.360          42.630  
   -220749.504    20529529.702          46.423  
  -1465762.095    24466302.933          39.043  
   -506550.192    20109185.602          41.991  
   -933108.622    23023760.682          45.058  
  -1234178.312    22006757.939          33.502  
 17 11 13  6 18 23.9998341  0  7G 5G13G15G18G20G21G24
    977535.3741   21733248.588          26.202  
    737385.812    20911077.365          43.569  
   -221094.808    20529458.051          46.063  
  -1468615.765    24465758.207          39.303  
   -507425.142    20109020.715          42.020  
   -934799.964    23023443.201          45.334  
  -1237360.228    22006168.549          34.443  
 17 11 13  6 18 24.9998341  0  7G 5G13G15G18G20G21G24
    979510.183    21733626.023          27.062  
    738875.898    20911363.365          43.721  
   -221439.809    20529395.396          45.865  
  -1471469.540    24465212.888          38.731  
   -508299.681    20108853.132          41.849  
   -936490.881    23023121.524          44.868  
  -1240541.629    22005550.676          34.478  
 17 11 13  6 18 25.9998341  0  7G 5G13G15G18G20G21G24
    981485.367    21734041.835          24.183  
    740366.110    20911642.773          44.110  
   -221784.622    20529326.743          46.844  
  -1474323.503    24464674.758          39.501  
   -509173.950    20108682.547          42.167  
   -938181.436    23022798.350          44.819  
  -1243722.881    22004952.888          35.280  
 17 11 13  6 18 26.9998341  0  7G 5G13G15G18G20G21G24
    983463.7391   21734369.511          22.175  
    741856.424    20911929.672          43.672  
   -222129.223    20529263.486          47.262  
  -1477177.662    24464139.630          40.735  
   -510047.986    20108517.961          41.251  
   -939871.710    23022479.971          44.143  
  -1246903.864    22004343.710          33.995  
 17 11 13  6 18 27.9998341  0  7G 5G13G15G18G20G21G24
    985441.2181   21734739.155          24.073  
    743346.772    20912213.278          43.520  
   -222473.786    20529196.333          46.262  
  -1480032.008    24463592.509          40.907  
   -510921.762    20108359.073          42.482  
   -941561.680    23022158.590          43.893  
  -1250084.853    22003742.925          31.638  
 17 11 13  6 18 28.9998341  0  7G 5G13G15G18G20G21G24
    987423.6011   21735114.496          22.732  
    744837.338    20912491.783          43.918  
   -222817.995    20529130.977          45.699  
  -1482886.484    24463057.677          39.281  
   -511795.093    20108189.692          42.454  
   -943251.203    23021837.812          44.649  
  -1253265.517    22003122.954          29.514  
 17 11 13  6 18 29.9998341  0  7G 5G13G15G18G20G21G24
    989398.7471   21735429.577          21.291  
    746328.372    20912774.787          43.504  
   -223161.677    20529065.923          45.951  
  -1485740.725    24462515.652          40.060  
   -512667.783    20108027.205          42.422  
   -944940.061    23021520.335          45.526  
  -1256445.365    22002529.066          30.626  
 17 11 13  6 18 30.9998341  0  7G 5G13G15G18G20G21G24
    991375.6631   21735792.624          18.983  
    747819.833    20913063.788          43.794  
   -223504.871    20528999.368          45.804  
  -1488594.946    24461974.826          38.104  
   -513539.896    20107857.820          42.441  
   -946628.299    23021197.157          44.694  
  -1259624.819    22001912.393          29.632  
 17 11 13  6 18 31.9998341  0  7G 5G13G15G18G20G21G24
    993346.6581   21736181.454          14.582  
    749311.600    20913350.687          44.191  
   -223847.674    20528931.015          45.609  
  -1491449.071    24461431.304          39.544  
   -514411.467    20107692.636          42.676  
   -948315.972    23020880.274          44.777  
  -1262803.709    22001324.500          28.353  
 17 11 13  6 18 32.9998341  0  7G 5G13G15G18G20G21G24
    995314.4881   21736567.287          14.426  
    750803.629    20913628.299          44.368  
   -224190.141    20528869.259          45.621  
  -1494303.226    24460890.177          40.064  
   -515282.648    20107525.951          42.759  
   -950003.165    23020553.205          44.942  
  -1265982.363    22000709.628          27.476  
 17 11 13  6 18 33.9998341  0  7G 5G13G15G18G20G21G24
    997288.5911   21737022.075          20.063  
    752296.000    20913916.995          44.172  
   -224532.184    20528803.005          45.655  
  -1497157.353    24460349.652          39.571  
   -516153.285    20107363.760          42.809  
   -951689.825    23020233.626          44.877  
  -1269160.647    22000110.942          27.016  
 17 11 13  6 18 34.9998341  0  7G 5G13G15G18G20G21G24
    999265.1121   21737411.804          20.908  
    753788.637    20914203.301          44.071  
   -224873.918    20528734.953          45.919  
  -1500011.499    24459805.231          39.542  
   -517023.505    20107198.878          42.609  
   -953376.019    23019910.147          44.586  
  -1272338.388    21999517.050          25.757  
 17 11 13  6 18 35.9998341  0  7G 5G13G15G18G20G21G24
   1001240.7291   21737771.257          24.569  
    755281.467    20914487.504          44.253  
   -225215.372    20528675.893          45.753  
  -1502865.708    24459263.803          37.952  
   -517893.295    20107032.193          42.688  
   -955061.773    23019587.872          44.449  
  -1275515.563    21998888.388          24.463  
 17 11 13  6 18 36.9998341  0  8G 5G13G15G18G20G21G24G28
   1003219.020    21738148.395          25.212  
    756774.588    20914766.607          43.946  
   -225556.480    20528611.737          45.133  
  -1505719.945    24458716.682          39.668  
   -518762.639    20106868.205          42.760  
   -956747.016    23019268.594          44.813  
  -1278692.981    21998315.785          30.403  
     -4105.345    24799747.391          23.228  
 17 11 13  6 18 37.9998341  0  8G 5G13G15G18G20G21G24G28
   1005198.1931   21738485.359          24.009  
    758267.939    20915053.811          43.530  
   -225897.268    20528545.784          44.076  
  -1508574.261    24458163.567          40.474  
   -519631.564    20106700.923          42.762  
   -958431.800    23018948.714          45.008  
  -1281869.669    21997715.297          27.883  
     -4417.440    24799663.753          23.570  
 17 11 13  6 18 38.9998341  0  8G 5G13G15G18G20G21G24G28
   1007177.855    21738896.377          24.769  
    759761.531    20915333.215          43.211  
   -226237.705    20528475.931          44.451  
  -1511428.572    24457623.640          40.469  
   -520500.041    20106539.635          42.729  
   -960116.116    23018628.533          45.066  
  -1285046.021    21997116.314          29.701  
     -4728.825    24799639.466          23.519  
 17 11 13  6 18 39.9998341  0  8G 5G13G15G18G20G21G24G28
   1009158.3301   21739263.023          22.189  
    761255.441    20915621.615          44.146  
   -226577.773    20528411.479          44.996  
  -1514282.827    24457079.817          40.027  
   -521368.031    20106371.750          42.920  
   -961799.898    23018308.357          44.672  
  -1288221.558    21996479.556          31.625  
     -5039.763    24799546.832          24.837  
 17 11 13  6 18 40.9998341  0  8G 5G13G15G18G20G21G24G28
   1011134.8601   21739629.369          21.648  
    762749.769    20915909.116          44.354  
   -226917.394    20528344.924          45.689  
  -1517137.050    24456535.392          38.237  
   -522235.476    20106205.664          42.947  
   -963483.102    23017987.281          44.683  
  -1291397.1931   21995894.960          27.670  
     -5350.053    24799487.470          24.845  
 17 11 13  6 18 41.9998341  0  8G 5G13G15G18G20G21G24G28
   1013108.2261   21739989.419          21.226  
    764244.375    20916193.022          44.335  
   -227256.617    20528282.264          45.863  
  -1519991.243    24455990.670          38.780  
   -523102.442    20106039.577          43.154  
   -965165.719    23017669.199          44.353  
  -1294572.334    21995329.852          25.098  
     -5659.836    24799431.713          24.810  
 17 11 13  6 18 42.9998341  0  8G 5G13G15G18G20G21G24G28
   1015087.2301   21740386.944          22.502  
    765739.071    20916476.623          43.954  
   -227595.675    20528221.110          46.346  
  -1522845.639    24455451.642          39.101  
   -523969.098    20105876.792          43.248  
   -966848.061    23017352.918          44.493  
  -1297747.137    21994708.681          27.668  
     -5969.202    24799362.758          24.550  
 17 11 13  6 18 43.9998341  0  8G 5G13G15G18G20G21G24G28
   1017064.1811   21740773.078          24.892  
    767234.002    20916764.124          44.278  
   -227934.436    20528156.954          46.322  
  -1525700.120    24454901.825          38.150  
   -524835.337    20105709.209          42.982  
   -968529.937    23017029.443          43.946  
  -1300921.554    21994088.108          28.486  
     -6278.152    24799320.188          23.720  
 17 11 13  6 18 44.9998341  0  8G 5G13G15G18G20G21G24G28
   1019045.733    21741147.516          24.471  
    768729.139    20917048.031          43.716  
   -228272.871    20528091.900          46.186  
  -1528554.622    24454365.793          39.038  
   -525701.198    20105544.623          42.736  
   -970211.411    23016703.569          43.363  
  -1304095.634    21993474.733          28.343  
     -6586.742    24799252.734          23.623  
 17 11 13  6 18 45.9998341  0  8G 5G13G15G18G20G21G24G28
   1021027.776    21741535.447          24.600  
    770224.452    20917328.334          44.334  
   -228611.101    20528026.243          46.011  
  -1531409.265    24453819.872          38.998  
   -526566.669    20105382.733          42.736  
   -971892.452    23016384.588          43.872  
  -1307269.411    21992872.151          28.000  
     -6894.8741   24799210.762          22.695  
 17 11 13  6 18 46.9998341  0  8G 5G13G15G18G20G21G24G28
   1023009.541    21741902.395          23.691  
    771719.921    20917615.538          44.340  
   -228949.058    20527961.787          45.974  
  -1534263.999    24453285.341          38.819  
   -527431.818    20105218.448          42.865  
   -973573.098    23016064.712          43.828  
  -1310442.936    21992270.768          27.362  
     -7203.1721   24799167.896          23.617  
 17 11 13  6 18 47.9998341  0  8G 5G13G15G18G20G21G24G28
   1024992.4071   21742281.034          21.682  
    773215.712    20917899.139          44.409  
   -229286.645    20527897.334          45.855  
  -1537118.755    24452740.921          38.802  
   -528296.486    20105049.962          42.555  
   -975253.255    23015743.633          43.979  
  -1313615.988    21991651.695          27.107  
     -7510.4771   24799101.938          22.971  
 17 11 13  6 18 48.9998344  0  8G 5G13G15G18G20G21G24G28
   1026972.9971   21742760.099          21.697  
    774711.746    20918259.490          44.417  
   -229623.893    20527906.927          45.721  
  -1539973.453    24452277.142          39.082  
   -529160.716    20104963.623          42.484  
   -976932.916    23015502.301          43.766  
  -1316788.782    21991111.472          26.884  
     -7817.2261   24799122.922          21.877  
 17 11 13  6 18 49.9998344  0  8G 5G13G15G18G20G21G24G28
   1028956.340    21743105.160          24.818  
    776208.038    20918539.497          44.014  
   -229960.835    20527840.372          45.702  
  -1542828.301    24451735.116          39.282  
   -530024.465    20104793.640          42.618  
   -978612.103    23015177.024          43.733  
  -1319961.110    21990516.982          27.749  
     -8123.3561   24799089.047          21.719  
 17 11 13  6 18 50.9998344  0  8G 5G13G15G18G20G21G24G28
   1030939.886    21743485.300          27.854  
    777704.473    20918829.397          43.701  
   -230297.554    20527778.014          45.518  
  -1545683.217    24451200.887          38.718  
   -530887.916    20104630.851          42.710  
   -980290.935    23014856.848          43.583  
  -1323133.202    21989916.197          29.087  
     -8429.2141   24799073.756          20.570  
 17 11 13  6 18 51.9998344  0  8G 5G13G15G18G20G21G24G28
   1032923.676    21743862.735          29.654  
    779201.142    20919111.502          43.766  
   -230633.958    20527715.058          45.604  
  -1548538.176    24450652.566          38.707  
   -531750.948    20104462.971          42.662  
   -981969.275    23014537.269          43.545  
  -1326304.838    21989315.713          29.332  
     -8734.6701   24799069.263          20.496  
 17 11 13  6 18 52.9998344  0  8G 5G13G15G18G20G21G24G28
   1034907.759    21744241.976          29.638  
    780698.129    20919392.406          43.793  
   -230969.987    20527651.504          45.669  
  -1551393.165    24450112.940          39.319  
   -532613.508    20104299.581          42.612  
   -983647.091    23014219.788          43.372  
  -1329476.159    21988708.036          29.049  
     -9039.5641   24799060.568          19.797  
 17 11 13  6 18 53.9998344  0  8G 5G13G15G18G20G21G24G28
   1036892.387    21744614.316          30.022  
    782195.488    20919682.307          44.008  
   -231305.561    20527592.143          45.820  
  -1554248.041    24449570.613          39.780  
   -533475.497    20104135.597          42.543  
   -985324.345    23013899.009          43.441  
  -1332646.947    21988104.254          28.518  
     -9343.8231   24798969.129          20.093  
 17 11 13  6 18 54.9998344  0  8G 5G13G15G18G20G21G24G28
   1038877.273    21744989.657          29.637  
    783693.048    20919968.006          43.849  
   -231640.831    20527531.586          45.836  
  -1557103.055    24449028.889          39.346  
   -534337.071    20103973.109          42.468  
   -987001.148    23013579.732          43.368  
  -1335817.425    21987494.473          27.849  
     -9647.7431   24798911.570          20.005  
 17 11 13  6 18 55.9998344  0  8G 5G13G15G18G20G21G24G28
   1040862.333    21745374.591          29.894  
    785190.746    20920251.913          43.955  
   -231975.927    20527467.727          45.882  
  -1559958.157    24448482.666          39.543  
   -535198.349    20103804.025          42.462  
   -988677.584    23013261.352          43.328  
  -1338987.565    21986897.885          27.382  
     -9951.3091   24798818.634          21.194  
 17 11 13  6 18 56.9998344  0  8G 5G13G15G18G20G21G24G28
   1042847.766    21745747.830          30.047  
    786688.659    20920536.713          43.867  
   -232310.739    20527402.376          45.737  
  -1562813.324    24447936.147          38.810  
   -536059.271    20103644.835          42.348  
   -990353.631    23012942.969          43.393  
  -1342157.432    21986276.117          26.351  
    -10254.3931   24798726.000          20.530  
 17 11 13  6 18 57.9998344  0  8G 5G13G15G18G20G21G24G28
   1044833.353    21746128.567          30.039  
    788186.732    20920820.916          43.842  
   -232645.299    20527333.723          45.500  
  -1565668.628    24447390.523          38.773  
   -536919.762    20103479.652          42.182  
   -992029.241    23012622.792          43.243  
  -1345326.937    21985671.436          25.915  
    -10557.0721   24798703.214          21.917  
 17 11 13  6 18 58.9998344  0  8G 5G13G15G18G20G21G24G28
   1046819.434    21746516.198          29.831  
    789685.099    20921107.820          44.060  
   -232979.494    20527272.865          45.535  
  -1568523.961    24446840.103          38.691  
   -537779.849    20103312.064          42.058  
   -993704.303    23012307.410          43.609  
  -1348496.191    21985075.149          25.443  
    -10859.374    24798634.264          23.490  
 17 11 13  6 18 59.9998344  0  8G 5G13G15G18G20G21G24G28
   1048805.905    21746895.735          28.307  
    791183.739    20921392.620          44.003  
   -233313.345    20527204.513          45.357  
  -1571379.297    24446295.382          38.464  
   -538639.437    20103151.378          42.124  
   -995378.930    23011989.930          43.594  
  -1351665.019    21984480.062          24.264  
    -11161.046    24798579.701          23.653  
 17 11 13  6 19  0.9998344  0  8G 5G13G15G18G20G21G24G28
   1050792.621    21747265.981          28.702  
    792682.655    20921677.425          44.502  
   -233646.823    20527140.357          45.587  
  -1574234.627    24445750.957          39.282  
   -539498.555    20102988.288          42.119  
   -997053.062    23011672.449          43.028  
  -1354834.5591   21983865.487          20.025  
    -11462.184    24798524.537          23.898  
 17 11 13  6 19  1.9998344  0  8G 5G13G15G18G20G21G24G28
   1052779.863    21747644.620          29.273  
    794181.859    20921962.828          44.569  
   -233979.937    20527079.198          45.335  
  -1577089.912    24445200.839          39.212  
   -540357.209    20102822.804          42.412  
   -998726.607    23011354.371          43.430  
  -1358011.0701   21983246.715          17.758  
    -11762.896    24798457.384          23.441  
 17 11 13  6 19  2.9998344  0  8G 5G13G15G18G20G21G24G28
   1054767.399    21748006.769          28.969  
    795681.475    20922248.828          44.385  
   -234312.588    20527013.542          45.383  
  -1579945.153    24444654.616          39.321  
   -541215.275    20102662.414          42.586  
  -1000399.557    23011036.890          43.668  
  -1361181.5121   21982622.547          19.703  
    -12062.8981   24798390.829          22.929  
 17 11 13  6 19  3.9998344  0  8G 5G13G15G18G20G21G24G28
   1056755.382    21748395.599          29.791  
    797181.248    20922533.332          43.705  
   -234645.004    20526953.587          45.207  
  -1582800.503    24444114.689          39.122  
   -542073.000    20102500.830          42.647  
  -1002072.168    23010720.012          43.974  
  -1364348.9131   21982006.472          19.987  
    -12362.559    24798324.575          23.878  
 17 11 13  6 19  4.9998344  0  8G 5G13G15G18G20G21G24G28
   1058743.500    21748761.644          29.579  
    798681.186    20922819.333          43.714  
   -234977.169    20526890.928          45.063  
  -1585655.932    24443569.370          39.504  
   -542930.374    20102341.640          42.667  
  -1003744.356    23010407.928          43.834  
  -1367515.9441   21981408.387          19.814  
    -12661.765    24798285.002          24.074  
 17 11 13  6 19  5.9998344  0  8G 5G13G15G18G20G21G24G28
   1060731.855    21749124.093          28.970  
    800181.319    20923104.434          43.940  
   -235309.066    20526825.276          45.457  
  -1588511.477    24443027.645          40.256  
   -543787.346    20102177.351          42.770  
  -1005416.136    23010089.247          44.375  
  -1370678.6731   21980819.896          18.933  
    -12960.665    24798201.062          23.900  
 17 11 13  6 19  6.9998344  0  8G 5G13G15G18G20G21G24G28
   1062720.501    21749513.526          28.538  
    801681.607    20923388.341          43.864  
   -235640.738    20526765.914          45.632  
  -1591367.108    24442481.122          40.456  
   -544643.996    20102015.164          42.932  
  -1007087.515    23009771.466          44.313  
  -1373853.1941   21980228.102          17.264  
    -13259.066    24798149.798          24.051  
 17 11 13  6 19  7.9998344  0  8G 5G13G15G18G20G21G24G28
   1064709.550    21749905.052          29.000  
    803182.132    20923674.943          43.794  
   -235972.106    20526703.560          45.644  
  -1594222.860    24441939.397          40.305  
   -545500.253    20101855.377          42.913  
  -1008758.482    23009453.388          44.475  
  -1377025.7881   21979645.906          16.370  
    -13557.075    24798091.039          24.014  
 17 11 13  6 19  8.9998344  0  7G 5G13G15G18G20G21G28
   1066698.811    21750282.491          28.889  
    804682.924    20923963.042          43.904  
   -236303.130    20526641.800          45.844  
  -1597078.584    24441397.974          40.622  
   -546356.010    20101693.788          43.185  
  -1010428.906    23009136.208          44.372  
    -13854.9751   24798018.489          23.807  
 17 11 13  6 19  9.9998344  0  7G 5G13G15G18G20G21G28
   1068688.601    21750654.835          28.651  
    806184.064    20924243.646          43.846  
   -236633.742    20526581.544          45.959  
  -1599934.255    24440854.448          40.508  
   -547211.234    20101528.901          43.194  
  -1012098.799    23008817.227          44.405  
    -14151.886    24797937.843          23.587  
 17 11 13  6 19 10.9998344  0  7G 5G13G15G18G20G21G28
   1070678.726    21751025.980          28.256  
    807685.415    20924532.346          43.838  
   -236964.051    20526520.085          45.921  
  -1602790.058    24440313.321          40.585  
   -548066.088    20101368.210          43.297  
  -1013768.239    23008501.845          44.446  
    -14448.371    24797887.778          24.359  
 17 11 13  6 19 11.9998344  0  7G 5G13G15G18G20G21G28
   1072669.239    21751406.713          28.886  
    809187.142    20924819.250          43.863  
   -237293.903    20526453.529          45.999  
  -1605645.695    24439772.198          40.709  
   -548920.366    20101203.327          43.382  
  -1015437.079    23008186.764          44.570  
    -14744.278    24797795.742          24.250  
 17 11 13  6 19 12.9998344  0  7G 5G13G15G18G20G21G28
   1074660.131    21751773.359          27.936  
    810689.083    20925108.548          43.928  
   -237623.470    20526396.271          45.855  
  -1608501.470    24439226.573          40.759  
   -549774.252    20101042.039          43.281  
  -1017105.465    23007868.083          44.595  
    -15039.672    24797760.366          23.576  
 17 11 13  6 19 13.9998344  0  7G 5G13G15G18G20G21G28
   1076651.302    21752145.101          27.853  
    812191.305    20925396.350          43.982  
   -237952.651    20526330.017          46.052  
  -1611357.198    24438687.846          40.765  
   -550627.636    20100881.349          43.410  
  -1018773.365    23007550.302          44.541  
    -15334.452    24797745.376          24.243  
 17 11 13  6 19 14.9998344  0  7G 5G13G15G18G20G21G28
   1078643.023    21752521.341          27.335  
    813693.874    20925676.356          43.809  
   -238281.436    20526267.362          45.948  
  -1614212.882    24438139.826          40.447  
   -551480.508    20100720.659          43.062  
  -1020440.689    23007232.826          44.620  
    -15628.892    24797655.442          23.609  
 17 11 13  6 19 15.9998344  0  7G 5G13G15G18G20G21G28
   1080635.017    21752905.678          27.812  
    815196.683    20925965.057          44.057  
   -238609.894    20526199.607          46.207  
  -1617068.570    24437598.403          40.180  
   -552332.991    20100556.971          43.293  
  -1022107.540    23006915.642          44.413  
    -15922.770    24797605.373          24.390  
 17 11 13  6 19 16.9998344  0  7G 5G13G15G18G20G21G28
   1082627.366    21753283.414          27.317  
    816699.812    20926245.962          43.518  
   -238937.982    20526136.651          45.974  
  -1619924.299    24437048.882          40.160  
   -553184.907    20100392.686          43.118  
  -1023773.870    23006597.263          44.347  
    -16216.156    24797524.731          24.933  
 17 11 13  6 19 17.9998344  0  7G 5G13G15G18G20G21G28
   1084619.998    21753681.240          27.526  
    818203.009    20926534.959          43.368  
   -239265.884    20526076.993          45.942  
  -1622780.175    24436503.860          40.360  
   -554036.608    20100232.000          42.845  
  -1025439.855    23006276.484          44.200  
    -16509.259    24797483.658          25.229  
 17 11 13  6 19 18.9998344  0  7G 5G13G15G18G20G21G28
   1086612.838    21754073.669          28.390  
    819706.401    20926816.466          43.258  
   -239593.520    20526015.237          46.084  
  -1625636.198    24435957.938          40.262  
   -554887.891    20100069.212          42.892  
  -1027105.457    23005963.205          44.546  
    -16801.772    24797426.098          25.768  
 17 11 13  6 19 19.9998344  0  7G 5G13G15G18G20G21G28
   1088605.897    21754478.688          28.534  
    821209.914    20927101.568          43.050  
   -239920.995    20525951.679          45.953  
  -1628492.368    24435413.217          39.990  
   -555738.869    20099903.727          42.777  
  -1028770.716    23005645.423          44.299  
    -17094.088    24797379.331          25.326  
 17 11 13  6 19 20.9998346  0  7G 5G13G15G18G20G21G28
   1090599.119    21754953.557          29.706  
    822713.538    20927465.815          43.130  
   -240248.279    20525968.165          46.075  
  -1631348.693    24434944.037          40.180  
   -556589.594    20099821.283          42.820  
  -1030435.664    23005400.492          44.293  
    -17385.973    24797403.016          25.384  
 17 11 13  6 19 21.9998346  0  7G 5G13G15G18G20G21G28
   1092592.791    21755332.794          30.522  
    824217.470    20927751.519          43.069  
   -240575.144    20525907.010          45.980  
  -1634204.985    24434403.512          40.092  
   -557439.789    20099656.396          42.871  
  -1032100.022    23005085.707          44.331  
    -17677.382    24797348.750          26.022  
 17 11 13  6 19 22.9998346  0  7G 5G13G15G18G20G21G28
   1094586.818    21755724.023          30.299  
    825721.728    20928037.820          43.054  
   -240901.664    20525841.655          46.018  
  -1637061.289    24433853.093          40.015  
   -558289.498    20099494.807          42.808  
  -1033763.882    23004766.133          44.118  
    -17968.239    24797317.575          26.528  
 17 11 13  6 19 23.9998346  0  7G 5G13G15G18G20G21G28
   1096581.221    21756081.975          29.721  
    827226.163    20928327.119          42.713  
   -241227.884    20525777.499          45.502  
  -1639917.646    24433311.669          39.060  
   -559138.849    20099334.418          42.276  
  -1035427.300    23004448.652          43.733  
    -18258.727    24797226.136          26.048  
 17 11 13  6 19 24.9998346  0  7G 5G13G15G18G20G21G28
   1098575.660    21756466.011          29.006  
    828730.708    20928615.222          43.838  
   -241553.942    20525715.141          46.237  
  -1642774.230    24432767.847          39.273  
   -559987.883    20099169.535          43.194  
  -1037090.399    23004131.468          44.132  
    -18548.805    24797179.967          25.788  
 17 11 13  6 19 25.9998346  0  7G 5G13G15G18G20G21G28
   1100570.787    21756837.753          29.843  
    830235.717    20928901.222          44.643  
   -241879.408    20525652.787          47.249  
  -1645630.588    24432225.520          40.963  
   -560836.204    20099008.243          43.988  
  -1038752.772    23003816.989          45.334  
    -18838.200    24797111.916          24.964  
 17 11 13  6 19 26.9998346  0  7G 5G13G15G18G20G21G28
   1102566.820    21757199.304          29.547  
    831741.576    20929187.222          44.581  
   -242203.992    20525591.327          47.108  
  -1648486.409    24431682.897          41.024  
   -561683.549    20098845.759          43.893  
  -1040414.110    23003499.805          46.177  
    -19126.563    24797080.139          24.808  
 17 11 13  6 19 27.9998346  0  7G 5G13G15G18G20G21G28
   1104564.063    21757565.649          26.189  
    833248.378    20929472.027          43.974  
   -242527.616    20525529.270          47.130  
  -1651341.584    24431139.375          41.126  
   -562529.832    20098687.167          43.656  
  -1042074.302    23003182.927          47.428  
    -19413.6571   24797004.588          22.618  
 17 11 13  6 19 28.9998346  0  7G 5G13G15G18G20G21G28
   1106561.736    21757956.578          28.670  
    834755.962    20929763.424          44.752  
   -242850.318    20525468.412          46.162  
  -1654196.181    24430600.647          40.646  
   -563375.064    20098522.280          43.577  
  -1043733.448    23002865.145          47.058  
    -19699.8121   24796937.435          21.628  
 17 11 13  6 19 29.9998346  0  7G 5G13G15G18G20G21G28
   1108560.240    21758340.613          30.837  
    836264.079    20930051.824          44.950  
   -243172.475    20525407.254          46.191  
  -1657050.645    24430059.821          40.085  
   -564219.635    20098366.088          43.566  
  -1045391.848    23002550.666          46.428  
    -19985.0801   24796885.272          20.986  
 17 11 13  6 19 30.9998346  0  8G 5G13G15G18G20G21G24G28
   1110559.154    21758720.448          31.686  
    837772.528    20930341.127          44.307  
   -243494.140    20525347.295          45.928  
  -1659905.049    24429514.498          41.654  
   -565063.626    20098208.399          42.516  
  -1047049.702    23002236.183          46.238  
    -15806.081    21965970.873          25.605  
    -20269.7831   24796893.068          20.937  
 17 11 13  6 19 31.9998346  0  8G 5G13G15G18G20G21G24G28
   1112558.242    21759104.183          32.552  
    839281.029    20930631.023          44.204  
   -243815.707    20525287.340          46.694  
  -1662759.640    24428972.472          42.248  
   -565907.383    20098044.114          42.869  
  -1048707.237    23001919.003          46.416  
    -18961.083    21965334.416          26.284  
    -20554.4801   24796848.998          19.087  
 17 11 13  6 19 32.9998346  0  8G 5G13G15G18G20G21G24G28
   1114557.603    21759482.224          30.901  
    840789.680    20930916.426          41.642  
   -244137.074    20525224.982          44.126  
  -1665614.391    24428436.445          39.793  
   -566750.830    20097879.528          40.181  
  -1050364.458    23001603.019          43.960  
    -22115.870    21964719.239          24.882  
    -20838.5201   24796809.124          17.565  
 17 11 13  6 19 33.9998346  0  8G 5G13G15G18G20G21G24G28
   1116556.2281   21759890.542          26.732  
    842297.683    20931204.529          42.344  
   -244459.018    20525164.425          44.802  
  -1668470.037    24427887.226          39.545  
   -567594.740    20097726.031          41.025  
  -1052022.084    23001288.540          44.159  
    -25271.5031   21964134.046          22.506  
    -21123.2371   24796742.272          19.109  
 17 11 13  6 19 34.9998346  0  8G 5G13G15G18G20G21G24G28
   1118552.865    21760226.908          28.849  
    843803.359    20931483.335          42.116  
   -244783.202    20525100.566          43.486  
  -1671328.305    24427338.604          37.646  
   -568440.740    20097565.044          40.567  
  -1053681.793    23000972.857          42.905  
    -28428.892    21963519.170          23.995  
    -21416.0961   24796662.228          16.888  
 17 11 13  6 19 35.9998346  0  8G 5G13G15G18G20G21G24G28
   1120547.790    21760625.632          31.183  
    845307.277    20931772.634          43.536  
   -245109.029    20525036.114          44.275  
  -1674188.599    24426794.781          38.734  
   -569288.344    20097400.759          41.991  
  -1055343.009    23000657.776          44.741  
    -31587.914    21962937.275          23.397  
    -21703.6301   24796576.787          18.512  
 17 11 13  6 19 36.9998346  0  8G 5G13G15G18G20G21G24G28
   1122542.534    21761010.266          32.352  
    846810.978    20932052.640          43.443  
   -245435.015    20524976.752          44.481  
  -1677049.441    24426250.356          39.037  
   -570135.965    20097243.367          42.167  
  -1057004.237    23000340.295          45.393  
    -34747.0941   21962341.887          22.117  
    -21991.8351   24796533.314          19.683  
 17 11 13  6 19 37.9998346  0  8G 5G13G15G18G20G21G24G28
   1124538.173    21761378.408          33.964  
    848315.497    20932338.941          43.528  
   -245760.111    20524912.296          44.251  
  -1679909.703    24425701.739          38.757  
   -570982.553    20097081.778          42.267  
  -1058664.403    23000033.005          45.462  
    -37905.076    21961736.006          23.669  
    -22278.9391   24796483.250          18.790  
 17 11 13  6 19 38.9998346  0  8G 5G13G15G18G20G21G24G28
   1126535.604    21761770.240          35.188  
    849821.747    20932621.944          43.510  
   -246083.416    20524851.438          44.248  
  -1682768.588    24425151.616          38.685  
   -571827.282    20096918.693          42.176  
  -1060322.631    22999716.725          45.526  
    -41061.473    21961133.424          23.875  
    -22564.2751   24796445.479          18.733  
 17 11 13  6 19 39.9998346  0  8G 5G13G15G18G20G21G24G28
   1128534.022    21762145.280          35.451  
    851328.809    20932908.250          43.269  
   -246405.780    20524788.482          44.199  
  -1685626.784    24424611.091          38.939  
   -572670.931    20096760.999          42.117  
  -1061979.771    22999402.542          45.447  
    -44216.911    21960537.434          23.610  
    -22848.4751   24796396.609          19.616  
 17 11 13  6 19 40.9998346  0  8G 5G13G15G18G20G21G24G28
   1130533.168    21762536.806          35.055  
    852836.530    20933193.648          42.889  
   -246727.443    20524724.627          44.177  
  -1688484.745    24424078.061          39.163  
   -573513.798    20096597.312          41.968  
  -1063636.056    22999089.263          45.698  
    -47371.5251   21959963.932          22.036  
    -23137.5771   24796348.643          18.255  
 17 11 13  6 19 41.9998346  0  8G 5G13G15G18G20G21G24G28
   1132532.890    21762922.940          34.251  
    854344.774    20933479.051          42.518  
   -247048.496    20524663.469          44.289  
  -1691342.405    24423524.645          39.216  
   -574355.935    20096442.620          41.709  
  -1065291.601    22998773.580          45.709  
    -50525.5001   21959334.368          21.720  
    -23422.5561   24796264.101          18.765  
 17 11 13  6 19 42.9998346  0  8G 5G13G15G18G20G21G24G28
   1134533.304    21763299.481          34.551  
    855853.576    20933766.853          42.444  
   -247368.891    20524604.112          44.151  
  -1694199.785    24422987.117          38.866  
   -575197.329    20096282.532          41.823  
  -1066946.344    22998461.496          45.706  
    -53678.7991   21958768.959          22.256  
    -23704.2071   24796215.834          19.220  
 17 11 13  6 19 43.9998346  0  8G 5G13G15G18G20G21G24G28
   1136534.418    21763679.316          35.378  
    857362.991    20934056.453          42.480  
   -247688.596    20524539.655          44.194  
  -1697056.846    24422443.591          38.935  
   -576037.917    20096120.943          41.702  
  -1068600.245    22998147.012          45.591  
    -56831.2331   21958104.917          21.832  
    -23985.1591   24796179.559          18.576  
 17 11 13  6 19 44.9998346  0  8G 5G13G15G18G20G21G24G28
   1138536.174    21764063.050          35.019  
    858872.962    20934340.656          42.695  
   -248007.684    20524479.696          44.195  
  -1699913.642    24421901.269          39.110  
   -576877.763    20095962.355          41.726  
  -1070253.372    22997829.833          45.545  
    -59983.1381   21957530.818          22.110  
    -24265.2181   24796130.694          18.302  
 17 11 13  6 19 45.9998346  0  8G 5G13G15G18G20G21G24G28
   1140538.548    21764431.198          33.805  
    860383.426    20934629.954          42.344  
   -248326.211    20524422.136          44.138  
  -1702770.233    24421358.942          39.048  
   -577716.849    20095806.459          41.527  
  -1071905.769    22997512.352          45.350  
    -63134.351    21956937.829          23.211  
    -24543.6821   24796076.734          18.721  
 17 11 13  6 19 46.9998346  0  8G 5G13G15G18G20G21G24G28
   1142541.293    21764829.023          32.426  
    861894.242    20934918.956          42.082  
   -248644.294    20524360.681          44.229  
  -1705626.751    24420811.524          39.023  
   -578555.480    20095646.371          41.389  
  -1073557.583    22997197.869          45.098  
    -66285.006    21956304.665          23.874  
    -24822.5181   24796035.961          17.240  
 17 11 13  6 19 47.9998346  0  8G 5G13G15G18G20G21G24G28
   1144544.581    21765189.370          33.503  
    863405.479    20935211.853          41.986  
   -248961.881    20524298.022          44.296  
  -1708483.153    24420273.997          38.903  
   -579393.523    20095482.387          41.216  
  -1075208.771    22996884.288          44.648  
    -69435.1651   21955731.762          22.760  
    -25100.5541   24795981.098          15.338  
 17 11 13  6 19 48.9998346  0  8G 5G13G15G18G20G21G24G28
   1146548.283    21765584.797          33.878  
    864917.020    20935498.757          42.022  
   -249279.073    20524237.465          44.547  
  -1711339.509    24419728.673          39.185  
   -580230.964    20095322.595          41.236  
  -1076859.401    22996566.507          44.309  
    -72589.4271   21955085.711          22.344  
    -25375.0961   24795946.324          12.012  
 17 11 13  6 19 49.9998346  0  8G 5G13G15G18G20G21G24G28
   1148552.102    21765981.423          32.337  
    866428.769    20935788.356          42.623  
   -249596.028    20524180.207          44.585  
  -1714195.975    24419185.448          38.727  
   -581068.116    20095161.307          41.330  
  -1078509.602    22996247.530          44.067  
    -75738.924    21954484.625          24.337  
    -25646.6201   24795910.049           0.000  
 17 11 13  6 19 50.9998346  0  7G 5G13G15G18G20G21G24
   1150556.582    21766313.893          31.986  
    867940.814    20936077.956          42.516  
   -249912.597    20524117.848          44.213  
  -1717052.402    24418643.422          38.471  
   -581904.700    20095003.915          42.145  
  -1080159.281    22995935.145          44.219  
    -78887.757    21953898.830          30.211  
 17 11 13  6 19 51.9998346  0  7G 5G13G15G18G20G21G24
   1152561.262    21766706.021          31.262  
    869453.095    20936366.054          42.791  
   -250228.853    20524063.286          44.219  
  -1719908.890    24418095.703          38.145  
   -582740.977    20094844.128          42.197  
  -1081808.505    22995618.262          44.359  
    -82036.489    21953301.644          31.098  
 17 11 13  6 19 52.9998346  0  7G 5G13G15G18G20G21G24
   1154566.048    21767101.146          29.057  
    870965.474    20936655.654          43.166  
   -250544.929    20524003.925          44.201  
  -1722765.541    24417552.779          38.098  
   -583576.851    20094685.239          41.522  
  -1083457.382    22995303.181          44.159  
    -85184.863    21952701.758          30.363  
 17 11 13  6 19 53.9998349  0  7G 5G13G15G18G20G21G24
   1156571.114    21767546.341          28.512  
    872477.962    20937020.202          43.226  
   -250860.863    20524018.618          44.148  
  -1725622.360    24417083.604          38.169  
   -584412.496    20094599.498          41.772  
  -1085105.954    22995066.643          44.183  
    -88332.956    21952172.327          31.086  
 17 11 13  6 19 54.9998349  0  7G 5G13G15G18G20G21G24
   1158576.327    21767943.564          28.080  
    873990.470    20937305.304          43.015  
   -251176.641    20523958.955          44.147  
  -1728479.421    24416536.780          38.185  
   -585247.871    20094440.906          41.872  
  -1086754.241    22994751.261          44.017  
    -91480.938    21951579.635          32.059  
 17 11 13  6 19 55.9998349  0  7G 5G13G15G18G20G21G24
   1160581.839    21768330.597          27.067  
    875503.214    20937594.004          43.211  
   -251492.126    20523897.199          44.136  
  -1731336.624    24415993.559          38.034  
   -586082.864    20094283.513          41.904  
  -1088402.071    22994440.376          44.100  
    -94628.569    21950978.850          32.858  
 17 11 13  6 19 56.9998349  0  7G 5G13G15G18G20G21G24
   1162587.702    21768753.603          26.110  
    877016.226    20937882.705          43.266  
   -251807.301    20523838.440          44.250  
  -1734193.776    24415445.539          37.908  
   -586917.355    20094122.827          41.611  
  -1090049.417    22994127.097          43.764  
    -97775.811    21950381.363          31.988  
 17 11 13  6 19 57.9998349  0  7G 5G13G15G18G20G21G24
   1164593.878    21769097.168          28.236  
    878529.315    20938172.004          42.368  
   -252122.241    20523775.484          44.392  
  -1737051.067    24414902.615          38.254  
   -587751.550    20093965.736          41.822  
  -1091696.411    22993810.812          43.690  
   -100922.570    21949779.680          33.375  
 17 11 13  6 19 58.9998349  0  7G 5G13G15G18G20G21G24
   1166600.225    21769494.090          27.285  
    880042.656    20938456.508          42.703  
   -252436.898    20523716.423          44.962  
  -1739908.464    24414355.193          37.785  
   -588585.370    20093806.547          40.980  
  -1093342.972    22993499.029          43.533  
   -104069.176    21949191.189          32.073  
 17 11 13  6 19 59.9998349  0  7G 5G13G15G18G20G21G24
   1168606.797    21769868.829          27.776  
    881556.067    20938739.210          42.717  
   -252751.391    20523655.867          44.820  
  -1742766.017    24413816.465          37.882  
   -589418.886    20093644.958          41.224  
  -1094989.190    22993188.144          43.314  
   -107215.595    21948588.005          32.092  
 17 11 13  6 20  0.9998349  0  7G 5G13G15G18G20G21G24
   1170613.862    21770263.658          27.306  
    883069.826    20939031.209          42.757  
   -253065.455    20523594.407          44.420  
  -1745623.489    24413267.843          37.891  
   -590251.821    20093490.266          41.320  
  -1096634.870    22992873.661          43.275  
   -110361.504    21947984.825          32.761  
 17 11 13  6 20  1.9998349  0  7G 5G13G15G18G20G21G24
   1172621.239    21770618.011          27.534  
    884584.009    20939319.307          43.361  
   -253379.060    20523535.351          44.502  
  -1748481.006    24412730.316          37.443  
   -591084.242    20093330.474          40.795  
  -1098279.897    22992560.678          42.524  
   -113506.946    21947383.739          32.026  
 17 11 13  6 20  2.9998349  0  7G 5G13G15G18G20G21G24
   1174629.069    21771015.836          28.466  
    886098.423    20939606.512          43.315  
   -253692.308    20523480.789          44.868  
  -1751338.403    24412186.493          37.528  
   -591916.235    20093169.784          40.528  
  -1099924.452    22992245.296          42.862  
   -116652.029    21946783.857          31.780  
 17 11 13  6 20  3.9998349  0  7G 5G13G15G18G20G21G24
   1176637.195    21771394.476          28.898  
    887613.153    20939891.914          43.075  
   -254005.177    20523422.627          44.995  
  -1754195.786    24411646.866          37.629  
   -592747.608    20093014.795          40.612  
  -1101568.441    22991930.516          42.692  
   -119796.564    21946182.174          31.366  
 17 11 13  6 20  4.9998349  0  7G 5G13G15G18G20G21G24
   1178645.632    21771763.522          29.124  
    889127.970    20940182.709          42.872  
   -254317.875    20523365.966          44.960  
  -1757053.324    24411105.443          37.377  
   -593578.808    20092854.703          40.283  
  -1103212.105    22991621.730          42.694  
   -122940.912    21945579.888          31.227  
 17 11 13  6 20  5.9998349  0  7G 5G13G15G18G20G21G24
   1180654.575    21772165.540          28.915  
    890643.183    20940466.912          42.747  
   -254630.106    20523311.404          45.231  
  -1759910.733    24410564.617          37.614  
   -594409.318    20092692.215          40.632  
  -1104855.142    22991310.244          42.964  
   -126084.757    21944981.804          31.275  
 17 11 13  6 20  6.9998349  0  7G 5G13G15G18G20G21G24
   1182663.787    21772544.179          28.540  
    892158.638    20940754.413          42.794  
   -254942.022    20523249.949          45.407  
  -1762768.255    24410021.392          37.893  
   -595239.527    20092535.726          40.806  
  -1106497.744    22990996.061          43.177  
   -129228.251    21944392.710          31.429  
 17 11 13  6 20  7.9998349  0  7G 5G13G15G18G20G21G24
   1184673.240    21772925.218          28.777  
    893674.272    20941047.612          42.810  
   -255253.700    20523190.587          45.345  
  -1765625.878    24409472.172          37.872  
   -596069.315    20092382.530          40.772  
  -1108139.944    22990684.880          43.037  
   -132371.428    21943788.929          31.898  
 17 11 13  6 20  8.9998349  0  7G 5G13G15G18G20G21G24
   1186683.039    21773293.059          28.455  
    895190.149    20941336.012          42.756  
   -255565.023    20523133.028          45.617  
  -1768483.563    24408937.642          37.983  
   -596898.593    20092223.040          40.985  
  -1109781.605    22990373.991          43.254  
   -135514.152    21943196.838          32.695  
 17 11 13  6 20  9.9998349  0  7G 5G13G15G18G20G21G24
   1188693.294    21773666.904          27.553  
    896706.347    20941620.817          42.844  
   -255876.003    20523072.471          45.554  
  -1771341.139    24408390.220          37.910  
   -597727.441    20092063.553          40.956  
  -1111422.777    22990061.009          43.325  
   -138656.473    21942599.954          33.190  
 17 11 13  6 20 10.9998349  0  7G 5G13G15G18G20G21G24
   1190703.844    21774049.736          27.266  
    898222.700    20941916.109          42.854  
   -256186.696    20523015.810          45.575  
  -1774198.818    24407852.395          38.294  
   -598555.911    20091907.060          41.071  
  -1113063.502    22989746.530          43.129  
   -141798.535    21941997.371          32.893  
 17 11 13  6 20 11.9998349  0  7G 5G13G15G18G20G21G24
   1192714.608    21774426.874          27.244  
    899739.244    20942203.314          43.010  
   -256497.140    20522956.449          45.720  
  -1777056.664    24407307.669          38.297  
   -599383.990    20091750.566          40.964  
  -1114703.870    22989437.142          43.221  
   -144940.229    21941410.377          33.040  
 17 11 13  6 20 12.9998349  0  7G 5G13G15G18G20G21G24
   1194725.620    21774833.695          26.386  
    901256.009    20942493.511          42.827  
   -256807.293    20522898.889          45.721  
  -1779914.616    24406762.947          37.359  
   -600211.665    20091596.773          40.931  
  -1116343.780    22989123.557          43.292  
   -148081.557    21940799.999          32.413  
 17 11 13  6 20 13.9998349  0  7G 5G13G15G18G20G21G24
   1196737.047    21775205.738          25.402  
    902773.032    20942783.712          42.587  
   -257117.106    20522840.732          45.706  
  -1782772.491    24406221.223          38.496  
   -601038.876    20091436.087          41.113  
  -1117983.152    22988813.576          43.983  
   -151222.536    21940209.409          32.041  
 17 11 13  6 20 14.9998349  0  7G 5G13G15G18G20G21G24
   1198748.924    21775601.165          24.548  
    904290.338    20943071.811          42.178  
   -257426.571    20522780.472          45.647  
  -1785630.356    24405673.801          38.413  
   -601865.666    20091277.495          40.998  
  -1119622.042    22988497.591          43.656  
   -154363.063    21939603.825          31.090  
 17 11 13  6 20 15.9998349  0  7G 5G13G15G18G20G21G24
   1200760.946    21775999.588          24.146  
    905807.824    20943360.211          42.343  
   -257735.755    20522719.314          45.592  
  -1788488.363    24405137.172          38.539  
   -602692.031    20091119.204          41.178  
  -1121260.509    22988188.208          43.727  
   -157503.350    21939000.344          29.837  
 17 11 13  6 20 16.9998349  0  7G 5G13G15G18G20G21G24
   1202773.441    21776377.028          23.643  
    907325.575    20943650.111          42.280  
   -258044.627    20522660.855          45.583  
  -1791346.390    24404589.152          38.719  
   -603517.947    20090961.816          41.165  
  -1122898.505    22987874.322          43.984  
   -160643.166    21938408.852          29.066  
 17 11 13  6 20 17.9998349  0  7G 5G13G15G18G20G21G24
   1204786.2191   21776741.275          23.367  
    908843.588    20943937.311          41.467  
   -258353.134    20522597.001          45.287  
  -1794204.407    24404048.627          38.451  
   -604343.393    20090805.323          41.551  
  -1124535.995    22987561.941          44.271  
   -163782.675    21937808.970          30.419  
 17 11 13  6 20 18.9998351  0  8G 5G13G15G18G20G21G24G28
   1206799.424    21777172.679          23.933  
    910361.913    20944298.265          40.546  
   -258661.304    20522617.391          44.884  
  -1797062.439    24403570.762          38.372  
   -605168.449    20090722.583          41.825  
  -1126173.010    22987324.806          44.150  
   -166922.027    21937310.718          33.122  
     -2130.698    24794498.929          24.552  
 17 11 13  6 20 19.9998351  0  8G 5G13G15G18G20G21G24G28
   1208812.607    21777593.286          23.426  
    911880.463    20944586.664          40.200  
   -258969.132    20522555.932          45.848  
  -1799920.511    24403029.037          38.973  
   -605993.033    20090567.293          41.970  
  -1127809.505    22987020.217          44.065  
   -170060.716    21936722.524          32.909  
     -2393.958    24794442.268          24.206  
 17 11 13  6 20 20.9998351  0  8G 5G13G15G18G20G21G24G28
   1210826.322    21777971.026          24.196  
    913399.145    20944877.167          41.404  
   -259276.705    20522496.575          45.352  
  -1802778.706    24402486.711          37.743  
   -606817.240    20090415.297          41.069  
  -1129445.602    22986709.332          44.301  
   -173199.020    21936121.739          31.500  
     -2657.062    24794404.793          23.891  
 17 11 13  6 20 21.9998351  0  8G 5G13G15G18G20G21G24G28
   1212840.2601   21778368.551          21.433  
    914917.901    20945166.465          41.522  
   -259584.186    20522438.112          45.263  
  -1805637.160    24401942.587          37.312  
   -607641.187    20090258.206          41.631  
  -1131081.426    22986396.350          44.613  
   -176337.242    21935525.155          31.567  
     -2919.896    24794331.045          23.410  
 17 11 13  6 20 22.9998351  0  8G 5G13G15G18G20G21G24G28
   1214854.3401   21778691.127          20.142  
    916436.827    20945454.564          41.223  
   -259891.429    20522378.153          45.321  
  -1808495.675    24401389.471          38.040  
   -608464.760    20090101.412          41.748  
  -1132716.858    22986088.462          44.834  
   -179475.135    21934926.168          31.667  
     -3182.276    24794288.475          23.020  
 17 11 13  6 20 23.9998351  0  8G 5G13G15G18G20G21G24G28
   1216868.6581   21779098.245          21.118  
    917955.859    20945743.265          40.942  
   -260198.484    20522320.293          45.246  
  -1811354.385    24400854.640          37.773  
   -609288.078    20089946.720          41.655  
  -1134351.955    22985780.575          44.929  
   -182612.761    21934332.878          31.540  
     -3444.2601   24794233.912          22.073  
 17 11 13  6 20 24.9998351  0  8G 5G13G15G18G20G21G24G28
   1218883.4031   21779490.072          19.096  
    919475.180    20946026.569          41.020  
   -260505.141    20522262.436          45.211  
  -1814213.042    24400303.322          37.897  
   -610110.832    20089793.825          41.984  
  -1135986.510    22985466.694          45.067  
   -185749.922    21933735.993          31.976  
     -3705.7591   24794179.049          21.582  
 17 11 13  6 20 25.9998351  0  8G 5G13G15G18G20G21G24G28
   1220897.0671   21779865.714          16.999  
    920994.856    20946317.669          40.810  
   -260811.359    20522205.475          45.185  
  -1817071.624    24399758.901          37.705  
   -610933.086    20089636.438          41.940  
  -1137620.465    22985155.508          44.958  
   -188886.660    21933146.298          32.209  
     -3966.5231   24794132.579          20.208  
 17 11 13  6 20 26.9998351  0  8G 5G13G15G18G20G21G24G28
   1222913.1111   21780254.545          16.930  
    922514.791    20946604.267          40.761  
   -261117.255    20522149.712          45.184  
  -1819930.266    24399217.177          37.600  
   -611754.895    20089478.443          42.055  
  -1139253.944    22984845.226          45.049  
   -192023.002    21932551.512          33.156  
     -4223.9171   24794080.119          19.153  
 17 11 13  6 20 27.9998351  0  8G 5G13G15G18G20G21G24G28
   1224936.0951   21780627.486          17.999  
    924035.136    20946892.671          40.828  
   -261422.654    20522089.457          45.270  
  -1822788.693    24398666.457          37.661  
   -612576.069    20089318.656          42.132  
  -1140886.779    22984532.841          44.933  
   -195158.764    21931965.416          34.178  
     -4481.8801   24794048.940          17.045  
 17 11 13  6 20 28.9998351  0  8G 5G13G15G18G20G21G24G28
   1226953.0851   21781000.428          18.368  
    925555.894    20947180.770          40.659  
   -261727.564    20522033.394          45.183  
  -1825647.065    24398126.228          37.409  
   -613396.699    20089167.262          42.065  
  -1142518.970    22984220.757          44.870  
   -198294.023    21931370.930          34.772  
     -4737.9061   24793991.079          14.141  
 17 11 13  6 20 29.9998351  0  8G 5G13G15G18G20G21G24G28
   1228970.0951   21781400.051          20.559  
    927076.995    20947469.471          40.539  
   -262032.086    20521975.533          45.161  
  -1828505.385    24397582.706          37.393  
   -614216.744    20089009.569          41.953  
  -1144150.603    22983910.173          44.799  
   -201428.784    21930767.445          35.222  
     -4995.3931   24793955.101          14.703  
 17 11 13  6 20 30.9998351  0  8G 5G13G15G18G20G21G24G28
   1230986.9451   21781803.574          22.020  
    928598.416    20947756.370          40.505  
   -262336.145    20521913.777          45.081  
  -1831363.601    24397038.281          37.338  
   -615036.254    20088849.180          42.010  
  -1145781.664    22983598.386          44.721  
   -204563.031    21930177.157          35.351  
     -5259.0881   24793920.925          13.673  
 17 11 13  6 20 31.9998351  0  8G 5G13G15G18G20G21G24G28
   1233004.639    21782207.992          23.215  
    930120.135    20948052.265          40.648  
   -262639.869    20521854.415          44.926  
  -1834221.888    24396496.557          37.398  
   -615855.333    20088693.288          41.866  
  -1147412.186    22983290.800          44.781  
   -207696.906    21929569.178          35.551  
     -5530.8341   24793887.949          14.415  
 17 11 13  6 20 32.9998351  0  8G 5G13G15G18G20G21G24G28
   1235022.760    21782603.719          24.864  
    931642.111    20948337.371          40.054  
   -262943.280    20521795.656          44.637  
  -1837080.168    24395946.138          37.317  
   -616673.924    20088538.295          41.908  
  -1149042.260    22982980.513          44.698  
   -210830.376    21928971.691          35.774  
     -5790.1631   24793833.687          13.745  
 17 11 13  6 20 33.9998351  0  8G 5G13G15G18G20G21G24G28
   1237041.215    21782959.272          26.949  
    933164.269    20948629.365          39.317  
   -263246.378    20521737.499          44.677  
  -1839938.397    24395407.114          38.306  
   -617492.076    20088383.001          42.026  
  -1150671.866    22982673.825          45.101  
   -213963.416    21928363.111          35.708  
     -6061.9971   24793607.646          14.303  
 17 11 13  6 20 34.9998351  0  8G 5G13G15G18G20G21G24G28
   1239059.985    21783351.400          26.982  
    934686.700    20948919.567          39.904  
   -263549.157    20521683.835          45.857  
  -1842796.842    24394859.993          38.526  
   -618309.812    20088228.310          41.540  
  -1152300.987    22982362.343          45.155  
   -217096.092    21927758.731          32.466  
     -6316.7251   24793550.985          14.157  
 17 11 13  6 20 35.9998351  0  8G 5G13G15G18G20G21G24G28
   1241079.159    21783730.938          26.524  
    936209.382    20949206.767          39.710  
   -263851.584    20521623.876          45.883  
  -1845655.204    24394317.967          38.653  
   -619127.150    20088069.120          41.507  
  -1153929.651    22982053.557          44.833  
   -220228.544    21927160.642          30.027  
     -6573.7161   24793511.412          14.537  
 17 11 13  6 20 36.9998351  0  8G 5G13G15G18G20G21G24G28
   1243098.578    21784130.264          29.246  
    937732.259    20949501.461          39.583  
   -264153.729    20521574.409          45.950  
  -1848513.632    24393773.245          38.871  
   -619944.009    20087921.321          42.023  
  -1155557.804    22981744.470          45.174  
   -223360.528    21926566.157          30.163  
     -6827.6361   24793463.446          14.116  
 17 11 13  6 20 37.9998351  0  8G 5G13G15G18G20G21G24G28
   1245118.453    21784516.394          29.224  
    939255.496    20949792.863          39.862  
   -264455.473    20521514.751          45.492  
  -1851371.993    24393227.320          38.250  
   -620760.388    20087760.334          42.176  
  -1157185.433    22981433.586          45.062  
   -226492.054    21925957.275          30.350  
     -7082.1951   24793418.773          13.255  
 17 11 13  6 20 38.9998351  0  7G 5G13G15G18G20G21G24
   1247138.680    21784886.338          27.864  
    940779.008    20950082.462          39.607  
   -264756.863    20521458.391          45.442  
  -1854230.409    24392683.497          38.255  
   -621576.315    20087604.142          42.243  
  -1158812.573    22981124.800          45.213  
   -229623.181    21925363.990          29.872  
 17 11 13  6 20 39.9998351  0  7G 5G13G15G18G20G21G24
   1249159.088    21785249.386          28.942  
    942302.627    20950369.963          40.065  
   -265058.024    20521402.629          45.378  
  -1857088.977    24392137.575          38.260  
   -622391.867    20087450.348          42.019  
  -1160439.280    22980815.713          44.945  
   -232754.035    21924772.798          29.708  
 17 11 13  6 20 40.9998351  0  7G 5G13G15G18G20G21G24
   1251180.101    21785649.310          29.607  
    943826.710    20950664.357          40.014  
   -265358.693    20521345.070          45.157  
  -1859947.347    24391592.553          37.989  
   -623206.815    20087292.359          41.904  
  -1162065.360    22980508.725          45.079  
   -235884.347    21924181.908          30.480  
 17 11 13  6 20 41.9998351  0  7G 5G13G15G18G20G21G24
   1253201.316    21786035.444          28.767  
    945350.913    20950956.657          40.014  
   -265659.147    20521284.810          45.204  
  -1862805.882    24391048.132          38.305  
   -624021.384    20087140.664          42.047  
  -1163691.080    22980193.046          45.175  
   -239014.374    21923583.819          30.932  
 17 11 13  6 20 42.9998351  0  7G 5G13G15G18G20G21G24
   1255222.943    21786427.873          28.597  
    946875.475    20951241.458          39.872  
   -265959.152    20521230.247          45.108  
  -1865664.290    24390507.904          38.217  
   -624835.457    20086980.872          41.905  
  -1165316.211    22979883.959          45.180  
   -242143.917    21922992.030          30.753  
 17 11 13  6 20 43.9998351  0  7G 5G13G15G18G20G21G24
   1257244.916    21786796.016          28.077  
    948400.285    20951533.757          39.468  
   -266258.832    20521172.989          45.105  
  -1868522.787    24389958.087          38.472  
   -625649.054    20086828.580          41.677  
  -1166940.826    22979577.572          45.115  
   -245273.041    21922400.838          30.767  
 17 11 13  6 20 44.9998351  0  7G 5G13G15G18G20G21G24
   1259267.212    21787175.855          28.273  
    949925.382    20951821.259          39.334  
   -266558.177    20521117.227          45.146  
  -1871381.290    24389421.458          38.306  
   -626462.205    20086674.486          41.676  
  -1168564.980    22979269.685          45.235  
   -248401.806    21921813.547          31.512  
 17 11 13  6 20 45.9998351  0  7G 5G13G15G18G20G21G24
   1261289.856    21787561.387          28.422  
    951450.636    20952107.560          39.503  
   -266857.272    20521060.566          45.187  
  -1874239.865    24388879.131          38.976  
   -627274.975    20086515.898          41.849  
  -1170188.699    22978957.902          45.324  
   -251530.257    21921212.164          31.185  
 17 11 13  6 20 46.9998351  0  7G 5G13G15G18G20G21G24
   1263312.814    21787948.119          28.227  
    952976.206    20952400.156          39.063  
   -267156.001    20521002.108          45.314  
  -1877098.445    24388335.906          38.668  
   -628087.219    20086360.604          41.635  
  -1171811.901    22978650.311          45.394  
   -254658.238    21920611.676          31.137  
 17 11 13  6 20 47.9998351  0  7G 5G13G15G18G20G21G24
   1265336.197    21788343.846          27.962  
    954502.087    20952687.356          38.899  
   -267454.315    20520946.345          45.487  
  -1879956.924    24387796.882          38.921  
   -628898.964    20086208.011          41.803  
  -1173434.540    22978342.424          45.211  
   -257785.730    21920002.201          30.644  
 17 11 13  6 20 48.9998351  0  7G 5G13G15G18G20G21G24
   1267359.925    21788711.090          27.696  
    956028.229    20952981.454          39.102  
   -267752.313    20520887.586          46.044  
  -1882815.548    24387256.357          39.821  
   -629710.351    20086050.618          41.592  
  -1175056.693    22978033.040          44.756  
   -260912.847    21919421.501          28.617  
 17 11 13  6 20 49.9998351  0  7G 5G13G15G18G20G21G24
   1269383.949    21789096.622          26.101  
    957554.566    20953272.253          38.856  
   -268049.973    20520829.429          46.124  
  -1885674.090    24386718.829          39.912  
   -630521.152    20085901.022          41.484  
  -1176678.346    22977725.454          44.766  
   -264039.703    21918804.828          26.782  
 17 11 13  6 20 50.9998351  0  7G 5G13G15G18G20G21G24
   1271408.258    21789470.467          26.442  
    959081.113    20953560.954          39.699  
   -268347.423    20520773.667          45.683  
  -1888532.785    24386167.808          39.840  
   -631331.682    20085746.029          41.285  
  -1178299.627    22977418.165          45.037  
   -267165.925    21918223.531          25.396  
 17 11 13  6 20 51.9998351  0  7G 5G13G15G18G20G21G24
   1273432.905    21789838.309          26.797  
    960607.973    20953851.452          38.963  
   -268644.493    20520713.106          45.668  
  -1891391.464    24385632.082          39.675  
   -632141.725    20085596.132          41.448  
  -1179920.373    22977109.981          45.274  
   -270292.209    21917637.138          27.705  
 17 11 13  6 20 52.9998351  0  7G 5G13G15G18G20G21G24
   1275458.1691   21790227.741          22.740  
    962135.094    20954141.653          39.041  
   -268941.154    20520654.648          45.748  
  -1894250.093    24385085.257          39.845  
   -632951.207    20085441.139          41.050  
  -1181540.558    22976803.891          46.139  
   -273417.786    21917034.852          27.721  
 17 11 13  6 20 53.9998354  0  7G 5G13G15G18G20G21G24
   1277483.925    21790671.134          24.242  
    963662.537    20954510.996          39.185  
   -269237.425    20520676.831          45.655  
  -1897108.695    24384619.681          40.101  
   -633760.236    20085361.693          40.780  
  -1183160.230    22976567.955          46.164  
   -276542.670    21916535.401          26.474  
 17 11 13  6 20 54.9998354  0  7G 5G13G15G18G20G21G24
   1279510.116    21791073.453          26.173  
    965190.058    20954804.792          39.110  
   -269533.477    20520620.170          45.349  
  -1899967.492    24384079.152          39.879  
   -634568.877    20085206.403          41.392  
  -1184779.502    22976261.564          45.580  
   -279667.597    21915921.424          27.968  
 17 11 13  6 20 55.9998354  0  7G 5G13G15G18G20G21G24
   1281536.076    21791476.077          27.456  
    966717.859    20955097.690          39.602  
   -269829.300    20520560.813          44.880  
  -1902826.380    24383530.836          40.332  
   -635377.240    20085056.205          41.519  
  -1186398.401    22975953.978          44.969  
   -282792.230    21915337.727          28.531  
 17 11 13  6 20 56.9998354  0  7G 5G13G15G18G20G21G24
   1283562.390    21791873.301          27.314  
    968245.773    20955383.690          39.189  
   -270124.895    20520503.254          44.650  
  -1905685.289    24382986.712          40.031  
   -636185.162    20084900.313          41.344  
  -1188016.876    22975645.794          44.994  
   -285916.457    21914742.339          27.716  
 17 11 13  6 20 57.9998354  0  7G 5G13G15G18G20G21G24
   1285589.158    21792253.737          28.066  
    969774.075    20955680.784          39.006  
   -270419.970    20520451.688          44.774  
  -1908544.171    24382441.689          40.151  
   -636992.530    20084744.422          41.232  
  -1189634.710    22975338.203          44.992  
   -289040.173    21914150.248          27.346  
 17 11 13  6 20 58.9998354  0  7G 5G13G15G18G20G21G24
   1287616.307    21792630.278          28.474  
    971302.667    20955969.786          39.070  
   -270714.732    20520392.628          44.887  
  -1911403.079    24381896.963          40.342  
   -637799.398    20084590.027          41.393  
  -1191252.060    22975031.516          44.947  
   -292163.482    21913545.267          28.066  
 17 11 13  6 20 59.9998354  0  7G 5G13G15G18G20G21G24
   1289643.962    21793022.703          28.854  
    972831.627    20956263.281          39.618  
   -271008.999    20520335.069          44.622  
  -1914261.795    24381350.143          39.939  
   -638605.664    20084441.630          41.350  
  -1192868.774    22974722.132          44.868  
   -295286.277    21912948.683          27.679  
 17 11 13  6 21  0.9998354  0  7G 5G13G15G18G20G21G24
   1291672.037    21793403.441          28.625  
    974360.919    20956557.976          39.960  
   -271302.849    20520280.506          44.440  
  -1917120.432    24380801.822          40.048  
   -639411.454    20084289.036          41.349  
  -1194484.905    22974416.042          44.774  
   -298408.521    21912349.696          27.760  
 17 11 13  6 21  1.9998354  0  7G 5G13G15G18G20G21G24
   1293700.563    21793786.578          28.998  
    975890.607    20956852.675          39.967  
   -271596.280    20520224.146          44.365  
  -1919979.016    24380257.101          39.973  
   -640216.594    20084135.841          41.391  
  -1196100.424    22974106.056          44.784  
   -301530.322    21911759.407          27.673  
 17 11 13  6 21  2.9998354  0  7G 5G13G15G18G20G21G24
   1295729.478    21794182.602          28.834  
    977420.625    20957143.174          39.757  
   -271889.302    20520171.983          44.503  
  -1922837.606    24379712.078          39.945  
   -641021.330    20083986.847          41.454  
  -1197715.397    22973802.667          44.663  
   -304651.716    21911160.119          26.971  
 17 11 13  6 21  3.9998354  0  7G 5G13G15G18G20G21G24
   1297758.872    21794575.628          29.112  
    978950.909    20957433.070          39.539  
   -272181.932    20520112.622          44.731  
  -1925696.136    24379170.951          39.963  
   -641825.476    20083831.854          41.602  
  -1199329.817    22973489.684          44.650  
   -307772.676    21910574.324          27.958  
 17 11 13  6 21  4.9998354  0  7G 5G13G15G18G20G21G24
   1299788.421    21794955.467          29.946  
    980481.415    20957726.569          39.252  
   -272474.296    20520058.059          44.297  
  -1928554.779    24378623.529          39.853  
   -642629.292    20083679.260          40.925  
  -1200943.844    22973185.396          44.213  
   -310893.232    21909976.239          28.629  
 17 11 13  6 21  5.9998354  0  7G 5G13G15G18G20G21G24
   1301818.367    21795355.090          30.217  
    982012.078    20958014.668          39.646  
   -272766.412    20520001.700          44.750  
  -1931413.439    24378079.706          39.957  
   -643432.654    20083526.366          41.551  
  -1202557.408    22972877.810          44.685  
   -314013.463    21909373.958          29.373  
 17 11 13  6 21  6.9998354  0  7G 5G13G15G18G20G21G24
   1303848.666    21795723.835          30.018  
    983543.052    20958305.166          39.912  
   -273058.125    20519947.137          44.563  
  -1934272.123    24377537.384          39.794  
   -644235.602    20083373.773          41.293  
  -1204170.461    22972572.021          44.589  
   -317133.310    21908774.971          29.128  
 17 11 13  6 21  7.9998354  0  7G 5G13G15G18G20G21G24
   1305879.342    21796099.473          30.070  
    985074.266    20958595.368          40.140  
   -273349.534    20519892.575          44.490  
  -1937130.797    24376994.460          39.954  
   -645038.029    20083218.479          41.414  
  -1205783.034    22972265.032          44.577  
   -320252.718    21908185.280          29.301  
 17 11 13  6 21  8.9998354  0  7G 5G13G15G18G20G21G24
   1307910.389    21796486.807          29.137  
    986605.816    20958884.967          39.939  
   -273640.562    20519836.813          44.439  
  -1939989.496    24376448.835          40.075  
   -645839.968    20083064.385          41.201  
  -1207395.047    22971953.847          44.502  
   -323371.772    21907595.288          29.330  
 17 11 13  6 21  9.9998354  0  7G 5G13G15G18G20G21G24
   1309941.766    21796866.345          28.239  
    988137.574    20959176.364          40.029  
   -273931.241    20519783.149          44.488  
  -1942848.190    24375904.414          40.112  
   -646641.529    20082909.091          41.248  
  -1209006.589    22971650.156          44.434  
   -326490.370    21907009.493          29.359  
 17 11 13  6 21 10.9998354  0  7G 5G13G15G18G20G21G24
   1311973.505    21797259.673          28.638  
    989669.649    20959468.363          40.147  
   -274221.563    20519727.688          44.397  
  -1945706.837    24375366.285          39.967  
   -647442.499    20082758.596          41.211  
  -1210617.593    22971342.871          44.412  
   -329608.578    21906411.408          29.372  
 17 11 13  6 21 11.9998354  0  7G 5G13G15G18G20G21G24
   1314005.664    21797652.700          28.436  
    991202.022    20959758.861          40.208  
   -274511.500    20519674.024          44.550  
  -1948565.492    24374817.667          40.007  
   -648243.024    20082608.101          41.431  
  -1212228.054    22971038.880          44.422  
   -332726.283    21905821.417          29.319  
 17 11 13  6 21 12.9998354  0  7G 5G13G15G18G20G21G24
   1316038.202    21798044.527          27.399  
    992734.644    20960049.359          40.098  
   -274801.101    20519618.563          44.595  
  -1951424.218    24374276.239          40.069  
   -649043.047    20082459.704          41.573  
  -1213838.050    22970734.291          44.409  
   -335843.674    21905230.827          29.327  
 17 11 13  6 21 13.9998354  0  7G 5G13G15G18G20G21G24
   1318071.141    21798421.068          27.061  
    994267.559    20960337.759          40.068  
   -275090.344    20519564.903          44.636  
  -1954282.848    24373733.917          40.118  
   -649842.602    20082304.109          41.645  
  -1215447.489    22970427.306          44.458  
   -338960.598    21904637.236          29.647  
 17 11 13  6 21 14.9998354  0  7G 5G13G15G18G20G21G24
   1320104.267    21798816.193          26.648  
    995800.702    20960628.261          40.175  
   -275379.252    20519508.242          44.746  
  -1957141.526    24373185.897          40.010  
   -650641.806    20082156.611          41.940  
  -1217056.482    22970121.818          44.494  
   -342077.060    21904043.946          29.437  
 17 11 13  6 21 15.9998354  0  7G 5G13G15G18G20G21G24
   1322137.916    21799180.741          26.393  
    997334.152    20960919.060          39.958  
   -275667.818    20519451.582          44.422  
  -1960000.189    24372640.574          39.689  
   -651440.373    20082004.916          41.837  
  -1218664.934    22969819.925          44.422  
   -345193.204    21903451.555          29.333  
 17 11 13  6 21 16.9998354  0  7G 5G13G15G18G20G21G24
   1324171.825    21799570.474          26.039  
    998867.793    20961208.359          40.101  
   -275956.073    20519394.022          44.562  
  -1962858.939    24372096.450          39.867  
   -652238.628    20081846.028          42.175  
  -1220272.907    22969509.041          44.562  
   -348308.949    21902858.566          29.411  
 17 11 13  6 21 17.9998354  0  7G 5G13G15G18G20G21G24
   1326206.205    21799974.294          24.931  
   1000401.806    20961503.054          39.913  
   -276243.900    20519339.460          44.465  
  -1965717.554    24371550.227          39.708  
   -653036.248    20081695.533          41.944  
  -1221880.332    22969202.951          44.374  
   -351424.169    21902269.774          29.496  
 17 11 13  6 21 18.9998354  0  7G 5G13G15G18G20G21G24
   1328240.880    21800344.239          24.249  
   1001936.064    20961798.948          39.954  
   -276531.391    20519285.796          44.625  
  -1968576.261    24371009.702          39.630  
   -653833.483    20081546.835          42.120  
  -1223487.256    22968896.564          44.239  
   -354539.006    21901690.575          29.646  
 17 11 13  6 21 19.9998354  0  7G 5G13G15G18G20G21G24
   1330275.861    21800733.967          24.762  
   1003470.492    20962084.351          39.829  
   -276818.669    20519228.834          44.606  
  -1971435.015    24370461.382          39.412  
   -654630.367    20081392.143          41.988  
  -1225093.752    22968591.378          44.075  
   -357653.546    21901096.988          29.985  
 17 11 13  6 21 20.9998354  0  7G 5G13G15G18G20G21G24
   1332311.112    21801091.317          24.345  
   1005005.137    20962378.147          39.989  
   -277105.609    20519176.069          44.618  
  -1974293.885    24369916.957          39.443  
   -655426.767    20081239.249          42.058  
  -1226699.824    22968283.787          43.854  
   -360767.675    21900506.695          30.245  
 17 11 13  6 21 21.9998354  0  7G 5G13G15G18G20G21G24
   1334346.844    21801502.034          24.695  
   1006540.081    20962668.048          40.015  
   -277392.201    20519123.609          44.802  
  -1977152.694    24369372.536          39.404  
   -656222.743    20081089.652          42.140  
  -1228305.334    22967979.198          43.942  
   -363881.430    21899925.398          30.497  
 17 11 13  6 21 22.9998354  0  7G 5G13G15G18G20G21G24
   1336382.720    21801890.864          25.210  
   1008075.265    20962958.546          39.483  
   -277678.449    20519073.540          44.763  
  -1980011.575    24368826.013          39.352  
   -657018.238    20080943.354          42.237  
  -1229910.404    22967671.612          43.631  
   -366994.726    21899319.518          29.914  
 17 11 13  6 21 23.9998354  0  7G 5G13G15G18G20G21G24
   1338419.149    21802275.498          23.950  
   1009610.691    20963249.646          38.644  
   -277964.416    20519020.478          44.994  
  -1982870.433    24368283.987          38.918  
   -657813.286    20080787.759          41.915  
  -1231514.953    22967362.525          44.470  
   -370107.657    21898715.435          28.583  
 17 11 13  6 21 24.9998354  0  7G 5G13G15G18G20G21G24
   1340455.493    21802658.936          23.843  
   1011146.162    20963539.246          37.535  
   -278250.172    20518963.516          44.317  
  -1985729.489    24367739.265          39.198  
   -658608.059    20080632.766          42.045  
  -1233119.196    22967056.138          45.113  
   -373220.480    21898122.446          29.606  
 17 11 13  6 21 25.9998354  0  7G 5G13G15G18G20G21G24
   1342492.263    21803049.262          26.255  
   1012681.803    20963836.636          38.669  
   -278535.742    20518911.955          45.145  
  -1988588.737    24367193.645          39.179  
   -659402.527    20080486.769          42.092  
  -1234723.086    22966751.850          43.708  
   -376333.064    21897551.641          30.027  
 17 11 13  6 21 26.9998354  0  7G 5G13G15G18G20G21G24
   1344529.394    21803449.788          28.476  
   1014217.689    20964129.534          38.996  
   -278820.961    20518855.591          45.097  
  -1991447.963    24366650.420          39.197  
   -660196.475    20080336.571          42.325  
  -1236326.468    22966443.963          43.473  
   -379445.141    21896952.357          30.575  
 17 11 13  6 21 27.9998354  0  7G 5G13G15G18G20G21G24
   1346566.657    21803853.307          28.716  
   1015753.616    20964426.929          39.206  
   -279106.074    20518804.929          45.094  
  -1994307.446    24366105.397          39.115  
   -660990.249    20080184.876          42.206  
  -1237929.579    22966135.774          43.586  
   -382557.071    21896364.463          31.581  
 17 11 13  6 21 28.9998354  0  7G 5G13G15G18G20G21G24
   1348604.144    21804248.433          29.095  
   1017289.746    20964717.427          38.794  
   -279390.874    20518746.466          45.017  
  -1997166.978    24365562.774          39.097  
   -661783.570    20080034.682          41.903  
  -1239532.245    22965830.286          43.548  
   -385668.640    21895757.981          32.386  
 17 11 13  6 21 29.9998356  0  7G 5G13G15G18G20G21G24
   1350642.116    21804724.802          28.821  
   1018826.180    20965087.372          38.734  
   -279675.307    20518767.751          45.034  
  -2000026.464    24365100.793          39.014  
   -662576.386    20079961.234          41.907  
  -1241134.328    22965601.545          43.368  
   -388779.791    21895254.333          33.056  
 17 11 13  6 21 30.9998356  0  7G 5G13G15G18G20G21G24
   1352680.504    21805118.130          28.780  
   1020362.981    20965379.969          38.897  
   -279959.296    20518713.189          45.039  
  -2002885.897    24364564.761          39.060  
   -663368.647    20079805.940          41.656  
  -1242735.824    22965295.455          43.529  
   -391890.404    21894663.141          34.104  
 17 11 13  6 21 31.9998356  0  7G 5G13G15G18G20G21G24
   1354719.195    21805511.156          29.831  
   1021900.060    20965675.567          38.772  
   -280242.916    20518661.924          45.007  
  -2005745.258    24364020.642          39.411  
   -664160.454    20079658.743          41.617  
  -1244336.820    22964990.865          43.485  
   -395000.584    21894058.757          34.139  
 17 11 13  6 21 32.9998356  0  7G 5G13G15G18G20G21G24
   1356758.342    21805898.490          29.584  
   1023437.452    20965970.563          38.757  
   -280526.151    20518604.967          44.726  
  -2008604.660    24363477.717          39.120  
   -664951.731    20079508.545          41.360  
  -1245937.256    22964688.676          43.539  
   -398110.304    21893475.361          34.217  
 17 11 13  6 21 33.9998356  0  7G 5G13G15G18G20G21G24
   1358797.815    21806291.517          29.950  
   1024975.028    20966257.161          38.924  
   -280809.143    20518552.202          44.919  
  -2011464.127    24362937.790          39.526  
   -665742.638    20079355.349          41.426  
  -1247537.258    22964384.387          43.656  
   -401219.710    21892878.477          34.079  
 17 11 13  6 21 34.9998356  0  7G 5G13G15G18G20G21G24
   1360837.574    21806670.156          30.398  
   1026512.825    20966551.559          38.862  
   -281091.781    20518500.039          44.816  
  -2014323.640    24362393.064          39.450  
   -666533.084    20079203.358          41.356  
  -1249136.812    22964084.296          43.835  
   -404328.733    21892289.384          33.794  
 17 11 13  6 21 35.9998356  0  7G 5G13G15G18G20G21G24
   1362877.661    21807053.590          29.804  
   1028050.847    20966842.057          38.850  
   -281374.118    20518443.378          44.858  
  -2017183.185    24361852.840          39.553  
   -667323.082    20079053.461          41.230  
  -1250735.841    22963777.307          43.761  
   -407437.392    21891690.396          34.320  
 17 11 13  6 21 36.9998356  0  7G 5G13G15G18G20G21G24
   1364918.248    21807443.620          29.780  
   1029589.311    20967130.758          38.855  
   -281655.986    20518393.911          44.894  
  -2020042.599    24361307.818          39.703  
   -668112.503    20078896.967          41.169  
  -1252334.286    22963473.019          43.961  
   -410545.501    21891102.507          34.517  
 17 11 13  6 21 37.9998356  0  7G 5G13G15G18G20G21G24
   1366959.190    21807819.559          28.615  
   1031128.019    20967425.152          38.732  
   -281937.517    20518338.751          44.704  
  -2022902.007    24360764.592          39.673  
   -668901.442    20078752.767          40.868  
  -1253932.180    22963172.928          44.061  
   -413653.187    21890506.220          34.587  
 17 11 13  6 21 38.9998356  0  7G 5G13G15G18G20G21G24
   1369000.613    21808188.905          28.437  
   1032667.064    20967719.851          38.781  
   -282218.589    20518281.789          44.702  
  -2025761.333    24360219.273          39.801  
   -669689.869    20078598.673          41.079  
  -1255529.517    22962870.734          44.152  
   -416760.360    21889912.930          34.617  
 17 11 13  6 21 39.9998356  0  7G 5G13G15G18G20G21G24
   1371042.495    21808564.844          28.075  
   1034206.503    20968012.748          38.978  
   -282499.254    20518227.828          44.545  
  -2028620.589    24359674.848          39.722  
   -670477.691    20078446.080          40.910  
  -1257126.212    22962568.845          44.212  
   -419867.077    21889317.542          34.778  
 17 11 13  6 21 40.9998356  0  7G 5G13G15G18G20G21G24
   1373084.702    21808935.688          26.459  
   1035746.190    20968303.543          38.887  
   -282779.551    20518178.060          44.623  
  -2031479.862    24359131.326          39.786  
   -671265.078    20078300.383          41.099  
  -1258722.451    22962268.152          44.386  
   -422973.380    21888730.848          34.864  
 17 11 13  6 21 41.9998356  0  7G 5G13G15G18G20G21G24
   1375127.419    21809306.230          25.747  
   1037286.269    20968593.444          38.853  
   -283059.403    20518122.900          44.714  
  -2034339.014    24358587.800          39.811  
   -672051.801    20078153.483          40.973  
  -1260318.047    22961963.863          44.709  
   -426079.130    21888138.758          34.635  
 17 11 13  6 21 42.9998356  0  7G 5G13G15G18G20G21G24
   1377170.502    21809683.368          24.766  
   1038826.633    20968887.842          39.198  
   -283338.837    20518073.132          44.516  
  -2037198.083    24358042.179          39.623  
   -672838.067    20078003.586          41.026  
  -1261913.066    22961659.872          44.540  
   -429184.429    21887541.271          34.732  
 17 11 13  6 21 43.9998356  0  7G 5G13G15G18G20G21G24
   1379213.947    21810079.096          25.684  
   1040367.237    20969174.741          39.074  
   -283617.989    20518016.772          44.325  
  -2040057.227    24357500.455          39.746  
   -673623.880    20077850.992          40.886  
  -1263507.651    22961359.183          44.681  
   -432289.315    21886951.580          34.766  
 17 11 13  6 21 44.9998356  0  7G 5G13G15G18G20G21G24
   1381257.750    21810469.125          25.954  
   1041908.133    20969470.339          39.238  
   -283896.750    20517964.609          44.337  
  -2042916.395    24356958.429          39.921  
   -674409.237    20077701.095          40.972  
  -1265101.690    22961055.492          44.683  
   -435393.857    21886357.391          34.461  
 17 11 13  6 21 45.9998356  0  7G 5G13G15G18G20G21G24
   1383301.836    21810865.751          26.260  
   1043449.171    20969764.135          39.421  
   -284175.346    20517908.546          44.212  
  -2045775.690    24356413.708          39.795  
   -675194.210    20077550.600          41.082  
  -1266695.360    22960750.903          44.738  
   -438498.049    21885767.099          34.432  
 17 11 13  6 21 46.9998356  0  7G 5G13G15G18G20G21G24
   1385346.213    21811266.273          27.473  
   1044990.476    20970053.735          39.421  
   -284453.512    20517859.681          44.306  
  -2048634.884    24355867.184          39.967  
   -675978.717    20077404.001          41.083  
  -1268288.479    22960444.813          44.706  
   -441601.834    21885184.301          34.573  
 17 11 13  6 21 47.9998356  0  7G 5G13G15G18G20G21G24
   1387391.118    21811664.697          28.235  
   1046532.171    20970353.228          39.861  
   -284731.226    20517809.616          44.255  
  -2051494.022    24355326.956          39.840  
   -676762.688    20077254.404          41.149  
  -1269881.005    22960142.322          44.614  
   -444705.051    21884599.408          34.556  
 17 11 13  6 21 48.9998356  0  7G 5G13G15G18G20G21G24
   1389436.372    21812055.328          28.417  
   1048074.107    20970650.920          39.891  
   -285008.697    20517756.254          44.261  
  -2054353.217    24354782.536          39.862  
   -677546.198    20077108.106          41.093  
  -1271473.063    22959839.234          44.590  
   -447807.904    21883998.022          34.459  
 17 11 13  6 21 49.9998356  0  7G 5G13G15G18G20G21G24
   1391481.918    21812457.648          29.032  
   1049616.267    20970943.818          40.055  
   -285285.726    20517704.387          44.332  
  -2057212.467    24354243.206          39.884  
   -678329.214    20076957.912          41.349  
  -1273064.606    22959533.144          44.591  
   -450910.436    21883420.323          34.505  
 17 11 13  6 21 50.9998356  0  7G 5G13G15G18G20G21G24
   1393527.763    21812852.777          29.284  
   1051158.652    20971238.513          40.363  
   -285562.556    20517653.725          44.049  
  -2060071.712    24353695.788          39.649  
   -679111.857    20076807.417          41.196  
  -1274655.680    22959230.653          44.627  
   -454012.567    21882829.433          34.708  
 17 11 13  6 21 51.9998356  0  7G 5G13G15G18G20G21G24
   1395574.021    21813262.892          29.448  
   1052701.307    20971532.610          40.556  
   -285838.992    20517600.061          44.085  
  -2062930.999    24353152.563          39.803  
   -679893.976    20076662.314          41.489  
  -1276246.294    22958928.764          44.540  
   -457114.315    21882246.037          34.676  
 17 11 13  6 21 52.9998356  0  7G 5G13G15G18G20G21G24
   1397620.493    21813657.119          29.947  
   1054244.064    20971829.107          40.574  
   -286115.331    20517546.096          43.657  
  -2065790.434    24352610.537          39.575  
   -680675.783    20076513.621          41.067  
  -1277836.534    22958628.071          44.389  
   -460215.754    21881650.047          34.446  
 17 11 13  6 21 53.9998356  0  7G 5G13G15G18G20G21G24
   1399667.163    21814061.240          30.647  
   1055786.958    20972122.000          41.009  
   -286391.339    20517493.933          43.960  
  -2068649.966    24352063.717          39.805  
   -681457.331    20076364.923          41.502  
  -1279426.412    22958322.583          44.583  
   -463317.006    21881066.651          35.251  
 17 11 13  6 21 54.9998356  0  7G 5G13G15G18G20G21G24
   1401714.002    21814446.174          30.908  
   1057329.957    20972422.392          41.203  
   -286667.228    20517438.171          43.751  
  -2071509.746    24351520.793          39.583  
   -682238.564    20076216.225          41.570  
  -1281015.929    22958021.894          44.659  
   -466417.924    21880486.253          35.300  
 17 11 13  6 21 55.9998356  0  7G 5G13G15G18G20G21G24
   1403761.201    21814841.600          31.239  
   1058873.163    20972714.090          41.429  
   -286942.780    20517388.708          43.739  
  -2074369.495    24350975.168          39.517  
   -683019.308    20076069.626          41.638  
  -1282604.965    22957717.305          44.515  
   -469518.498    21879883.670          35.234  
 17 11 13  6 21 56.9998356  0  7G 5G13G15G18G20G21G24
   1405808.662    21815221.736          32.244  
   1060416.543    20973010.888          41.786  
   -287218.114    20517337.143          43.815  
  -2077229.411    24350429.247          39.498  
   -683799.713    20075919.729          41.724  
  -1284193.614    22957415.713          44.383  
   -472618.792    21879298.477          35.012  
 17 11 13  6 21 57.9998356  0  7G 5G13G15G18G20G21G24
   1407856.313    21815610.269          32.452  
   1061960.069    20973304.684          41.899  
   -287493.213    20517286.476          43.865  
  -2080089.408    24349877.628          39.596  
   -684579.787    20075772.231          41.884  
  -1285781.876    22957112.620          44.349  
   -475718.749    21878704.289          34.879  
 17 11 13  6 21 58.9998356  0  7G 5G13G15G18G20G21G24
   1409904.356    21815994.602          32.275  
   1063503.858    20973596.980          42.169  
   -287767.974    20517233.716          43.969  
  -2082949.447    24349335.306          39.485  
   -685359.413    20075624.436          41.913  
  -1287369.651    22956810.731          44.529  
   -478818.315    21878113.695          34.731  
 17 11 13  6 21 59.9998356  0  7G 5G13G15G18G20G21G24
   1411952.839    21816390.626          31.983  
   1065047.992    20973893.777          42.197  
   -288042.318    20517185.147          44.029  
  -2085809.325    24348792.081          39.307  
   -686138.448    20075473.640          41.933  
  -1288956.820    22956509.440          44.410  
   -481917.396    21877527.904          34.949  
 17 11 13  6 22  0.9998356  0  7G 5G13G15G18G20G21G24
   1414001.730    21816783.055          31.382  
   1066592.456    20974188.171          42.247  
   -288316.241    20517129.686          44.079  
  -2088669.261    24348240.165          39.142  
   -686916.917    20075327.639          41.772  
  -1290543.388    22956209.349          44.199  
   -485015.959    21876930.714          34.621  
 17 11 13  6 22  1.9998356  0  7G 5G13G15G18G20G21G24
   1416051.126    21817172.784          31.847  
   1068137.302    20974479.568          42.325  
   -288589.700    20517073.025          44.672  
  -2091528.975    24347696.940          39.219  
   -687694.817    20075179.242          41.180  
  -1292129.365    22955908.956          44.491  
   -488114.005    21876335.029          33.005  
 17 11 13  6 22  2.9998356  0  7G 5G13G15G18G20G21G24
   1418100.753    21817561.317          31.863  
   1069682.260    20974773.966          41.388  
   -288862.938    20517025.059          44.167  
  -2094388.876    24347147.420          39.278  
   -688472.418    20075027.246          41.881  
  -1293714.963    22955604.066          45.647  
   -491211.781    21875754.028          33.519  
 17 11 13  6 22  3.9998356  0  7G 5G13G15G18G20G21G24
   1420150.563    21817938.456          32.350  
   1071227.341    20975065.066          41.417  
   -289136.010    20516969.297          44.046  
  -2097248.952    24346600.299          39.075  
   -689249.643    20074880.948          41.671  
  -1295300.165    22955306.671          45.619  
   -494309.258    21875170.035          34.963  
 17 11 13  6 22  4.9998356  0  7G 5G13G15G18G20G21G24
   1422200.716    21818335.082          30.929  
   1072772.643    20975355.564          42.350  
   -289408.749    20516920.733          44.227  
  -2100109.036    24346062.173          38.794  
   -690026.510    20074736.447          41.225  
  -1296884.976    22955000.284          44.067  
   -497406.443    21874578.843          34.805  
 17 11 13  6 22  5.9998356  0  7G 5G13G15G18G20G21G24
   1424250.963    21818700.227          30.343  
   1074317.963    20975654.757          42.867  
   -289681.397    20516864.072          44.235  
  -2102969.423    24345515.349          38.588  
   -690803.163    20074590.751          41.800  
  -1298469.508    22954702.889          43.635  
   -500503.466    21873992.150          35.088  
 17 11 13  6 22  6.9998356  0  7G 5G13G15G18G20G21G24
   1426301.479    21819096.256          30.004  
   1075863.451    20975943.755          43.021  
   -289953.762    20516817.903          44.024  
  -2105829.916    24344974.824          39.000  
   -691579.402    20074444.151          41.954  
  -1300053.596    22954403.099          43.891  
   -503600.100    21873400.661          35.561  
 17 11 13  6 22  7.9998359  0  7G 5G13G15G18G20G21G24
   1428352.363    21819545.341          29.000  
   1077409.185    20976314.297          42.988  
   -290225.859    20516843.982          44.055  
  -2108690.384    24344509.845          38.907  
   -692355.202    20074367.104          41.784  
  -1301637.189    22954178.553          43.882  
   -506696.407    21872891.010          35.735  
 17 11 13  6 22  8.9998359  0  7G 5G13G15G18G20G21G24
   1430403.708    21819956.957          28.497  
   1078955.381    20976606.597          42.900  
   -290497.424    20516787.025          44.051  
  -2111550.719    24343966.620          38.902  
   -693130.358    20074224.401          41.712  
  -1303220.148    22953876.961          43.873  
   -509792.104    21872301.621          35.817  
 17 11 13  6 22  9.9998359  0  7G 5G13G15G18G20G21G24
   1432455.489    21820336.495          27.532  
   1080501.861    20976904.891          42.908  
   -290768.581    20516741.153          44.154  
  -2114411.024    24343426.697          39.084  
   -693904.986    20074072.706          41.682  
  -1304802.492    22953579.867          43.942  
   -512887.303    21871717.326          35.660  
 17 11 13  6 22 10.9998359  0  7G 5G13G15G18G20G21G24
   1434507.987    21820738.517          27.559  
   1082048.879    20977197.186          42.922  
   -291039.132    20516687.790          44.196  
  -2117271.039    24342879.576          38.676  
   -694678.862    20073921.312          41.342  
  -1306384.088    22953276.478          43.858  
   -515981.845    21871120.136          35.982  
 17 11 13  6 22 11.9998359  0  7G 5G13G15G18G20G21G24
   1436560.790    21821138.141          27.120  
   1083596.194    20977495.480          42.905  
   -291309.322    20516636.827          44.292  
  -2120130.985    24342336.652          39.211  
   -695452.224    20073771.716          41.398  
  -1307965.156    22952975.784          43.707  
   -519075.936    21870537.342          36.512  
 17 11 13  6 22 12.9998359  0  7G 5G13G15G18G20G21G24
   1438613.900    21821513.778          27.255  
   1085143.760    20977788.077          42.898  
   -291579.200    20516583.163          44.321  
  -2122991.042    24341794.024          38.662  
   -696225.242    20073626.316          41.232  
  -1309545.735    22952674.794          43.746  
   -522169.648    21869944.354          36.315  
 17 11 13  6 22 13.9998359  0  7G 5G13G15G18G20G21G24
   1440667.421    21821890.917          26.826  
   1086691.566    20978082.174          43.076  
   -291848.716    20516531.898          44.352  
  -2125851.101    24341246.903          38.666  
   -696997.734    20073486.313          41.407  
  -1311125.788    22952371.405          43.630  
   -525262.970    21869356.460          36.306  
 17 11 13  6 22 14.9998359  0  7G 5G13G15G18G20G21G24
   1442721.443    21822277.051          26.074  
   1088239.753    20978381.070          42.952  
   -292117.779    20516478.235          44.524  
  -2128710.961    24340701.881          38.362  
   -697769.615    20073335.216          41.331  
  -1312705.239    22952069.210          43.561  
   -528355.783    21868761.669          36.472  
 17 11 13  6 22 15.9998359  0  7G 5G13G15G18G20G21G24
   1444775.767    21822669.781          26.012  
   1089788.190    20978672.768          42.941  
   -292386.526    20516426.071          44.527  
  -2131570.970    24340155.061          38.459  
   -698541.071    20073194.315          41.323  
  -1314284.200    22951766.122          43.134  
   -531448.196    21868180.372          36.099  
 17 11 13  6 22 16.9998359  0  7G 5G13G15G18G20G21G24
   1446830.568    21823061.006          26.244  
   1091336.903    20978970.761          43.117  
   -292654.892    20516377.508          44.669  
  -2134430.908    24339608.241          38.437  
   -699312.051    20073046.520          41.363  
  -1315862.642    22951465.730          43.381  
   -534540.186    21867584.085          36.327  
 17 11 13  6 22 17.9998359  0  7G 5G13G15G18G20G21G24
   1448885.718    21823468.425          26.491  
   1092885.904    20979266.355          43.042  
   -292922.881    20516323.543          44.584  
  -2137290.841    24339059.021          38.107  
   -700082.566    20072899.921          41.274  
  -1317440.560    22951162.641          43.134  
   -537631.674    21867005.785          36.276  
 17 11 13  6 22 18.9998359  0  8G 5G13G15G18G20G21G24G28
   1450941.160    21823880.643          26.545  
   1094435.180    20979562.249          43.199  
   -293190.566    20516273.478          44.910  
  -2140150.729    24338509.200          37.767  
   -700852.585    20072749.722          41.181  
  -1319017.939    22950860.447          43.292  
   -540722.805    21866408.001          36.391  
      -412.438    24789320.310          23.620  
 17 11 13  6 22 19.9998359  0  8G 5G13G15G18G20G21G24G28
   1452997.026    21824267.972          26.665  
   1095984.715    20979857.245          43.051  
   -293457.930    20516223.714          44.800  
  -2143010.743    24337969.574          37.797  
   -701622.111    20072608.519          41.181  
  -1320594.863    22950560.657          43.138  
   -543813.517    21865826.403          36.492  
      -616.232    24789286.732          23.211  
 17 11 13  6 22 20.9998359  0  8G 5G13G15G18G20G21G24G28
   1455053.039    21824672.691          26.364  
   1097534.338    20980154.941          43.067  
   -293725.006    20516176.045          45.021  
  -2145870.812    24337420.053          37.931  
   -702391.370    20072459.826          41.070  
  -1322171.400    22950264.160          43.218  
   -546903.940    21865241.206          36.092  
      -819.632    24789250.457          23.719  
 17 11 13  6 22 21.9998359  0  8G 5G13G15G18G20G21G24G28
   1457109.334    21825047.731          25.418  
   1099084.186    20980447.237          42.765  
   -293991.883    20516122.381          44.961  
  -2148730.929    24336873.831          37.646  
   -703160.191    20072316.822          40.857  
  -1323747.515    22949961.669          42.946  
   -549994.060    21864650.019          35.889  
     -1022.620    24789217.782          23.094  
 17 11 13  6 22 22.9998359  0  8G 5G13G15G18G20G21G24G28
   1459165.992    21825423.971          26.064  
   1100634.298    20980736.535          42.883  
   -294258.402    20516072.316          44.985  
  -2151591.120    24336326.710          37.778  
   -703928.538    20072165.729          40.941  
  -1325323.068    22949663.078          43.232  
   -553083.766    21864060.323          35.979  
     -1225.146    24789135.936          23.363  
 17 11 13  6 22 23.9998359  0  8G 5G13G15G18G20G21G24G28
   1461223.190    21825814.904          25.822  
   1102184.753    20981033.630          42.862  
   -294524.434    20516019.255          44.727  
  -2154451.201    24335785.884          37.742  
   -704696.317    20072018.231          40.707  
  -1326898.060    22949361.787          43.260  
   -556172.903    21863473.032          36.112  
     -1426.8941   24789126.046          22.850  
 17 11 13  6 22 24.9998359  0  8G 5G13G15G18G20G21G24G28
   1463280.626    21826210.928          25.455  
   1103735.476    20981331.924          42.837  
   -294790.226    20515966.489          44.701  
  -2157311.343    24335244.159          37.751  
   -705463.646    20071870.131          40.746  
  -1328472.560    22949064.994          43.468  
   -559261.685    21862885.138          36.022  
     -1628.424    24789090.967          23.355  
 17 11 13  6 22 25.9998359  0  8G 5G13G15G18G20G21G24G28
   1465338.460    21826620.746          25.028  
   1105286.459    20981622.125          42.800  
   -295055.559    20515916.124          44.635  
  -2160171.387    24334701.235          37.605  
   -706230.498    20071724.134          40.654  
  -1330046.539    22948769.697          43.407  
   -562350.061    21862283.455          35.775  
     -1829.228    24789046.599          23.426  
 17 11 13  6 22 26.9998359  0  8G 5G13G15G18G20G21G24G28
   1467396.708    21827008.974          24.393  
   1106837.806    20981916.519          42.763  
   -295320.522    20515866.059          44.702  
  -2163031.403    24334159.510          37.539  
   -706996.792    20071577.835          40.849  
  -1331619.899    22948463.908          43.240  
   -565437.809    21861698.262          35.708  
     -2029.507    24789023.814          23.637  
 17 11 13  6 22 27.9998359  0  8G 5G13G15G18G20G21G24G28
   1469455.312    21827410.098          23.635  
   1108389.354    20982213.613          42.645  
   -295585.227    20515816.596          44.583  
  -2165891.547    24333614.789          37.431  
   -707762.658    20071432.135          40.739  
  -1333192.866    22948170.112          43.399  
   -568525.346    21861102.271          35.288  
     -2229.3191   24788999.532          22.989  
 17 11 13  6 22 28.9998359  0  8G 5G13G15G18G20G21G24G28
   1471514.245    21827789.937          23.746  
   1109941.036    20982505.015          42.600  
   -295849.601    20515765.031          44.400  
  -2168751.716    24333073.662          37.617  
   -708528.203    20071285.837          40.704  
  -1334765.372    22947870.021          43.138  
   -571612.502    21860516.476          34.992  
     -2428.7401   24788977.645          22.712  
 17 11 13  6 22 29.9998359  0  8G 5G13G15G18G20G21G24G28
   1473573.4451   21828185.660          22.909  
   1111493.072    20982800.307          42.610  
   -296113.646    20515720.660          44.394  
  -2171611.851    24332531.340          37.718  
   -709293.171    20071141.336          40.650  
  -1336337.354    22947571.426          43.396  
   -574699.198    21859930.385          35.282  
     -2627.655    24788916.491          23.220  
 17 11 13  6 22 30.9998359  0  8G 5G13G15G18G20G21G24G28
   1475632.8661   21828551.106          22.864  
   1113045.209    20983094.404          42.361  
   -296377.474    20515666.097          44.248  
  -2174472.115    24331989.013          37.640  
   -710057.787    20070994.440          40.631  
  -1337908.918    22947272.534          43.178  
   -577785.659    21859347.290          34.744  
     -2826.157    24788899.101          23.561  
 17 11 13  6 22 31.9998359  0  8G 5G13G15G18G20G21G24G28
   1477692.736    21828952.828          23.086  
   1114597.585    20983390.002          42.361  
   -296640.992    20515613.637          44.176  
  -2177332.473    24331445.190          37.681  
   -710822.055    20070851.139          40.868  
  -1339480.050    22946975.440          43.271  
   -580871.663    21858760.893          34.939  
     -3024.183    24788847.536          23.580  
 17 11 13  6 22 32.9998359  0  8G 5G13G15G18G20G21G24G28
   1479752.8231   21829367.742          22.217  
   1116150.192    20983685.596          42.146  
   -296904.164    20515560.270          43.927  
  -2180192.800    24330904.364          37.569  
   -711585.773    20070704.238          40.819  
  -1341050.647    22946675.946          43.180  
   -583957.330    21858173.601          34.707  
     -3221.680    24788821.753          23.579  
 17 11 13  6 22 33.9998359  0  8G 5G13G15G18G20G21G24G28
   1481813.204    21829774.559          23.611  
   1117703.026    20983984.488          42.298  
   -297167.028    20515509.909          43.872  
  -2183053.247    24330353.348          37.727  
   -712349.166    20070558.839          40.978  
  -1342620.812    22946380.649          43.466  
   -587042.631    21857589.006          34.963  
     -3418.806    24788773.787          23.416  
 17 11 13  6 22 34.9998359  0  8G 5G13G15G18G20G21G24G28
   1483873.848    21830191.274          25.054  
   1119256.060    20984278.886          41.915  
   -297429.652    20515463.439          44.513  
  -2185913.616    24329809.224          37.249  
   -713112.089    20070411.044          40.709  
  -1344190.553    22946082.058          43.238  
   -590127.502    21857002.910          33.488  
     -3615.5011   24788754.300          22.830  
 17 11 13  6 22 35.9998359  0  8G 5G13G15G18G20G21G24G28
   1485934.959    21830610.380          24.374  
   1120809.309    20984574.179          42.048  
   -297691.936    20515414.574          44.808  
  -2188774.108    24329260.004          37.116  
   -713874.533    20070268.943          40.409  
  -1345759.756    22945781.365          44.168  
   -593212.034    21856409.620          31.741  
     -3811.6251   24788694.044          23.063  
 17 11 13  6 22 36.9998359  0  8G 5G13G15G18G20G21G24G28
   1487996.287    21830990.817          25.717  
   1122362.709    20984874.571          42.235  
   -297954.056    20515364.509          44.617  
  -2191634.820    24328718.877          36.565  
   -714636.725    20070122.042          40.588  
  -1347328.632    22945481.871          43.412  
   -596296.398    21855834.919          33.495  
     -4007.4851   24788655.968          22.239  
 17 11 13  6 22 37.9998359  0  8G 5G13G15G18G20G21G24G28
   1490057.931    21831359.863          26.349  
   1123916.315    20985167.469          42.123  
   -298215.823    20515311.147          44.056  
  -2194495.490    24328168.458          37.468  
   -715398.444    20069978.143          41.332  
  -1348897.023    22945185.379          43.454  
   -599380.344    21855240.133          34.713  
     -4202.7601   24788614.000          22.306  
 17 11 13  6 22 38.9998359  0  8G 5G13G15G18G20G21G24G28
   1492119.900    21831748.693          27.047  
   1125470.129    20985465.462          42.073  
   -298477.342    20515261.078          43.769  
  -2197356.279    24327622.838          37.367  
   -716159.779    20069834.240          41.565  
  -1350464.965    22944885.885          43.577  
   -602463.864    21854648.339          34.927  
     -4397.5831   24788560.035          21.541  
 17 11 13  6 22 39.9998359  0  8G 5G13G15G18G20G21G24G28
   1494182.101    21832146.218          26.651  
   1127024.198    20985764.955          42.145  
   -298738.553    20515207.418          43.435  
  -2200217.047    24327082.012          37.426  
   -716920.646    20069687.043          41.636  
  -1352032.458    22944583.394          43.604  
   -605547.048    21854061.349          35.093  
     -4589.1741   24788555.537          20.920  
 17 11 13  6 22 40.9998359  0  8G 5G13G15G18G20G21G24G28
   1496244.768    21832520.961          26.270  
   1128578.433    20986061.151          42.233  
   -298999.435    20515156.751          43.418  
  -2203077.943    24326534.289          37.300  
   -717681.140    20069550.037          41.837  
  -1353599.459    22944285.100          43.420  
   -608629.876    21853473.756          35.181  
     -4776.5331   24788496.778          19.745  
 17 11 13  6 22 41.9998359  0  8G 5G13G15G18G20G21G24G28
   1498307.691    21832927.176          25.001  
   1130132.987    20986352.849          42.265  
   -299260.011    20515107.585          43.112  
  -2205938.788    24325988.066          36.983  
   -718441.095    20069406.439          41.728  
  -1355165.888    22943985.009          43.323  
   -611712.230    21852895.456          34.946  
     -4965.6171   24788425.729          19.550  
 17 11 13  6 22 42.9998359  0  8G 5G13G15G18G20G21G24G28
   1500371.206    21833280.033          23.248  
   1131687.996    20986654.140          42.428  
   -299519.983    20515059.318          43.008  
  -2208799.433    24325443.345          36.982  
   -719200.433    20069260.438          41.638  
  -1356731.726    22943687.914          43.263  
   -614794.019    21852310.559          34.996  
     -5170.7321   24788408.942          18.719  
 17 11 13  6 22 43.9998359  0  8G 5G13G15G18G20G21G24G28
   1502435.0721   21833692.547          22.540  
   1133243.216    20986948.538          42.406  
   -299779.658    20515005.358          43.042  
  -2211660.109    24324906.415          36.667  
   -719959.294    20069112.342          41.555  
  -1358296.975    22943395.318          43.087  
   -617875.441    21851722.365          34.750  
     -5371.1061   24788322.599          17.147  
 17 11 13  6 22 44.9998359  0  8G 5G13G15G18G20G21G24G28
   1504499.2121   21834040.308          22.387  
   1134798.637    20987244.734          42.456  
   -300039.042    20514957.688          43.157  
  -2214520.842    24324358.395          36.721  
   -720717.712    20068970.838          41.739  
  -1359861.834    22943093.425          43.284  
   -620956.500    21851140.470          34.884  
     -5563.0481   24788275.234          18.266  
 17 11 13  6 22 45.9998359  0  8G 5G13G15G18G20G21G24G28
   1506563.7621   21834422.241          21.874  
   1136354.326    20987538.530          42.579  
   -300298.114    20514911.820          43.271  
  -2217381.572    24323810.375          36.900  
   -721475.744    20068825.740          41.747  
  -1361426.206    22942797.831          43.316  
   -624037.131    21850557.973          35.111  
     -5759.0011   24788295.320          19.891  
 17 11 13  6 22 46.9998359  0  8G 5G13G15G18G20G21G24G28
   1508627.0731   21834832.958          21.002  
   1137910.371    20987830.228          42.549  
   -300556.731    20514864.456          43.369  
  -2220242.241    24323272.250          36.514  
   -722233.123    20068684.537          41.667  
  -1362989.941    22942501.335          43.082  
   -627117.265    21849971.877          35.447  
     -5950.0401   24788223.970          20.264  
 17 11 13  6 22 47.9998362  0  8G 5G13G15G18G20G21G24G28
   1510701.0711   21835316.224          21.772  
   1139466.838    20988203.466          42.545  
   -300814.894    20514893.833          43.459  
  -2223102.679    24322805.470          36.406  
   -722989.925    20068614.387          41.702  
  -1364553.004    22942279.787          43.187  
   -630196.848    21849459.534          35.481  
     -6140.0911   24788292.619          20.292  
 17 11 13  6 22 48.9998362  0  8G 5G13G15G18G20G21G24G28
   1512767.9471   21835708.052          22.347  
   1141023.466    20988501.760          42.437  
   -301072.673    20514845.265          43.556  
  -2225963.367    24322258.048          36.381  
   -723746.307    20068472.582          41.584  
  -1366115.654    22941984.494          43.191  
   -633276.093    21848874.337          35.309  
     -6329.7811   24788231.465          18.938  
 17 11 13  6 22 49.9998362  0  8G 5G13G15G18G20G21G24G28
   1514835.6491   21836139.451          21.223  
   1142580.411    20988795.556          42.568  
   -301330.192    20514801.199          43.663  
  -2228823.938    24321715.424          36.836  
   -724502.186    20068328.984          41.662  
  -1367677.755    22941689.197          43.373  
   -636354.818    21848287.342          35.512  
     -6518.7191   24788168.208          19.773  
 17 11 13  6 22 50.9998362  0  8G 5G13G15G18G20G21G24G28
   1516896.5781   21836525.585          21.660  
   1144137.633    20989088.153          42.602  
   -301587.282    20514750.833          43.941  
  -2231684.484    24321175.497          36.863  
   -725257.652    20068184.183          41.882  
  -1369239.264    22941389.106          43.397  
   -639433.191    21847695.553          35.248  
     -6707.3181   24788128.635          19.621  
 17 11 13  6 22 51.9998362  0  8G 5G13G15G18G20G21G24G28
   1518963.2631   21836909.320          21.181  
   1145695.082    20989385.247          42.647  
   -301844.065    20514703.164          44.047  
  -2234545.063    24320631.674          36.861  
   -726012.635    20068042.980          41.893  
  -1370800.411    22941092.011          43.457  
   -642511.274    21847108.261          35.538  
     -6895.3501   24788069.575          17.811  
 17 11 13  6 22 52.9998362  0  8G 5G13G15G18G20G21G24G28
   1521030.2631   21837286.459          21.558  
   1147252.710    20989684.741          42.678  
   -302100.600    20514652.798          44.209  
  -2237405.741    24320085.753          36.861  
   -726767.203    20067897.283          41.729  
  -1372361.109    22940796.117          43.245  
   -645588.912    21846523.963          35.328  
     -7083.0351   24788084.866          18.191  
 17 11 13  6 22 53.9998362  0  8G 5G13G15G18G20G21G24G28
   1523102.6401   21837721.458          20.544  
   1148810.584    20989982.136          42.698  
   -302356.846    20514603.933          44.288  
  -2240266.419    24319538.632          36.533  
   -727521.349    20067755.780          41.639  
  -1373921.258    22940500.222          43.334  
   -648666.147    21845937.871          35.641  
     -7269.9901   24788040.795          17.659  
 17 11 13  6 22 54.9998362  0  8G 5G13G15G18G20G21G24G28
   1525168.7361   21838053.330          20.264  
   1150368.727    20990280.430          42.742  
   -302612.704    20514560.163          44.244  
  -2243127.161    24318992.108          36.624  
   -728274.969    20067608.884          41.469  
  -1375480.889    22940201.326          43.179  
   -651742.986    21845346.679          35.229  
     -7456.8111   24788001.820          18.311  
 17 11 13  6 22 55.9998362  0  8G 5G13G15G18G20G21G24G28
   1527236.9591   21838465.243          21.036  
   1151927.260    20990579.021          42.945  
   -302868.105    20514507.699          44.465  
  -2245987.734    24318453.084          36.314  
   -729028.020    20067466.481          41.526  
  -1377039.980    22939903.333          43.078  
   -654819.226    21844752.190          35.385  
     -7644.9351   24787957.453          16.343  
 17 11 13  6 22 56.9998362  0  8G 5G13G15G18G20G21G24G28
   1529305.5791   21838888.550          22.916  
   1153486.040    20990876.416          43.084  
   -303123.122    20514459.733          44.587  
  -2248848.287    24317895.471          36.244  
   -729780.575    20067324.079          41.528  
  -1378598.462    22939607.739          43.014  
   -657895.072    21844170.295          34.893  
     -7833.7351   24787912.183          14.255  
 17 11 13  6 22 57.9998362  0  8G 5G13G15G18G20G21G24G28
   1531374.539    21839292.972          24.777  
   1155044.957    20991172.913          43.246  
   -303377.968    20514412.364          44.837  
  -2251708.996    24317355.243          36.263  
   -730532.786    20067178.378          41.590  
  -1380156.618    22939310.344          42.806  
   -660970.624    21843585.398          34.863  
     -8018.1581   24787863.017          14.759  
 17 11 13  6 22 58.9998362  0  8G 5G13G15G18G20G21G24G28
   1533443.733    21839671.607          25.832  
   1156604.119    20991470.007          43.186  
   -303632.481    20514361.401          44.750  
  -2254569.735    24316809.021          36.129  
   -731284.628    20067032.381          41.418  
  -1381714.290    22939014.449          42.870  
   -664045.800    21842989.412          34.741  
     -8197.5921   24787817.450          14.990  
 17 11 13  6 22 59.9998362  0  8G 5G13G15G18G20G21G24G28
   1535513.270    21840086.822          26.280  
   1158163.459    20991769.798          43.255  
   -303886.725    20514315.232          44.847  
  -2257430.553    24316262.798          36.306  
   -732035.991    20066893.577          41.329  
  -1383271.487    22938713.158          42.765  
   -667120.634    21842410.811          34.482  
     -8377.8471   24787816.250          14.951  
 17 11 13  6 23  0.9998362  0  8G 5G13G15G18G20G21G24G28
   1537583.037    21840472.053          26.013  
   1159722.927    20992059.096          43.280  
   -304140.735    20514266.965          45.296  
  -2260291.458    24315711.481          35.816  
   -732787.083    20066745.477          40.970  
  -1384828.320    22938420.562          42.582  
   -670195.151    21841819.022          33.876  
     -8575.0901   24787784.473          14.989  
 17 11 13  6 23  1.9998362  0  8G 5G13G15G18G20G21G24G28
   1539653.171    21840886.966          25.440  
   1161282.702    20992360.091          43.771  
   -304394.386    20514217.502          45.824  
  -2263152.362    24315172.753          35.816  
   -733537.585    20066602.778          40.261  
  -1386384.598    22938123.167          43.639  
   -673269.202    21841224.833          31.485  
     -8759.2871   24787738.605          15.580  
 17 11 13  6 23  2.9998362  0  8G 5G13G15G18G20G21G24G28
   1541723.740    21841289.888          24.861  
   1162842.701    20992657.783          43.605  
   -304647.760    20514173.131          45.709  
  -2266013.313    24314627.434          34.975  
   -734287.711    20066457.976          40.499  
  -1387940.456    22937826.971          42.647  
   -676342.966    21840644.435          32.873  
     -8938.4171   24787706.226          18.696  
 17 11 13  6 23  3.9998362  0  8G 5G13G15G18G20G21G24G28
   1543794.393    21841667.026          24.012  
   1164402.791    20992958.777          43.417  
   -304900.936    20514122.765          45.375  
  -2268874.432    24314086.905          36.186  
   -735037.532    20066315.578          40.644  
  -1389495.973    22937531.975          42.593  
   -679416.324    21840066.736          32.589  
     -9123.9421   24787758.389          20.517  
 17 11 13  6 23  4.9998362  0  8G 5G13G15G18G20G21G24G28
   1545865.336    21842046.263          25.439  
   1165963.036    20993250.174          42.980  
   -305153.885    20514080.195          45.178  
  -2271735.732    24313537.087          36.035  
   -735786.976    20066175.274          40.481  
  -1391051.027    22937233.380          42.775  
   -682489.634    21839464.752          28.892  
     -9305.9821   24787753.294          21.077  
 17 11 13  6 23  5.9998362  0  8G 5G13G15G18G20G21G24G28
   1547936.247    21842414.711          27.077  
   1167523.300    20993547.866          43.635  
   -305406.701    20514031.029          45.788  
  -2274597.200    24313009.153          37.457  
   -736536.118    20066032.872          40.617  
  -1392605.788    22936935.090          44.477  
   -685562.6591   21838890.051          24.677  
     -9485.3721   24787701.729          21.705  
 17 11 13  6 23  6.9998362  0  8G 5G13G15G18G20G21G24G28
   1550007.523    21842798.742          25.620  
   1169083.785    20993843.765          44.168  
   -305659.297    20513985.161          45.884  
  -2277458.728    24312458.734          37.911  
   -737284.872    20065894.068          40.749  
  -1394160.107    22936641.294          44.649  
   -688635.2101   21838336.635          22.033  
     -9660.2161   24787690.338          21.850  
 17 11 13  6 23  7.9998362  0  8G 5G13G15G18G20G21G24G28
   1552079.346    21843194.771          24.227  
   1170644.552    20994139.659          44.150  
   -305911.495    20513935.398          45.722  
  -2280320.256    24311919.108          37.811  
   -738033.183    20065748.669          40.739  
  -1395713.947    22936346.896          44.581  
   -691707.4711   21837723.556          22.121  
     -9838.8291   24787633.376          22.839  
 17 11 13  6 23  8.9998362  0  8G 5G13G15G18G20G21G24G28
   1554151.546    21843601.588          26.632  
   1172205.567    20994438.551          43.320  
   -306163.269    20513887.728          45.893  
  -2283181.764    24311373.186          37.761  
   -738781.053    20065606.266          40.565  
  -1397267.243    22936051.599          44.493  
   -694779.085    21837156.049          24.588  
    -10018.9871   24787574.019          22.953  
 17 11 13  6 23  9.9998362  0  8G 5G13G15G18G20G21G24G28
   1556222.9141   21844007.506          22.815  
   1173766.974    20994732.648          43.086  
   -306414.641    20513839.164          45.413  
  -2286043.158    24310831.161          36.513  
   -739528.256    20065465.665          41.094  
  -1398819.885    22935752.406          42.774  
   -697850.266    21836568.757          26.825  
    -10198.5971   24787505.065          22.680  
 17 11 13  6 23 10.9998362  0  8G 5G13G15G18G20G21G24G28
   1558287.2291   21844349.870          20.530  
   1175328.797    20995024.647          42.798  
   -306665.514    20513790.596          46.347  
  -2288904.412    24310286.439          36.637  
   -740274.782    20065323.865          40.935  
  -1400371.871    22935461.310          42.193  
   -700920.846    21835983.861          32.969  
    -10377.563    24787504.166          23.553  
 17 11 13  6 23 11.9998362  0  8G 5G13G15G18G20G21G24G28
   1560351.1801   21844774.077          15.903  
   1176891.078    20995320.542          43.418  
   -306915.925    20513741.731          46.147  
  -2291765.526    24309743.515          36.331  
   -741020.765    20065183.561          41.197  
  -1401923.185    22935163.016          41.885  
   -703990.869    21835408.859          34.764  
    -10555.819    24787457.098          23.849  
 17 11 13  6 23 12.9998362  0  8G 5G13G15G18G20G21G24G28
   1562416.9281   21845169.804          15.842  
   1178453.566    20995615.834          43.355  
   -307165.952    20513691.666          46.010  
  -2294626.586    24309202.986          35.502  
   -741766.256    20065041.158          41.044  
  -1403474.019    22934865.621          41.695  
   -707060.444    21834833.857          35.816  
    -10733.582    24787452.601          23.276  
 17 11 13  6 23 13.9998362  0  8G 5G13G15G18G20G21G24G28
   1564485.2591   21845548.439          15.925  
   1180016.405    20995913.230          43.209  
   -307415.592    20513646.396          46.189  
  -2297487.580    24308655.267          35.673  
   -742511.201    20064895.161          40.933  
  -1405024.245    22934568.527          41.417  
   -710129.613    21834242.067          36.261  
    -10910.884    24787426.220          23.255  
 17 11 13  6 23 14.9998362  0  8G 5G13G15G18G20G21G24G28
   1566560.0281   21845944.764          14.545  
   1181579.472    20996206.428          43.099  
   -307664.875    20513599.930          46.257  
  -2300348.711    24308116.238          35.675  
   -743255.718    20064760.856          40.916  
  -1406573.985    22934277.426          41.428  
   -713198.374    21833668.566          36.345  
    -11087.598    24787380.051          23.165  
 17 11 13  6 23 15.9998362  0  8G 5G13G15G18G20G21G24G28
   1568634.3771   21846339.291          16.152  
   1183142.734    20996507.418          43.329  
   -307913.898    20513552.562          46.223  
  -2303209.818    24307567.019          36.403  
   -743999.769    20064614.854          41.062  
  -1408123.297    22933981.532          41.351  
   -716266.782    21833087.866          36.670  
    -11263.892    24787366.562          23.650  
 17 11 13  6 23 16.9998362  0  8G 5G13G15G18G20G21G24G28
   1570716.1651   21846727.825          14.665  
   1184706.185    20996804.513          43.349  
   -308162.657    20513504.595          46.241  
  -2306071.072    24307026.494          36.062  
   -744743.490    20064476.352          41.159  
  -1409672.199    22933688.935          41.268  
   -719334.807    21832502.970          36.836  
    -11439.690    24787275.424          23.663  
 17 11 13  6 23 17.9998362  0  8G 5G13G15G18G20G21G24G28
   1572792.0731   21847132.543          14.360  
   1186269.986    20997101.306          43.495  
   -308410.986    20513459.325          46.281  
  -2308932.139    24306479.971          36.461  
   -745486.643    20064330.350          41.234  
  -1411220.451    22933392.443          41.147  
   -722402.430    21831916.878          36.149  
    -11614.898    24787263.135          23.569  
 17 11 13  6 23 18.9998362  0  6G13G15G18G20G21G24
   1187833.893    20997399.901          43.441  
   -308659.076    20513411.359          46.125  
  -2311793.383    24305924.456          36.238  
   -746229.413    20064192.445          41.048  
  -1412768.316    22933096.247          41.024  
   -725469.740    21831335.280          36.436  
 17 11 13  6 23 19.9998362  0  6G13G15G18G20G21G24
   1189398.020    20997701.192          43.891  
   -308906.915    20513364.291          46.203  
  -2314654.814    24305385.729          36.156  
   -746971.791    20064054.540          41.031  
  -1414315.736    22932801.251          40.880  
   -728536.625    21830747.387          36.513  
 17 11 13  6 23 20.9998362  0  6G13G15G18G20G21G24
   1190962.341    20998000.686          44.204  
   -309154.466    20513314.824          46.498  
  -2317516.1401   24304844.004          34.476  
   -747713.737    20063908.543          41.087  
  -1415862.780    22932511.351          40.834  
   -731603.187    21830164.292          36.871  
 17 11 13  6 23 21.9998362  0  6G13G15G18G20G21G24
   1192526.877    20998299.879          44.164  
   -309401.705    20513268.058          45.844  
  -2320377.540    24304293.886          36.362  
   -748455.261    20063772.436          41.110  
  -1417409.279    22932214.558          40.781  
   -734669.367    21829574.300          36.471  
 17 11 13  6 23 22.9998362  0  6G13G15G18G20G21G24
   1194091.646    20998597.571          44.399  
   -309648.632    20513217.993          46.034  
  -2323238.962    24303750.063          36.152  
   -749196.383    20063627.939          41.152  
  -1418955.294    22931918.362          40.881  
   -737735.225    21828990.603          36.820  
 17 11 13  6 23 23.9998362  0  6G13G15G18G20G21G24
   1195656.579    20998898.862          44.492  
   -309895.297    20513169.726          45.920  
  -2326100.568    24303210.437          36.086  
   -749937.063    20063489.132          41.104  
  -1420500.811    22931624.566          40.700  
   -740800.610    21828401.209          36.581  
 17 11 13  6 23 24.9998362  0  7G13G15G18G20G21G24G28
   1197221.864    20999198.054          44.739  
   -310141.573    20513120.861          45.799  
  -2328962.031    24302658.818          36.214  
   -750677.192    20063351.231          41.025  
  -1422045.823    22931333.466          40.635  
   -743865.601    21827816.614          36.670  
    -12829.164    24787023.299          23.290  
 17 11 13  6 23 25.9998362  0  7G13G15G18G20G21G24G28
   1198787.438    20999496.348          44.729  
   -310387.428    20513075.590          45.510  
  -2331823.495    24302119.192          36.296  
   -751416.852    20063208.829          41.181  
  -1423590.263    22931042.370          40.274  
   -746930.048    21827228.123          36.117  
    -13000.700    24786996.020          23.452  
 17 11 13  6 23 26.9998362  0  7G13G15G18G20G21G24G28
   1200353.306    20999796.440          44.821  
   -310632.963    20513030.922          45.569  
  -2334684.897    24301570.269          36.246  
   -752156.019    20063070.924          41.097  
  -1425134.200    22930746.174          40.481  
   -749994.085    21826645.028          36.298  
    -13171.611    24786956.146          24.087  
 17 11 13  6 23 27.9998362  0  7G13G15G18G20G21G24G28
   1201919.358    21000094.136          44.851  
   -310878.156    20512980.256          45.533  
  -2337546.364    24301028.846          36.068  
   -752894.693    20062930.022          40.921  
  -1426677.691    22930454.476          40.599  
   -753057.822    21826061.030          36.370  
    -13341.970    24786916.272          24.524  
 17 11 13  6 23 28.9998364  0  7G13G15G18G20G21G24G28
   1203485.657    21000468.880          45.135  
   -311123.144    20513011.740          45.154  
  -2340407.933    24300562.973          36.085  
   -753633.053    20062865.570          41.081  
  -1428220.697    22930239.228          41.382  
   -756121.194    21825564.877          35.792  
    -13512.060    24786983.430          24.956  
 17 11 13  6 23 29.9998364  0  7G13G15G18G20G21G24G28
   1205052.155    21000768.971          45.048  
   -311367.738    20512967.971          44.360  
  -2343269.529    24300016.750          37.570  
   -754370.912    20062718.373          41.102  
  -1429763.235    22929943.630          44.093  
   -759184.053    21824974.287          35.855  
    -13681.576    24786958.546          24.673  
 17 11 13  6 23 30.9998364  0  8G 5G13G15G18G20G21G24G28
   2761403.076    21852352.532          27.409  
   1206618.551    21001065.769          45.225  
   -311612.342    20512920.301          44.198  
  -2346131.375    24299479.820          37.588  
   -755108.586    20062584.665          41.036  
  -1431305.577    22929653.132          42.951  
   -762246.895    21824400.184          36.461  
    -13850.893    24786922.572          24.563  
 17 11 13  6 23 31.9998364  0  8G 5G13G15G18G20G21G24G28
   2763482.978    21852753.655          27.611  
   1208185.081    21001361.663          45.415  
   -311856.836    20512876.235          45.893  
  -2348993.448    24298925.204          36.564  
   -755846.032    20062433.568          40.569  
  -1432847.563    22929363.532          40.811  
   -765309.557    21823822.486          36.245  
    -14019.880    24786896.789          24.303  
 17 11 13  6 23 32.9998364  0  8G 5G13G15G18G20G21G24G28
   2765563.219    21853172.766          26.126  
   1209751.736    21001660.555          44.880  
   -312101.051    20512827.967          44.582  
  -2351855.708    24298378.685          37.500  
   -756583.077    20062296.265          40.392  
  -1434389.217    22929071.538          41.555  
   -768371.956    21823244.482          33.765  
    -14188.537    24786850.620          24.886  
 17 11 13  6 23 33.9998364  0  8G 5G13G15G18G20G21G24G28
   2767643.656    21853546.009          28.234  
   1211318.627    21001956.149          45.077  
   -312344.942    20512778.199          44.522  
  -2354717.905    24297843.553          36.402  
   -757319.745    20062155.359          40.136  
  -1435930.340    22928776.542          41.442  
   -771433.877    21822656.292          33.311  
    -14356.776    24786836.534          24.487  
 17 11 13  6 23 34.9998364  0  8G 5G13G15G18G20G21G24G28
   2769724.437    21853932.138          29.993  
   1212885.752    21002255.943          44.999  
   -312588.557    20512732.633          44.378  
  -2357580.125    24297301.531          36.522  
   -758055.908    20062012.058          39.484  
  -1437470.961    22928481.546          41.623  
   -774495.363    21822075.592          32.828  
    -14524.403    24786791.861          23.248  
 17 11 13  6 23 35.9998364  0  8G 5G13G15G18G20G21G24G28
   2771805.617    21854333.860          30.041  
   1214453.140    21002552.737          45.232  
   -312831.777    20512687.964          44.298  
  -2360442.454    24296760.706          36.570  
   -758791.575    20061870.257          39.396  
  -1439011.094    22928187.449          41.483  
   -777556.522    21821496.996          32.949  
    -14691.574    24786781.670          23.213  
 17 11 13  6 23 36.9998364  0  8G 5G13G15G18G20G21G24G28
   2773887.130    21854738.282          29.102  
   1216020.814    21002850.433          45.255  
   -313074.671    20512638.798          44.211  
  -2363304.676    24296215.081          36.291  
   -759526.779    20061727.855          39.397  
  -1440550.748    22927895.751          41.048  
   -780617.200    21820912.697          33.196  
    -14858.1501   24786767.278          22.742  
 17 11 13  6 23 37.9998364  0  8G 5G13G15G18G20G21G24G28
   2775969.101    21855125.315          28.913  
   1217588.750    21003152.021          45.633  
   -313317.122    20512592.629          44.224  
  -2366166.846    24295660.168          36.009  
   -760261.426    20061595.648          39.463  
  -1442089.781    22927602.251          41.127  
   -783677.442    21820333.201          34.158  
    -15024.1851   24786671.647          22.464  
 17 11 13  6 23 38.9998364  0  8G 5G13G15G18G20G21G24G28
   2778051.473    21855519.541          28.600  
   1219157.043    21003448.818          45.707  
   -313559.216    20512545.562          44.209  
  -2369028.956    24295120.839          36.252  
   -760995.589    20061449.048          39.304  
  -1443628.300    22927303.661          41.012  
   -786737.122    21819748.903          34.386  
    -15189.7291   24786689.036          22.053  
 17 11 13  6 23 39.9998364  0  8G 5G13G15G18G20G21G24G28
   2780134.145    21855905.073          28.133  
   1220725.551    21003748.011          45.889  
   -313801.066    20512500.292          44.381  
  -2371891.140    24294570.420          36.314  
   -761729.333    20061312.946          39.295  
  -1445166.289    22927013.163          40.764  
   -789796.547    21819166.109          35.047  
    -15354.6761   24786680.638          21.500  
 17 11 13  6 23 40.9998364  0  8G 5G13G15G18G20G21G24G28
   2782217.108    21856311.593          29.496  
   1222294.259    21004046.004          45.551  
   -314042.546    20512456.823          44.530  
  -2374753.390    24294025.397          37.155  
   -762462.637    20061172.340          38.671  
  -1446703.837    22926722.062          41.897  
   -792855.552    21818587.508          35.596  
    -15519.1991   24786652.761          20.209  
 17 11 13  6 23 41.9998364  0  8G 5G13G15G18G20G21G24G28
   2784300.401    21856707.316          31.131  
   1223863.268    21004343.997          45.385  
   -314283.720    20512408.556          44.788  
  -2377615.668    24293485.470          37.438  
   -763195.440    20061024.245          37.629  
  -1448240.918    22926427.367          43.116  
   -795914.202    21817997.817          35.492  
    -15683.9281   24786622.782          19.895  
 17 11 13  6 23 42.9998364  0  8G 5G13G15G18G20G21G24G28
   2786384.046    21857110.238          30.913  
   1225432.430    21004643.190          45.482  
   -314524.599    20512363.290          44.576  
  -2380477.946    24292936.250          37.161  
   -763927.840    20060888.137          37.543  
  -1449777.472    22926131.770          42.456  
   -798972.303    21817418.016          35.569  
    -15847.5091   24786550.228          19.729  
 17 11 13  6 23 43.9998364  0  8G 5G13G15G18G20G21G24G28
   2788467.912    21857511.662          30.646  
   1227001.766    21004942.081          45.684  
   -314765.182    20512322.814          44.682  
  -2383340.265    24292391.830          36.907  
   -764659.887    20060748.736          37.731  
  -1451313.626    22925838.872          42.071  
   -802030.178    21816844.815          35.425  
    -16010.6181   24786552.331          18.456  
 17 11 13  6 23 44.9998364  0  8G 5G13G15G18G20G21G24G28
   2790552.214    21857898.695          31.409  
   1228571.475    21005235.280          45.668  
   -315005.458    20512273.051          44.818  
  -2386202.693    24291843.509          36.455  
   -765391.385    20060613.829          37.717  
  -1452849.262    22925546.576          41.936  
   -805087.572    21816255.125          34.957  
    -16173.4171   24786492.969          16.538  
 17 11 13  6 23 45.9998364  0  8G 5G13G15G18G20G21G24G28
   2792636.750    21858307.309          31.658  
   1230141.222    21005533.273          45.631  
   -315245.472    20512228.683          44.882  
  -2389065.156    24291304.480          36.395  
   -766122.572    20060476.522          38.095  
  -1454384.496    22925254.277          41.776  
   -808144.717    21815667.231          34.766  
    -16335.7651   24786461.193          15.248  
 17 11 13  6 23 46.9998364  0  8G 5G13G15G18G20G21G24G28
   2794721.501    21858700.938          32.223  
   1231711.144    21005831.266          45.670  
   -315485.314    20512183.714          44.993  
  -2391927.806    24290753.163          36.562  
   -766853.402    20060339.219          38.319  
  -1455919.396    22924962.282          41.977  
   -811201.574    21815082.636          34.580  
    -16502.5401   24786423.718          16.245  
 17 11 13  6 23 47.9998364  0  8G 5G13G15G18G20G21G24G28
   2796806.587    21859091.566          33.040  
   1233281.342    21006130.162          45.464  
   -315724.804    20512142.043          45.116  
  -2394790.308    24290219.234          36.619  
   -767583.747    20060205.511          38.681  
  -1457453.753    22924674.179          42.365  
   -814257.955    21814508.231          35.083  
    -16669.1841   24786395.837          13.808  
 17 11 13  6 23 48.9998364  0  8G 5G13G15G18G20G21G24G28
   2798891.897    21859495.089          34.012  
   1234851.607    21006428.456          45.143  
   -315964.092    20512095.874          45.458  
  -2397653.119    24289668.815          36.931  
   -768313.757    20060066.106          38.698  
  -1458987.710    22924385.478          43.114  
   -817314.097    21813922.737          35.338  
    -16826.0931   24786358.363          13.516  
 17 11 13  6 23 49.9998364  0  8G 5G13G15G18G20G21G24G28
   2800977.499    21859898.311          34.845  
   1236422.112    21006724.647          44.892  
   -316203.078    20512049.705          45.709  
  -2400515.943    24289123.491          37.362  
   -769043.358    20059931.800          38.697  
  -1460521.239    22924095.281          43.777  
   -820369.893    21813339.643          35.236  
    -16976.6801   24786205.769          14.541  
 17 11 13  6 23 50.9998364  0  8G 5G13G15G18G20G21G24G28
   2803063.483    21860289.240          35.324  
   1237992.817    21007022.344          44.862  
   -316441.726    20512008.034          45.731  
  -2403378.811    24288582.068          37.497  
   -769772.482    20059792.098          38.956  
  -1462054.259    22923802.083          43.646  
   -823425.188    21812763.742          35.700  
    -17136.6821   24786191.377          14.275  
 17 11 13  6 23 51.9998364  0  8G 5G13G15G18G20G21G24G28
   2805149.703    21860696.358          35.400  
   1239563.736    21007322.435          44.834  
   -316680.172    20511958.270          45.531  
  -2406241.756    24288038.842          37.206  
   -770501.241    20059656.593          39.144  
  -1463586.877    22923511.885          43.110  
   -826480.236    21812180.045          35.643  
    -17296.7631   24786171.593          14.924  
 17 11 13  6 23 52.9998364  0  8G 5G13G15G18G20G21G24G28
   2807236.162    21861097.477          35.849  
   1241134.708    21007621.929          45.043  
   -316918.374    20511914.501          45.440  
  -2409104.853    24287495.918          37.026  
   -771229.672    20059512.092          39.524  
  -1465119.125    22923220.489          42.876  
   -829534.991    21811602.644          36.035  
    -17451.4201   24786162.297          14.369  
 17 11 13  6 23 53.9998364  0  8G 5G13G15G18G20G21G24G28
   2809322.968    21861498.601          35.553  
   1242705.954    21007919.320          44.987  
   -317156.289    20511869.231          45.233  
  -2411967.943    24286951.794          36.685  
   -771957.641    20059376.285          39.788  
  -1466650.842    22922928.786          42.382  
   -832589.281    21811017.451          36.716  
    -17609.3041   24786105.937          14.525  
 17 11 13  6 23 54.9998364  0  8G 5G13G15G18G20G21G24G28
   2811410.056    21861886.833          35.226  
   1244277.377    21008218.517          45.130  
   -317393.902    20511828.157          45.239  
  -2414831.098    24286407.374          36.666  
   -772685.173    20059232.683          39.896  
  -1468182.090    22922632.294          42.585  
   -835643.213    21810439.748          37.398  
    -17767.8481   24786099.642          14.167  
 17 11 13  6 23 55.9998364  0  8G 5G13G15G18G20G21G24G28
   2813497.440    21862279.559          35.104  
   1245849.035    21008518.608          45.033  
   -317631.196    20511778.991          45.060  
  -2417694.331    24285859.650          36.618  
   -773412.281    20059098.378          39.763  
  -1469712.931    22922341.194          42.846  
   -838696.812    21809854.852          37.416  
    -17926.4071   24786065.465          13.746  
 17 11 13  6 23 56.9998364  0  7G 5G13G15G18G20G21G24
   2815585.129    21862669.292          35.425  
   1247420.851    21008817.199          45.142  
   -317868.314    20511733.123          45.084  
  -2420557.604    24285317.027          36.809  
   -774139.047    20058954.474          39.609  
  -1471243.335    22922049.199          43.180  
   -841750.094    21809273.855          37.219  
 17 11 13  6 23 57.9998364  0  7G 5G13G15G18G20G21G24
   2817673.159    21863065.617          35.170  
   1248992.943    21009115.794          45.012  
   -318105.003    20511690.253          45.146  
  -2423420.838    24284767.206          36.677  
   -774865.281    20058819.270          39.515  
  -1472773.207    22921758.099          43.332  
   -844802.927    21808689.260          36.789  
 17 11 13  6 23 58.9998364  0  7G 5G13G15G18G20G21G24
   2819761.467    21863452.349          34.701  
   1250565.214    21009415.288          45.171  
   -318341.447    20511644.686          44.899  
  -2426284.243    24284222.183          36.394  
   -775591.177    20058682.264          40.027  
  -1474302.632    22921466.999          42.978  
   -847855.489    21808111.562          36.964  
 17 11 13  6 23 59.9998364  0  7G 5G13G15G18G20G21G24
   2821850.137    21863849.874          33.982  
   1252137.659    21009716.579          45.436  
   -318577.663    20511598.216          45.005  
  -2429147.661    24283677.160          36.284  
   -776316.577    20058547.657          40.337  
  -1475831.591    22921175.301          43.131  
   -850907.646    21807535.661          37.216  
 17 11 13  6 24  0.9998364  0  7G 5G13G15G18G20G21G24
   2823939.202    21864264.788          33.890  
   1253710.538    21010017.268          45.417  
   -318813.302    20511550.249          44.843  
  -2432010.924    24283126.445          36.195  
   -777041.403    20058407.955          40.332  
  -1477359.937    22920880.305          42.870  
   -853959.229    21806948.365          36.833  
 17 11 13  6 24  1.9998364  0  7G 5G13G15G18G20G21G24
   2826028.750    21864673.703          33.580  
   1255283.716    21010320.060          45.513  
   -319048.598    20511504.984          44.681  
  -2434874.143    24282585.915          36.052  
   -777765.695    20058270.352          40.469  
  -1478887.723    22920590.706          42.812  
   -857010.345    21806373.363          36.650  
 17 11 13  6 24  2.9998364  0  7G 5G13G15G18G20G21G24
   2828118.561    21865074.526          33.629  
   1256857.106    21010617.154          45.497  
   -319283.588    20511461.812          44.558  
  -2437737.454    24282036.997          35.964  
   -778489.576    20058134.244          40.551  
  -1480415.052    22920299.008          42.647  
   -860061.068    21805794.766          36.479  
 17 11 13  6 24  3.9998364  0  7G 5G13G15G18G20G21G24
   2830208.673    21865483.441          33.664  
   1258430.607    21010919.344          45.565  
   -319518.355    20511415.045          44.744  
  -2440600.774    24281489.575          35.950  
   -779213.075    20057995.441          40.574  
  -1481941.918    22920007.611          42.689  
   -863111.584    21805210.768          36.351  
 17 11 13  6 24  4.9998364  0  7G 5G13G15G18G20G21G24
   2832299.233    21865869.876          33.159  
   1260004.473    21011217.337          45.233  
   -319752.693    20511369.177          44.435  
  -2443464.119    24280936.761          35.222  
   -779936.032    20057854.836          40.106  
  -1483468.125    22919717.113          42.324  
   -866161.493    21804627.674          35.949  
 17 11 13  6 24  5.9998364  0  7G 5G13G15G18G20G21G24
   2834389.933    21866257.807          32.720  
   1261578.522    21011521.926          45.535  
   -319986.851    20511326.904          44.897  
  -2446327.652    24280392.637          35.281  
   -780658.656    20057719.034          40.465  
  -1484994.114    22919424.813          42.359  
   -869211.175    21804045.177          35.305  
 17 11 13  6 24  6.9998364  0  7G 5G13G15G18G20G21G24
   2836480.831    21866663.726          32.477  
   1263152.587    21011822.022          45.471  
   -320220.760    20511284.033          45.225  
  -2449191.265    24279839.818          34.471  
   -781380.905    20057577.530          40.484  
  -1486519.617    22919137.312          42.451  
   -872260.554    21803468.975          33.075  
 17 11 13  6 24  7.9998364  0  7G 5G13G15G18G20G21G24
   2838572.138    21867053.454          31.516  
   1264726.970    21012119.413          45.295  
   -320454.371    20511242.964          45.202  
  -2452054.903    24279297.793          34.789  
   -782102.745    20057438.426          39.824  
  -1488044.643    22918854.610          42.587  
   -875309.549    21802882.582          31.841  
 17 11 13  6 24  8.9998364  0  7G 5G13G15G18G20G21G24
   2840663.771    21867445.286          31.369  
   1266301.521    21012421.306          45.334  
   -320687.668    20511192.599          45.046  
  -2454918.436    24278751.274          34.706  
   -782824.120    20057304.718          39.727  
  -1489569.242    22918560.513          42.557  
   -878358.128    21802308.178          32.201  
 17 11 13  6 24  9.9998364  0  7G 5G13G15G18G20G21G24
   2842755.743    21867847.007          30.823  
   1267876.338    21012720.800          45.271  
   -320920.688    20511150.330          45.009  
  -2457782.116    24278213.445          34.717  
   -783545.040    20057166.813          40.026  
  -1491093.358    22918269.714          42.363  
   -881406.398    21801711.293          32.445  
 17 11 13  6 24 10.9998364  0  7G 5G13G15G18G20G21G24
   2844848.225    21868254.125          28.447  
   1269451.501    21013018.492          45.166  
   -321153.248    20511106.560          44.873  
  -2460645.729    24277673.819          35.644  
   -784265.393    20057027.709          40.245  
  -1492616.837    22917984.311          42.746  
   -884454.049    21801138.686          32.836  
 17 11 13  6 24 11.9998367  0  7G 5G13G15G18G20G21G24
   2846941.026    21868723.301          27.335  
   1271026.912    21013393.231          45.533  
   -321385.407    20511140.134          46.257  
  -2463509.267    24277201.044          35.880  
   -784985.217    20056972.850          40.167  
  -1494139.700    22917772.060          42.854  
   -887501.196    21800631.740          35.005  
 17 11 13  6 24 12.9998367  0  7G 5G13G15G18G20G21G24
   2849034.239    21869129.817          28.771  
   1272602.716    21013697.222          45.813  
   -321617.175    20511092.766          46.448  
  -2466372.712    24276656.920          36.061  
   -785704.547    20056831.943          40.108  
  -1495662.042    22917487.254          43.505  
   -890547.950    21800054.338          35.559  
 17 11 13  6 24 13.9998367  0  7G 5G13G15G18G20G21G24
   2851127.710    21869525.544          28.682  
   1274178.578    21013995.516          45.575  
   -321848.768    20511048.399          46.351  
  -2469236.346    24276119.393          35.654  
   -786423.514    20056693.742          40.059  
  -1497184.072    22917196.455          43.720  
   -893594.421    21799477.835          36.152  
 17 11 13  6 24 14.9998367  0  7G 5G13G15G18G20G21G24
   2853221.564    21869920.072          28.828  
   1275754.719    21014295.307          45.694  
   -322079.970    20511004.027          46.262  
  -2472100.016    24275572.573          35.696  
   -787141.994    20056554.638          40.075  
  -1498705.489    22916907.755          43.981  
   -896640.373    21798898.039          36.078  
 17 11 13  6 24 15.9998367  0  7G 5G13G15G18G20G21G24
   2855315.669    21870305.303          28.245  
   1277331.066    21014590.604          45.552  
   -322310.926    20510956.061          46.071  
  -2474963.621    24275026.948          34.503  
   -787860.029    20056421.231          39.871  
  -1500226.496    22916623.853          44.191  
   -899686.082    21798321.239          36.213  
 17 11 13  6 24 16.9998367  0  7G 5G13G15G18G20G21G24
   2857410.039    21870726.813          27.967  
   1278907.621    21014891.594          45.548  
   -322541.561    20510911.694          45.990  
  -2477827.410    24274484.626          35.716  
   -788577.675    20056281.228          39.744  
  -1501747.020    22916333.952          44.313  
   -902731.383    21797748.933          36.330  
 17 11 13  6 24 17.9998367  0  7G 5G13G15G18G20G21G24
   2859504.948    21871113.243          28.032  
   1280484.459    21015192.287          45.463  
   -322771.849    20510867.924          46.133  
  -2480691.025    24273942.901          35.155  
   -789294.829    20056140.923          39.753  
  -1503267.000    22916044.955          44.331  
   -905776.219    21797167.038          37.040  
 17 11 13  6 24 18.9998367  0  7G 5G13G15G18G20G21G24
   2861600.030    21871496.677          27.887  
   1282061.457    21015488.483          45.238  
   -323001.856    20510824.752          46.144  
  -2483554.878    24273386.483          35.299  
   -790011.578    20056003.621          39.651  
  -1504786.593    22915757.750          44.461  
   -908820.688    21796594.732          37.211  
 17 11 13  6 24 19.9998367  0  7G 5G13G15G18G20G21G24
   2863695.262    21871910.993          27.636  
   1283638.630    21015787.675          44.944  
   -323231.685    20510787.278          46.157  
  -2486418.716    24272848.057          35.448  
   -790727.926    20055866.314          39.432  
  -1506305.708    22915460.957          44.506  
   -911864.926    21796022.129          37.889  
 17 11 13  6 24 20.9998367  0  7G 5G13G15G18G20G21G24
   2865791.009    21872295.325          27.558  
   1285216.014    21016084.168          44.821  
   -323461.128    20510744.407          46.389  
  -2489282.651    24272300.936          35.209  
   -791443.822    20055730.206          39.422  
  -1507824.353    22915176.453          44.407  
   -914908.687    21795436.334          38.196  
 17 11 13  6 24 21.9998367  0  7G 5G13G15G18G20G21G24
   2867887.024    21872691.053          27.571  
   1286793.669    21016383.962          44.815  
   -323690.219    20510702.736          46.486  
  -2492146.541    24271756.214          35.561  
   -792159.274    20055593.802          39.421  
  -1509342.443    22914882.657          44.369  
   -917952.029    21794863.732          38.468  
 17 11 13  6 24 22.9998367  0  7G 5G13G15G18G20G21G24
   2869983.401    21873087.975          27.079  
   1288371.571    21016685.253          44.343  
   -323919.018    20510664.363          46.260  
  -2495010.537    24271213.591          34.993  
   -792874.282    20055458.895          39.444  
  -1510860.147    22914593.057          43.942  
   -920994.957    21794283.032          38.473  
 17 11 13  6 24 23.9998367  0  7G 5G13G15G18G20G21G24
   2872080.045    21873488.798          26.987  
   1289949.502    21016985.345          44.541  
   -324147.629    20510618.796          46.546  
  -2497874.645    24270661.671          34.810  
   -793588.927    20055329.384          39.661  
  -1512377.434    22914307.655          44.002  
   -924037.676    21793707.131          38.869  
 17 11 13  6 24 24.9998367  0  8G 5G13G15G18G20G21G24G28
   2874176.973    21873892.622          27.144  
   1291527.748    21017289.336          44.709  
   -324375.934    20510574.128          46.509  
  -2500738.740    24270114.249          34.440  
   -794303.182    20055198.075          40.132  
  -1513894.213    22914014.159          43.894  
   -927079.984    21793129.132          39.131  
      -724.116    24785412.818          23.723  
 17 11 13  6 24 25.9998367  0  8G 5G13G15G18G20G21G24G28
   2876274.381    21874300.037          28.213  
   1293106.308    21017589.428          44.905  
   -324603.820    20510530.358          46.480  
  -2503602.750    24269572.525          33.809  
   -795016.823    20055064.969          40.276  
  -1515410.447    22913730.258          43.907  
   -930121.713    21792542.438          39.308  
      -867.369    24785391.233          24.451  
 17 11 13  6 24 26.9998367  0  8G 5G13G15G18G20G21G24G28
   2878372.010    21874698.761          29.028  
   1294685.090    21017890.117          45.030  
   -324831.436    20510483.587          46.355  
  -2506466.853    24269023.004          34.284  
   -795730.011    20054930.960          40.235  
  -1516926.188    22913440.658          44.144  
   -933163.107    21791969.233          39.261  
     -1010.276    24785345.962          24.538  
 17 11 13  6 24 27.9998367  0  8G 5G13G15G18G20G21G24G28
   2880469.804    21875093.590          28.352  
   1296263.885    21018195.609          45.062  
   -325058.862    20510440.717          46.332  
  -2509331.157    24268487.278          34.892  
   -796442.958    20054792.157          40.217  
  -1518441.577    22913153.755          44.167  
   -936204.309    21791393.634          39.385  
     -1152.814    24785321.981          25.428  
 17 11 13  6 24 28.9998367  0  8G 5G13G15G18G20G21G24G28
   2882567.976    21875501.009          27.748  
   1297842.944    21018495.700          44.940  
   -325285.992    20510396.947          46.189  
  -2512195.494    24267935.960          34.930  
   -797155.444    20054658.750          39.934  
  -1519956.497    22912863.558          44.126  
   -939245.058    21790809.038          38.958  
     -1294.947    24785281.209          25.262  
 17 11 13  6 24 29.9998367  0  8G 5G13G15G18G20G21G24G28
   2884666.415    21875904.528          26.980  
   1299422.139    21018797.890          43.815  
   -325512.860    20510351.978          45.022  
  -2515059.859    24267396.631          34.138  
   -797867.548    20054519.947          39.019  
  -1521471.003    22912576.353          42.758  
   -942285.551    21790226.240          38.088  
     -1436.447    24785293.498          23.395  
 17 11 13  6 24 30.9998367  0  8G 5G13G15G18G20G21G24G28
   2886764.530    21876284.367          28.751  
   1301000.949    21019102.178          45.764  
   -325740.046    20510307.310          46.842  
  -2517924.993    24266852.210          35.721  
   -798579.847    20054381.143          40.600  
  -1522985.616    22912287.356          44.599  
   -945326.265    21789647.342          39.744  
     -1578.379    24785225.447          25.246  
 17 11 13  6 24 31.9998367  0  8G 5G13G15G18G20G21G24G28
   2888863.122    21876700.777          29.994  
   1302580.162    21019401.973          46.431  
   -325966.836    20510269.835          47.348  
  -2520789.930    24266307.785          36.189  
   -799291.554    20054242.636          41.347  
  -1524499.694    22911997.756          45.034  
   -948366.419    21789066.944          40.315  
     -1719.568    24785199.664          25.717  
 17 11 13  6 24 32.9998367  0  8G 5G13G15G18G20G21G24G28
   2890962.540    21877100.701          30.897  
   1304160.080    21019702.065          46.643  
   -326192.741    20510224.569          47.464  
  -2523654.457    24265765.760          35.825  
   -800002.335    20054106.830          41.322  
  -1526012.730    22911707.258          45.058  
   -951405.723    21788485.947          40.219  
     -1859.787    24785170.287          26.465  
 17 11 13  6 24 33.9998367  0  8G 5G13G15G18G20G21G24G28
   2893062.809    21877500.324          30.851  
   1305740.711    21020005.153          46.533  
   -326417.829    20510186.493          47.309  
  -2526518.359    24265212.343          34.896  
   -800712.087    20053971.325          41.172  
  -1527524.732    22911422.754          44.805  
   -954443.993    21787914.540          39.917  
     -1998.987    24785142.702          25.826  
 17 11 13  6 24 34.9998367  0  8G 5G13G15G18G20G21G24G28
   2895163.846    21877901.744          30.559  
   1307322.070    21020305.545          46.319  
   -326642.147    20510140.625          47.104  
  -2529382.032    24264667.321          34.395  
   -801421.001    20053837.918          41.042  
  -1529035.838    22911129.556          44.694  
   -957481.537    21787332.946          39.561  
     -2137.261    24785093.536          24.720  
 17 11 13  6 24 35.9998367  0  8G 5G13G15G18G20G21G24G28
   2897265.529    21878298.671          30.739  
   1308903.879    21020606.239          46.568  
   -326865.898    20510102.252          47.328  
  -2532245.310    24264121.098          34.353  
   -802129.158    20053705.410          41.328  
  -1530546.151    22910841.754          44.911  
   -960518.415    21786759.139          39.852  
     -2274.729    24785079.148          23.869  
 17 11 13  6 24 36.9998367  0  8G 5G13G15G18G20G21G24G28
   2899367.860    21878709.384          32.254  
   1310486.360    21020907.229          46.715  
   -327088.939    20510054.884          47.302  
  -2535108.249    24263574.579          34.542  
   -802836.455    20053573.499          41.507  
  -1532055.553    22910552.756          45.090  
   -963554.372    21786177.244          39.839  
     -2411.534    24785017.091          24.087  
 17 11 13  6 24 37.9998367  0  8G 5G13G15G18G20G21G24G28
   2901470.781    21879106.010          32.565  
   1312069.319    21021207.320          46.634  
   -327311.468    20510011.415          47.453  
  -2537971.016    24263028.654          34.422  
   -803543.101    20053437.693          41.538  
  -1533564.291    22910265.853          45.110  
   -966589.863    21785598.643          39.632  
     -2547.343    24784996.107          23.050  
 17 11 13  6 24 38.9998367  0  8G 5G13G15G18G20G21G24G28
   2903574.227    21879509.830          31.819  
   1313652.601    21021505.915          46.454  
   -327533.500    20509964.649          46.955  
  -2540833.642    24262495.624          34.958  
   -804249.110    20053307.287          41.614  
  -1535072.368    22909978.954          44.959  
   -969624.738    21785017.948          39.476  
     -2682.5141   24784950.536          22.304  
 17 11 13  6 24 39.9998367  0  8G 5G13G15G18G20G21G24G28
   2905677.918    21879910.356          32.878  
   1315236.122    21021801.509          45.465  
   -327755.184    20509926.572          46.292  
  -2543696.371    24261935.611          36.153  
   -804954.702    20053169.980          41.583  
  -1536580.015    22909691.749          46.374  
   -972659.332    21784442.344          38.666  
     -2817.5061   24784916.962          21.515  
 17 11 13  6 24 40.9998367  0  8G 5G13G15G18G20G21G24G28
   2907782.030    21880313.875          32.295  
   1316819.747    21022102.800          45.438  
   -327976.709    20509882.205          46.886  
  -2546559.136    24261394.785          36.433  
   -805659.937    20053028.777          41.547  
  -1538087.246    22909403.350          46.201  
   -975693.500    21783861.649          37.545  
     -2952.0511   24784861.797          19.463  
 17 11 13  6 24 41.9998367  0  8G 5G13G15G18G20G21G24G28
   2909886.169    21880711.099          31.738  
   1318403.535    21022400.496          44.896  
   -328198.039    20509844.430          46.462  
  -2549422.114    24260852.764          34.420  
   -806364.871    20052895.672          40.912  
  -1539594.079    22909115.251          45.689  
   -978727.438    21783292.043          37.476  
     -3093.8331   24784834.815          17.918  
 17 11 13  6 24 42.9998367  0  8G 5G13G15G18G20G21G24G28
   2911990.389    21881110.124          31.237  
   1319987.257    21022701.788          44.601  
   -328419.272    20509804.857          45.476  
  -2552285.384    24260305.041          35.265  
   -807069.572    20052760.764          39.741  
  -1541100.747    22908826.550          46.187  
   -981761.187    21782719.737          34.997  
     -3228.2721   24784812.631          17.101  
 17 11 13  6 24 43.9998367  0  8G 5G13G15G18G20G21G24G28
   2914094.767    21881498.653          30.093  
   1321570.896    21023003.079          43.867  
   -328640.527    20509764.686          44.432  
  -2555148.966    24259764.817          34.861  
   -807774.130    20052624.360          38.766  
  -1542607.129    22908539.651          45.722  
   -984794.805    21782127.350          33.902  
     -3361.7951   24784783.852          17.748  
 17 11 13  6 24 44.9998367  0  8G 5G13G15G18G20G21G24G28
   2916198.715    21881909.671          29.207  
   1323154.239    21023309.766          42.883  
   -328862.049    20509724.215          42.861  
  -2558013.096    24259211.100          33.844  
   -808478.839    20052488.554          37.315  
  -1544113.709    22908255.444          44.745  
   -987828.726    21781558.342          32.864  
     -3492.2021   24784788.947          17.758  
 17 11 13  6 24 45.9998367  0  8G 5G13G15G18G20G21G24G28
   2918302.056    21882284.410          27.895  
   1324736.637    21023611.956          42.540  
   -329084.422    20509679.547          43.184  
  -2560878.363    24258659.180          32.515  
   -809184.217    20052355.744          38.122  
  -1545620.876    22907972.741          43.844  
   -990863.321    21780983.937          30.087  
     -3628.1381   24784736.483          19.455  
 17 11 13  6 24 46.9998367  0  8G 5G13G15G18G20G21G24G28
   2920403.9301   21882672.643          24.881  
   1326317.369    21023911.450          41.113  
   -329308.325    20509634.578          42.369  
  -2563745.489    24258113.259          31.560  
   -809890.977    20052223.236          36.935  
  -1547129.438    22907682.544          41.153  
   -993899.260    21780389.749          28.731  
     -3766.4381   24784701.408          17.793  
 17 11 13  6 24 47.9998367  0  8G 5G13G15G18G20G21G24G28
   2922503.8561   21883052.477          22.268  
   1327895.302    21024216.637          43.555  
   -329535.073    20509592.605          44.388  
  -2566615.818    24257583.226          31.808  
   -810600.418    20052089.528          38.270  
  -1548640.547    22907394.742          44.105  
   -996937.958    21779820.745          31.689  
     -3904.9071   24784701.408          19.497  
 17 11 13  6 24 48.9998367  0  8G 5G13G15G18G20G21G24G28
   2924602.1551   21883427.517          21.633  
   1329472.532    21024516.732          43.813  
   -329762.247    20509550.337          45.033  
  -2569487.098    24257029.509          31.895  
   -811310.320    20051951.322          38.692  
  -1550152.096    22907107.241          44.666  
   -999977.212    21779247.540          33.266  
     -4043.8391   24784654.340          19.955  
 17 11 13  6 24 49.9998367  0  8G 5G13G15G18G20G21G24G28
   2926702.1081   21883868.214          22.420  
   1331050.229    21024817.722          44.168  
   -329988.917    20509501.467          45.192  
  -2572358.137    24256489.285          32.002  
   -812019.508    20051818.814          38.841  
  -1551662.972    22906823.636          44.831  
  -1003015.799    21778656.951          33.871  
     -4181.7851   24784628.558          22.132  
 17 11 13  6 24 50.9998369  0  8G 5G13G15G18G20G21G24G28
   2928802.910    21884351.179          23.548  
   1332629.678    21025195.459          44.424  
   -330213.792    20509535.343          45.429  
  -2575227.594    24256027.600          32.346  
   -812726.712    20051761.255          39.311  
  -1553171.742    22906611.982          45.206  
  -1006052.424    21778161.391          33.976  
     -4317.6911   24784671.428          21.558  
 17 11 13  6 24 51.9998369  0  8G 5G13G15G18G20G21G24G28
   2930905.619    21884749.904          23.609  
   1334210.935    21025497.653          44.395  
   -330436.735    20509494.871          45.601  
  -2578095.631    24255479.580          32.423  
   -813431.884    20051628.746          39.497  
  -1554678.497    22906326.579          45.087  
  -1009087.124    21777591.188          33.919  
     -4451.6941   24784635.154          20.145  
 17 11 13  6 24 52.9998369  0  8G 5G13G15G18G20G21G24G28
   2933009.4911   21885148.327          22.710  
   1335793.284    21025798.045          44.110  
   -330658.533    20509452.301          45.324  
  -2580962.805    24254941.455          31.638  
   -814135.743    20051501.635          39.296  
  -1556183.848    22906040.880          45.060  
  -1012120.599    21777004.494          34.385  
     -4584.4331   24784626.459          20.433  
 17 11 13  6 24 53.9998369  0  8G 5G13G15G18G20G21G24G28
   2935114.202    21885537.759          23.599  
   1337376.415    21026100.532          44.192  
   -330879.514    20509413.331          45.315  
  -2583829.486    24254397.331          31.736  
   -814838.643    20051365.231          39.201  
  -1557688.227    22905756.673          44.994  
  -1015153.011    21776440.586          34.773  
     -4715.9621   24784603.678          21.591  
 17 11 13  6 24 54.9998369  0  8G 5G13G15G18G20G21G24G28
   2937219.866    21885948.472          24.320  
   1338960.283    21026401.526          44.444  
   -331099.615    20509372.855          45.586  
  -2586695.614    24253845.115          31.463  
   -815540.559    20051236.016          39.434  
  -1559191.648    22905470.672          45.164  
  -1018184.606    21775862.285          35.004  
     -4850.5431   24784594.983          21.064  
 17 11 13  6 24 55.9998369  0  8G 5G13G15G18G20G21G24G28
   2939326.291    21886337.904          25.926  
   1340544.781    21026703.415          44.570  
   -331319.002    20509331.485          45.515  
  -2589561.403    24253307.286          31.003  
   -816241.621    20051102.910          39.218  
  -1560694.145    22905185.270          45.108  
  -1021215.354    21775283.985          35.352  
     -4982.2471   24784556.309          20.406  
 17 11 13  6 24 56.9998369  0  8G 5G13G15G18G20G21G24G28
   2941433.306    21886743.224          28.455  
   1342129.804    21027002.908          44.799  
   -331537.804    20509290.712          45.451  
  -2592426.877    24252769.758          30.832  
   -816941.915    20050965.006          39.321  
  -1562195.783    22904896.569          45.206  
  -1024245.417    21774705.685          36.100  
     -5111.1811   24784517.936          19.782  
 17 11 13  6 24 57.9998369  0  8G 5G13G15G18G20G21G24G28
   2943541.018    21887146.146          28.660  
   1343715.429    21027302.703          44.808  
   -331755.936    20509245.743          45.282  
  -2595292.054    24252213.641          30.332  
   -817641.434    20050837.296          39.155  
  -1563696.628    22904611.768          45.295  
  -1027274.722    21774130.382          36.358  
     -5239.3751   24784501.446          19.424  
 17 11 13  6 24 58.9998369  0  8G 5G13G15G18G20G21G24G28
   2945649.276    21887561.055          30.292  
   1345301.557    21027606.093          44.643  
   -331973.466    20509205.874          45.289  
  -2598157.065    24251667.122          29.919  
   -818340.210    20050696.093          39.047  
  -1565196.746    22904329.363          45.397  
  -1030303.408    21773558.979          36.301  
     -5369.7661   24784495.753          18.832  
 17 11 13  6 24 59.9998369  0  8G 5G13G15G18G20G21G24G28
   2947758.101    21887960.080          29.975  
   1346888.066    21027904.984          44.449  
   -332190.451    20509158.505          45.401  
  -2601021.714    24251109.505          28.600  
   -819038.341    20050565.082          39.245  
  -1566696.113    22904043.659          45.555  
  -1033331.560    21772983.078          36.059  
     -5496.4341   24784456.778          18.155  
 17 11 13  6 25  0.9998369  0  8G 5G13G15G18G20G21G24G28
   2949867.393    21888368.097          29.748  
   1348475.045    21028206.275          44.336  
   -332407.007    20509117.135          45.416  
  -2603886.337    24250577.675          28.172  
   -819735.856    20050436.770          39.134  
  -1568194.897    22903760.656          45.475  
  -1036358.996    21772405.376          35.801  
     -5622.3111   24784446.286          19.639  
 17 11 13  6 25  1.9998369  0  8G 5G13G15G18G20G21G24G28
   2951977.243    21888773.418          30.549  
   1350062.353    21028502.471          44.047  
   -332623.009    20509076.664          45.361  
  -2606750.754    24250015.263          28.545  
   -820432.721    20050303.062          39.210  
  -1569692.933    22903473.757          45.553  
  -1039385.972    21771829.178          35.013  
     -5747.6081   24784427.697          19.728  
 17 11 13  6 25  2.9998369  0  8G 5G13G15G18G20G21G24G28
   2954087.412    21889186.831          30.820  
   1351649.973    21028801.066          43.870  
   -332838.700    20509035.289          45.595  
  -2609615.272    24249469.643          28.314  
   -821129.125    20050173.254          39.211  
  -1571190.530    22903186.853          45.518  
  -1042412.453    21771248.779          34.723  
     -5872.6321   24784418.706          20.254  
 17 11 13  6 25  3.9998369  0  8G 5G13G15G18G20G21G24G28
   2956197.933    21889579.858          30.891  
   1353237.779    21029101.158          43.164  
   -333054.115    20508993.919          45.087  
  -2612479.738    24248912.928          27.186  
   -821825.109    20050034.752          38.453  
  -1572687.620    22902901.451          45.131  
  -1045438.533    21770679.174          34.190  
     -5996.8881   24784394.720          21.265  
 17 11 13  6 25  4.9998369  0  8G 5G13G15G18G20G21G24G28
   2958308.586    21889990.274          31.250  
   1354825.637    21029400.647          42.906  
   -333269.328    20508956.144          45.162  
  -2615344.398    24248360.110          26.689  
   -822520.774    20049905.839          38.406  
  -1574184.313    22902619.346          44.960  
  -1048464.412    21770098.474          34.071  
     -6120.8551   24784355.750          22.530  
 17 11 13  6 25  5.9998369  0  8G 5G13G15G18G20G21G24G28
   2960419.395    21890387.798          32.118  
   1356413.581    21029704.939          43.279  
   -333484.412    20508919.869          45.563  
  -2618209.374    24247816.884          26.576  
   -823216.213    20049771.232          38.532  
  -1575680.810    22902331.845          45.340  
  -1051490.060    21769524.371          34.312  
     -6244.5991   24784344.355          22.891  
 17 11 13  6 25  6.9998369  0  8G 5G13G15G18G20G21G24G28
   2962530.389    21890798.214          32.393  
   1358001.506    21030005.629          43.332  
   -333699.363    20508879.097          45.386  
  -2621074.473    24247259.271          26.240  
   -823911.350    20049640.521          38.516  
  -1577176.911    22902047.341          45.076  
  -1054515.521    21768947.571          34.683  
     -6367.994    24784323.672          23.994  
 17 11 13  6 25  7.9998369  0  8G 5G13G15G18G20G21G24G28
   2964641.530    21891199.037          32.755  
   1359589.581    21030309.921          43.510  
   -333914.166    20508838.926          45.337  
  -2623939.548    24246705.855          26.133  
   -824606.172    20049508.314          38.559  
  -1578672.736    22901762.540          45.164  
  -1057540.645    21768372.268          34.845  
     -6491.107    24784338.361          23.901  
 17 11 13  6 25  8.9998369  0  8G 5G13G15G18G20G21G24G28
   2966753.063    21891588.770          32.439  
   1361177.885    21030613.607          43.820  
   -334128.659    20508792.461          45.271  
  -2626804.939    24246167.725          24.210  
   -825300.533    20049377.904          38.863  
  -1580168.038    22901474.437          44.994  
  -1060565.401    21767796.668          34.325  
     -6613.623    24784328.466          24.531  
 17 11 13  6 25  9.9998369  0  8G 5G13G15G18G20G21G24G28
   2968865.085    21892000.984          32.594  
   1362766.618    21030919.396          44.065  
   -334342.635    20508749.590          45.027  
  -2629670.5571   24245624.505          23.640  
   -825994.275    20049245.095          38.712  
  -1581662.638    22901194.431          45.164  
  -1063589.533    21767206.676          34.321  
     -6735.598    24784295.791          25.431  
 17 11 13  6 25 10.9998369  0  8G 5G13G15G18G20G21G24G28
   2970977.531    21892406.304          32.147  
   1364355.627    21031224.888          44.237  
   -334556.247    20508708.215          44.622  
  -2632535.538    24245076.781          23.891  
   -826687.453    20049107.190          38.505  
  -1583156.620    22900909.033          45.045  
  -1066613.183    21766643.065          34.247  
     -6856.917    24784296.388          25.330  
 17 11 13  6 25 11.9998369  0  8G 5G13G15G18G20G21G24G28
   2973090.327    21892799.030          31.776  
   1365944.934    21031528.278          44.414  
   -334769.440    20508666.248          44.513  
  -2635400.5671   24244524.565          22.789  
   -827380.153    20048980.981          38.591  
  -1584650.167    22900628.425          45.176  
  -1069636.420    21766057.571          33.937  
     -6977.716    24784252.920          25.112  
 17 11 13  6 25 12.9998369  0  8G 5G13G15G18G20G21G24G28
   2975203.570    21893200.154          31.938  
   1367534.563    21031833.766          44.394  
   -334982.300    20508622.177          44.343  
  -2638265.6761   24244008.924          22.371  
   -828072.300    20048844.573          38.589  
  -1586143.093    22900340.623          45.290  
  -1072659.185    21765487.067          33.414  
     -7097.933    24784244.225          25.683  
 17 11 13  6 25 13.9998369  0  8G 5G13G15G18G20G21G24G28
   2977317.136    21893587.784          32.506  
   1369124.401    21032138.652          44.753  
   -335194.732    20508583.503          44.315  
  -2641130.696    24243451.010          23.996  
   -828763.959    20048718.962          38.790  
  -1587635.513    22900060.320          45.273  
  -1075681.422    21764904.269          34.038  
     -7217.526    24784221.143          25.462  
 17 11 13  6 25 14.9998369  0  8G 5G13G15G18G20G21G24G28
   2979430.934    21894002.999          32.650  
   1370714.377    21032440.545          44.811  
   -335407.056    20508544.231          44.062  
  -2643995.7211   24242895.491          22.468  
   -829455.332    20048580.455          38.581  
  -1589127.528    22899776.714          45.191  
  -1078703.479    21764336.465          34.122  
     -7337.011    24784198.056          25.338  
 17 11 13  6 25 15.9998369  0  8G 5G13G15G18G20G21G24G28
   2981545.205    21894396.026          33.199  
   1372304.704    21032745.134          45.043  
   -335618.980    20508503.158          44.035  
  -2646860.8061   24242336.081          21.747  
   -830146.096    20048456.044          38.843  
  -1590618.990    22899492.812          45.213  
  -1081725.043    21763755.464          34.635  
     -7455.696    24784170.476          24.885  
 17 11 13  6 25 16.9998369  0  8G 5G13G15G18G20G21G24G28
   2983659.678    21894796.247          33.563  
   1373895.145    21033047.023          44.970  
   -335830.597    20508466.582          43.793  
  -2649724.9151   24241800.049          20.753  
   -830836.511    20048319.636          38.642  
  -1592110.028    22899209.207          45.279  
  -1084746.246    21763183.760          34.741  
     -7574.106    24784168.378          25.066  
 17 11 13  6 25 17.9998369  0  8G 5G13G15G18G20G21G24G28
   2985774.394    21895202.466          34.338  
   1375485.758    21033351.315          45.115  
   -336042.013    20508427.310          43.691  
  -2652590.1851   24241243.636          21.616  
   -831526.565    20048186.229          38.631  
  -1593600.668    22898924.703          45.216  
  -1087767.121    21762599.767          35.087  
     -7691.994    24784126.105          25.357  
 17 11 13  6 25 18.9998369  0  8G 5G13G15G18G20G21G24G28
   2987889.557    21895605.688          35.292  
   1377076.705    21033652.606          45.284  
   -336252.994    20508388.340          43.551  
  -2655455.3361   24240698.914          19.642  
   -832216.064    20048053.424          38.878  
  -1595090.658    22898636.905          45.359  
  -1090787.555    21762037.957          35.701  
     -7809.345    24784106.321          25.961  
 17 11 13  6 25 19.9998369  0  8G 5G13G15G18G20G21G24G28
   2990005.209    21896001.416          34.800  
   1378667.957    21033955.394          45.064  
   -336463.565    20508345.469          43.222  
  -2658320.4541   24240165.282          20.036  
   -832904.950    20047926.910          38.560  
  -1596580.073    22898358.095          44.952  
  -1093807.446    21761461.454          35.436  
     -7926.027    24784073.043          25.255  
 17 11 13  6 25 20.9998369  0  8G 5G13G15G18G20G21G24G28
   2992121.080    21896402.535          34.370  
   1380259.431    21034257.884          45.283  
   -336673.862    20508307.393          43.227  
  -2661185.5301   24239613.367          20.543  
   -833593.494    20047793.503          38.424  
  -1598069.118    22898074.795          45.243  
  -1096827.008    21760890.649          35.982  
     -8042.386    24784054.454          24.683  
 17 11 13  6 25 21.9998369  0  8G 5G13G15G18G20G21G24G28
   2994237.379    21896804.859          34.541  
   1381851.104    21034556.179          45.002  
   -336883.818    20508262.724          43.012  
  -2664050.7661   24239051.256          21.032  
   -834281.502    20047661.592          38.320  
  -1599557.525    22897788.790          45.272  
  -1099846.065    21760318.644          36.434  
     -8158.241    24784034.072          24.586  
 17 11 13  6 25 22.9998369  0  8G 5G13G15G18G20G21G24G28
   2996353.942    21897209.577          34.126  
   1383443.036    21034856.274          44.960  
   -337093.469    20508222.855          42.988  
  -2666915.9941   24238536.811          20.462  
   -834969.081    20047528.185          38.252  
  -1601045.504    22897503.387          45.455  
  -1102864.815    21759748.741          36.651  
     -8273.467    24784010.986          25.219  
 17 11 13  6 25 23.9998369  0  8G 5G13G15G18G20G21G24G28
   2998470.742    21897602.905          33.643  
   1385035.085    21035156.963          44.556  
   -337302.979    20508181.184          43.018  
  -2669781.3581   24238005.277          19.262  
   -835656.328    20047400.471          37.941  
  -1602533.123    22897219.184          45.343  
  -1105883.235    21759174.939          36.453  
     -8388.456    24783988.501          25.313  
 17 11 13  6 25 24.9998369  0  8G 5G13G15G18G20G21G24G28
   3000587.745    21898007.925          33.896  
   1386627.313    21035456.758          44.523  
   -337512.231    20508144.307          43.298  
  -2672647.2861   24237449.762          18.199  
   -836343.224    20047262.868          37.857  
  -1604020.370    22896940.077          45.387  
  -1108901.376    21758602.633          36.345  
     -8503.004    24783992.999          25.670  
 17 11 13  6 25 25.9998369  0  8G 5G13G15G18G20G21G24G28
   3002704.968    21898409.345          33.681  
   1388219.672    21035760.444          44.338  
   -337721.332    20508105.934          43.128  
  -2675505.2471   24236903.239          17.527  
   -837029.795    20047129.762          37.375  
  -1605507.243    22896651.978          45.396  
  -1111919.270    21758026.732          36.312  
     -8617.235    24783943.235          25.895  
 17 11 13  6 25 26.9998369  0  8G 5G13G15G18G20G21G24G28
   3004822.622    21898815.865          34.449  
   1389812.249    21036064.436          44.422  
   -337930.007    20508062.762          42.877  
  -2678362.7791   24236385.199          17.052  
   -837715.858    20047002.349          37.842  
  -1606993.552    22896372.871          45.269  
  -1114936.679    21757449.029          36.739  
     -8730.839    24783945.931          26.159  
 17 11 13  6 25 27.9998369  0  8G 5G13G15G18G20G21G24G28
   3006940.555    21899223.882          35.449  
   1391405.060    21036366.329          44.510  
   -338138.421    20508028.289          42.928  
  -2681222.3341   24235810.498          17.576  
   -838401.466    20046874.038          38.302  
  -1608479.327    22896086.870          45.252  
  -1117953.710    21756876.130          36.897  
     -8844.099    24783908.457          26.348  
 17 11 13  6 25 28.9998372  0  8G 5G13G15G18G20G21G24G28
   3009058.871    21899699.051          35.837  
   1392998.172    21036747.363          44.563  
   -338346.471    20508065.162          42.871  
  -2684084.9711   24235342.819          16.450  
   -839086.583    20046824.872          38.562  
  -1609964.631    22895882.711          45.194  
  -1120970.219    21756379.069          36.764  
     -8956.739    24783989.701          26.660  
 17 11 13  6 25 29.9998372  0  8G 5G13G15G18G20G21G24G28
   3011177.489    21900110.968          35.968  
   1394591.294    21037051.054          44.574  
   -338554.266    20508022.592          42.872  
  -2686950.3021   24234770.216          17.031  
   -839771.320    20046697.760          38.801  
  -1611449.534    22895598.508          45.128  
  -1123986.456    21755804.072          36.706  
     -9068.907    24783962.121          26.586  
 17 11 13  6 25 30.9998372  0  8G 5G13G15G18G20G21G24G28
   3013296.179    21900520.485          35.953  
   1396184.544    21037355.643          44.266  
   -338761.921    20507981.519          42.634  
  -2689815.7201   24234233.587          16.510  
   -840455.789    20046572.446          38.739  
  -1612934.054    22895317.303          44.899  
  -1127002.471    21755234.165          36.479  
     -9180.906    24783951.925          27.204  
 17 11 13  6 25 31.9998372  0  8G 5G13G15G18G20G21G24G28
   3015415.345    21900929.702          36.361  
   1397778.216    21037662.627          44.622  
   -338969.196    20507941.946          42.812  
  -2692681.5821   24233679.870          16.708  
   -841139.685    20046439.937          38.859  
  -1614418.059    22895035.796          45.217  
  -1130017.993    21754649.570          36.059  
     -9292.217    24783932.438          26.934  
 17 11 13  6 25 32.9998372  0  8G 5G13G15G18G20G21G24G28
   3017534.690    21901334.721          36.340  
   1399371.874    21037968.416          44.535  
   -339176.270    20507904.471          42.702  
  -2695550.7281   24233139.947          15.661  
   -841823.291    20046313.127          38.618  
  -1615901.690    22894752.491          45.121  
  -1133033.275    21754082.961          35.792  
     -9403.283    24783906.359          26.667  
 17 11 13  6 25 33.9998372  0  8G 5G13G15G18G20G21G24G28
   3019654.392    21901744.836          36.566  
   1400965.766    21038274.205          44.695  
   -339383.046    20507861.601          42.698  
  -2698419.3981   24232595.221          16.699  
   -842506.414    20046183.615          38.914  
  -1617384.779    22894470.688          45.094  
  -1136048.137    21753500.765          35.912  
     -9513.765    24783886.871          26.565  
 17 11 13  6 25 34.9998372  0  8G 5G13G15G18G20G21G24G28
   3021774.400    21902138.164          36.428  
   1402559.910    21038578.794          44.642  
   -339589.473    20507823.830          42.810  
  -2701286.3951   24232075.082          17.123  
   -843189.124    20046049.607          38.594  
  -1618867.453    22894184.085          45.017  
  -1139062.604    21752932.058          35.897  
     -9623.740    24783868.282          26.433  
 17 11 13  6 25 35.9998372  0  8G 5G13G15G18G20G21G24G28
   3023894.555    21902549.780          36.596  
   1404154.062    21038881.586          44.623  
   -339795.768    20507782.158          43.225  
  -2704142.6291   24231532.158          15.866  
   -843871.527    20045920.396          38.275  
  -1620349.699    22893901.383          45.150  
  -1142076.842    21752351.960          35.215  
     -9733.518    24783841.003          26.373  
 17 11 13  6 25 36.9998372  0  8G 5G13G15G18G20G21G24G28
   3026015.115    21902953.299          36.678  
   1405748.493    21039188.871          44.521  
   -340001.754    20507750.979          43.096  
  -2707005.0661   24230985.936          15.483  
   -844553.406    20045782.492          37.838  
  -1621831.504    22893620.775          45.053  
  -1145090.598    21751779.057          34.415  
     -9842.670    24783826.013          25.782  
 17 11 13  6 25 37.9998372  0  8G 5G13G15G18G20G21G24G28
   3028136.026    21903347.826          36.469  
   1407343.177    21039493.159          44.432  
   -340207.358    20507711.407          43.554  
  -2709862.5381   24230457.102          15.470  
   -845234.848    20045653.282          37.885  
  -1623312.752    22893337.772          45.018  
  -1148103.963    21751202.855          33.872  
     -9951.312    24783791.837          24.895  
 17 11 13  6 25 38.9998372  0  8G 5G13G15G18G20G21G24G28
   3030257.180    21903753.448          36.723  
   1408938.033    21039794.154          44.378  
   -340412.815    20507675.433          44.108  
  -2712719.1841   24229905.785          13.117  
   -845915.937    20045526.170          38.188  
  -1624793.658    22893058.066          45.369  
  -1151117.059    21750627.552          33.619  
    -10059.645    24783783.143          24.636  
 17 11 13  6 25 39.9998372  0  8G 5G13G15G18G20G21G24G28
   3032378.544    21904151.570          36.435  
   1410532.999    21040099.044          43.994  
   -340617.941    20507640.057          43.936  
  -2715579.7621   24229347.273          13.032  
   -846596.623    20045394.264          37.802  
  -1626274.093    22892773.864          45.198  
  -1154129.763    21750053.453          33.705  
    -10167.395    24783736.376          24.333  
 17 11 13  6 25 40.9998372  0  8G 5G13G15G18G20G21G24G28
   3034500.211    21904568.583          36.535  
   1412128.093    21040402.730          43.973  
   -340822.868    20507599.882          43.996  
  -2718395.4651   24228828.631          12.414  
   -847276.960    20045270.747          37.986  
  -1627754.135    22892495.354          45.449  
  -1157142.047    21749484.746          33.633  
    -10274.925    24783722.887          23.386  
 17 11 13  6 25 41.9998372  0  8G 5G13G15G18G20G21G24G28
   3036622.177    21904962.212          37.591  
   1413723.472    21040704.021          42.189  
   -341027.506    20507553.713          44.672  
  -2721258.8761   24228266.821          12.958  
   -847956.800    20045136.742          39.022  
  -1629233.704    22892214.449          44.968  
  -1160154.158    21748907.344          32.274  
    -10381.7401   24783711.492          22.362  
 17 11 13  6 25 42.9998372  0  8G 5G13G15G18G20G21G24G28
   3038744.304    21905372.628          37.897  
   1415318.762    21041008.013          42.279  
   -341231.996    20507517.740          44.353  
  -2724127.1771   24227734.690          13.248  
   -848636.394    20045016.222          38.993  
  -1630712.943    22891934.142          45.344  
  -1163165.817    21748320.650          30.006  
    -10488.5961   24783669.520          21.491  
 17 11 13  6 25 43.9998372  0  8G 5G13G15G18G20G21G24G28
   3040866.509    21905772.547          37.913  
   1416914.156    21041309.304          42.887  
   -341436.453    20507475.471          44.171  
  -2726995.6431   24227188.467          12.388  
   -849315.802    20044881.319          38.629  
  -1632191.943    22891652.936          45.114  
  -1166177.391    21747761.537          29.611  
    -10594.8821   24783610.464          20.568  
 17 11 13  6 25 44.9998372  0  8G 5G13G15G18G20G21G24G28
   3042988.884    21906183.862          37.327  
   1418509.586    21041608.195          43.323  
   -341640.714    20507437.997          44.399  
  -2729861.9861   24226839.206           0.000  
   -849994.918    20044759.900          38.675  
  -1633670.610    22891371.433          45.107  
  -1169188.772    21747192.830          29.513  
    -10701.2091   24783584.079          20.263  
 17 11 13  6 25 45.9998372  0  7G 5G13G15G20G21G24G28
   3045111.419    21906585.287          36.652  
   1420105.062    21041911.288          43.358  
   -341844.856    20507398.424          44.339  
   -850673.742    20044628.291          38.827  
  -1635148.964    22891091.126          44.972  
  -1172199.888    21746626.823          29.708  
    -10806.8071   24783555.003          19.691  
 17 11 13  6 25 46.9998372  0  7G 5G13G15G20G21G24G28
   3047234.319    21906981.612          36.207  
   1421700.816    21042215.275          43.397  
   -342048.612    20507361.547          44.461  
   -851352.063    20044495.486          38.712  
  -1636626.790    22890809.021          44.768  
  -1175210.541    21746044.924          29.425  
    -10911.5351   24783534.316          19.728  
 17 11 13  6 25 47.9998372  0  7G 5G13G15G20G21G24G28
   3049357.696    21907382.736          36.045  
   1423296.897    21042517.766          43.596  
   -342251.998    20507321.377          44.601  
   -852029.818    20044366.572          38.883  
  -1638103.943    22890529.316          45.022  
  -1178220.745    21745471.724          29.727  
    -11005.7811   24783622.753          20.566  
 17 11 13  6 25 48.9998372  0  7G 5G13G15G20G21G24G28
   3051481.560    21907785.657          35.278  
   1424893.371    21042821.758          43.593  
   -342454.848    20507285.403          44.518  
   -852706.916    20044240.660          38.825  
  -1639580.512    22890249.310          44.884  
  -1181230.296    21744895.823          29.373  
    -11106.7121   24783519.627          20.878  
 17 11 13  6 25 49.9998372  0  7G 5G13G15G20G21G24G28
   3053605.777    21908183.478          34.293  
   1426490.139    21043125.745          43.725  
   -342657.393    20507248.526          44.710  
   -853383.577    20044109.949          39.006  
  -1641056.531    22889970.503          45.008  
  -1184239.427    21744324.415          29.615  
    -11213.5391   24783621.554          21.103  
 17 11 13  6 25 50.9998372  0  7G 5G13G15G20G21G24G28
   3055730.430    21908588.201          33.903  
   1428087.221    21043432.432          43.697  
   -342859.456    20507208.954          44.816  
   -854059.652    20043979.841          39.320  
  -1642531.935    22889691.994          45.158  
  -1187248.110    21743750.316          29.328  
    -11316.4281   24783569.090          22.279  
 17 11 13  6 25 51.9998372  0  7G 5G13G15G20G21G24G28
   3057855.473    21908985.726          33.800  
   1429684.565    21043731.625          43.768  
   -343061.203    20507172.378          44.829  
   -854735.216    20043850.630          39.407  
  -1644006.776    22889409.291          45.165  
  -1190256.254    21743189.702          29.341  
    -11418.7091   24783565.194          22.035  
 17 11 13  6 25 52.9998372  0  7G 5G13G15G20G21G24G28
   3059980.946    21909390.745          34.228  
   1431282.199    21044039.813          43.839  
   -343262.588    20507134.306          44.804  
   -855410.243    20043726.215          39.594  
  -1645481.141    22889130.485          44.950  
  -1193263.989    21742612.004          29.259  
    -11520.4721   24783527.122          22.937  
 17 11 13  6 25 53.9998372  0  7G 5G13G15G20G21G24G28
   3062106.691    21909800.860          34.250  
   1432880.044    21044345.602          43.897  
   -343463.619    20507094.432          44.633  
   -856084.876    20043597.005          39.521  
  -1646954.983    22888849.580          45.098  
  -1196271.365    21742037.002          29.683  
    -11621.7221   24783545.410          22.642  
 17 11 13  6 25 54.9998372  0  8G 5G13G15G18G20G21G24G28
   3064232.629    21910201.081          34.211  
   1434478.032    21044651.090          43.868  
   -343664.474    20507050.663          44.155  
  -2763807.5681   24221319.427          21.691  
   -856759.108    20043470.792          39.517  
  -1648428.446    22888566.873          44.893  
  -1199278.432    21741461.999          30.517  
    -11722.7141   24783471.661          22.587  
 17 11 13  6 25 55.9998372  0  8G 5G13G15G18G20G21G24G28
   3066359.026    21910618.394          34.375  
   1436076.307    21044955.082          44.048  
   -343865.023    20507014.689          43.951  
  -2766674.7541   24220771.708          22.112  
   -857432.878    20043337.987          39.498  
  -1649901.373    22888285.371          44.922  
  -1202285.030    21740884.598          31.343  
    -11823.0581   24783430.286          21.469  
 17 11 13  6 25 56.9998372  0  8G 5G13G15G18G20G21G24G28
   3068485.659    21911023.113          34.829  
   1437674.763    21045260.269          44.051  
   -344065.223    20506973.018          43.681  
  -2769542.0091   24220190.411          21.953  
   -858106.169    20043213.270          39.419  
  -1651373.779    22888005.365          45.065  
  -1205291.239    21740314.395          32.880  
    -11922.8061   24783464.462          21.144  
 17 11 13  6 25 57.9998372  0  8G 5G13G15G18G20G21G24G28
   3070612.739    21911438.027          35.595  
   1439273.498    21045567.558          44.037  
   -344265.047    20506935.544          43.771  
  -2772409.0181   24219658.280          22.103  
   -858778.983    20043082.563          39.217  
  -1652845.674    22887725.956          45.355  
  -1208296.954    21739745.387          34.688  
    -12023.3811   24783381.120          19.427  
 17 11 13  6 25 58.9998372  0  8G 5G13G15G18G20G21G24G28
   3072739.974    21911842.147          36.197  
   1440872.405    21045875.144          43.889  
   -344464.710    20506897.171          43.658  
  -2775276.3061   24219108.759          22.065  
   -859451.459    20042953.650          38.974  
  -1654317.194    22887445.051          45.395  
  -1211302.445    21739176.379          34.796  
    -12126.1011   24783375.126          17.616  
 17 11 13  6 25 59.9998372  0  8G 5G13G15G18G20G21G24G28
   3074867.729    21912253.763          36.413  
   1442471.649    21046178.835          43.984  
   -344663.870    20506858.497          43.672  
  -2778143.4741   24218543.350          22.740  
   -860123.345    20042831.935          38.983  
  -1655788.049    22887165.944          45.392  
  -1214307.346    21738620.864          34.773  
    -12231.2981   24783334.354          15.346  
 17 11 13  6 26  0.9998372  0  8G 5G13G15G18G20G21G24G28
   3076995.812    21912658.181          36.724  
   1444071.089    21046480.423          43.641  
   -344862.796    20506822.820          43.502  
  -2781010.6791   24218015.115          22.625  
   -860794.752    20042699.125          38.862  
  -1657258.469    22886886.540          45.470  
  -1217311.891    21738049.160          35.061  
    -12337.3411   24783361.035          13.150  
 17 11 13  6 26  1.9998372  0  8G 5G13G15G18G20G21G24G28
   3079124.131    21913057.804          36.686  
   1445670.640    21046786.814          43.440  
   -345061.471    20506785.049          43.536  
  -2783877.8701   24217477.290          22.184  
   -861465.793    20042574.112          38.945  
  -1658728.455    22886606.830          45.636  
  -1220315.967    21737477.155          35.246  
    -12437.5381   24783354.142          16.212  
 17 11 13  6 26  2.9998372  0  8G 5G13G15G18G20G21G24G28
   3081252.629    21913459.826          36.898  
   1447270.380    21047089.601          43.461  
   -345259.948    20506746.972          43.467  
  -2786745.4521   24216927.168          22.597  
   -862136.519    20042448.501          38.722  
  -1660198.088    22886325.925          45.808  
  -1223319.891    21736903.654          35.302  
    -12532.9921   24783340.950          15.488  
 17 11 13  6 26  3.9998372  0  8G 5G13G15G18G20G21G24G28
   3083381.470    21913868.144          36.260  
   1448870.217    21047388.497          43.595  
   -345458.097    20506708.002          43.325  
  -2789612.971    24216390.543          24.154  
   -862806.859    20042316.590          38.728  
  -1661667.203    22886047.119          45.560  
  -1226323.422    21736341.543          35.423  
    -12631.0851   24783336.753          14.985  
 17 11 13  6 26  4.9998372  0  8G 5G13G15G18G20G21G24G28
   3085510.695    21914270.467          35.999  
   1450470.387    21047694.282          43.294  
   -345655.941    20506670.226          42.932  
  -2792480.401    24215840.722          24.349  
   -863476.617    20042186.783          38.443  
  -1663135.827    22885768.011          45.378  
  -1229326.500    21735767.439          34.941  
    -12728.5671   24783323.561          14.358  
 17 11 13  6 26  5.9998372  0  8G 5G13G15G18G20G21G24G28
   3087640.071    21914669.789          35.758  
   1452070.618    21047994.674          43.105  
   -345853.623    20506630.654          43.073  
  -2795348.061    24215316.085          24.431  
   -864146.136    20042062.969          38.215  
  -1664604.090    22885488.904          45.396  
  -1232329.300    21735199.033          34.853  
    -12834.0201   24783168.271          14.534  
 17 11 13  6 26  6.9998372  0  8G 5G13G15G18G20G21G24G28
   3089769.702    21915081.104          35.442  
   1453671.030    21048302.561          43.380  
   -346051.025    20506594.078          43.197  
  -2798215.805    24214759.371          24.248  
   -864815.224    20041928.659          38.228  
  -1666071.906    22885211.297          45.573  
  -1235331.801    21734626.431          35.071  
    -12927.3651   24783148.483          15.241  
 17 11 13  6 26  7.9998374  0  8G 5G13G15G18G20G21G24G28
   3091899.648    21915551.178          34.773  
   1455271.594    21048684.499          43.472  
   -346248.187    20506633.350          43.316  
  -2801083.672    24214299.488          25.026  
   -865483.934    20041875.597          38.024  
  -1667539.338    22885005.040          45.414  
  -1238333.929    21734135.072          34.618  
    -13022.3771   24783221.032          15.418  
 17 11 13  6 26  8.9998374  0  8G 5G13G15G18G20G21G24G28
   3094029.804    21915950.801          34.305  
   1456872.271    21048984.891          43.562  
   -346445.141    20506598.576          43.339  
  -2803951.461    24213723.286          25.700  
   -866152.252    20041750.584          38.021  
  -1669006.338    22884730.430          45.309  
  -1241335.673    21733559.769          34.391  
    -13115.3291   24783203.346          15.762  
 17 11 13  6 26  9.9998374  0  8G 5G13G15G18G20G21G24G28
   3096160.490    21916360.916          34.098  
   1458473.331    21049291.579          43.331  
   -346641.593    20506561.402          43.645  
  -2806819.156    24213139.589          25.026  
   -866819.983    20041624.672          37.939  
  -1670472.692    22884448.024          44.525  
  -1244336.936    21732984.169          34.301  
    -13210.6691   24783178.763          16.245  
 17 11 13  6 26 10.9998374  0  8G 5G13G15G18G20G21G24G28
   3098291.439    21916764.138          33.857  
   1460074.669    21049595.269          43.612  
   -346837.699    20506525.424          43.495  
  -2809687.115    24212589.471          26.530  
   -867487.206    20041500.858          37.955  
  -1671938.464    22884173.114          45.304  
  -1247337.740    21732412.761          34.472  
    -13301.1811   24783152.378          16.599  
 17 11 13  6 26 11.9998374  0  8G 5G13G15G18G20G21G24G28
   3100422.891    21917165.559          33.838  
   1461676.305    21049900.155          43.717  
   -347033.443    20506487.653          43.448  
  -2812552.1361   24212083.720          24.677  
   -868153.932    20041367.748          37.860  
  -1673403.762    22883891.310          45.346  
  -1250338.065    21731820.671          33.506  
    -13394.0711   24783134.391          17.343  
 17 11 13  6 26 12.9998374  0  8G 5G13G15G18G20G21G24G28
   3102554.697    21917584.669          34.237  
   1463278.260    21050202.345          43.504  
   -347228.765    20506453.176          43.541  
  -2815415.8911   24211531.805          24.567  
   -868820.094    20041244.532          37.878  
  -1674868.418    22883615.200          45.295  
  -1253337.910    21731255.864          33.545  
    -13486.0751   24783112.208          18.000  
 17 11 13  6 26 13.9998374  0  8G 5G13G15G18G20G21G24G28
   3104686.858    21917979.197          33.849  
   1464880.387    21050513.233          43.557  
   -347423.879    20506419.598          43.507  
  -2818283.641    24210949.007          23.988  
   -869485.801    20041123.118          37.806  
  -1676332.622    22883335.193          45.487  
  -1256337.353    21730672.765          33.934  
    -13577.3551   24783057.645          19.530  
 17 11 13  6 26 14.9998374  0  8G 5G13G15G18G20G21G24G28
   3106819.278    21918380.919          33.160  
   1466482.784    21050818.119          43.267  
   -347618.591    20506381.827          43.485  
  -2821151.2021   24210372.207          22.620  
   -870151.062    20040993.908          37.899  
  -1677796.323    22883058.786          45.434  
  -1259336.378    21730101.061          33.380  
    -13668.7351   24783079.829          20.147  
 17 11 13  6 26 15.9998374  0  8G 5G13G15G18G20G21G24G28
   3108952.214    21918789.838          33.728  
   1468085.522    21051122.412          43.331  
   -347812.829    20506343.453          43.533  
  -2824019.0081   24209822.386          22.136  
   -870815.770    20040867.097          37.843  
  -1679259.421    22882780.879          45.635  
  -1262334.811    21729532.354          33.486  
    -13757.8281   24783044.754          21.214  
 17 11 13  6 26 16.9998374  0  8G 5G13G15G18G20G21G24G28
   3111085.482    21919189.160          33.497  
   1469688.425    21051427.001          43.198  
   -348006.882    20506305.678          43.396  
  -2826886.5561   24209253.382          22.554  
   -871480.029    20040739.985          37.842  
  -1680722.015    22882501.173          45.435  
  -1265333.001    21728963.050          33.798  
    -13847.9901   24783054.648          22.403  
 17 11 13  6 26 17.9998374  0  8G 5G13G15G18G20G21G24G28
   3113219.062    21919594.180          33.211  
   1471291.598    21051736.084          43.454  
   -348200.555    20506266.406          43.687  
  -2829754.1881   24208675.981          21.641  
   -872143.828    20040618.868          38.208  
  -1682184.149    22882219.967          45.525  
  -1268330.628    21728391.045          32.664  
    -13937.6391   24783080.431          22.216  
 17 11 13  6 26 18.9998374  0  8G 5G13G15G18G20G21G24G28
   3115352.997    21920000.696          33.589  
   1472895.010    21052042.475          43.241  
   -348393.908    20506227.732          43.884  
  -2832620.9131   24208124.964          21.564  
   -872807.074    20040490.255          37.776  
  -1683645.725    22881938.762          45.513  
  -1271327.895    21727819.044          32.481  
    -14026.755    24783061.842          23.132  
 17 11 13  6 26 19.9998374  0  8G 5G13G15G18G20G21G24G28
   3117487.160    21920411.112          34.714  
   1474498.541    21052344.062          43.053  
   -348587.065    20506188.160          44.078  
  -2835488.7031   24207561.950          21.448  
   -873470.037    20040367.039          37.778  
  -1685106.956    22881657.857          45.423  
  -1274324.802    21727253.932          30.985  
    -14115.6291   24783051.350          22.835  
 17 11 13  6 26 20.9998374  0  8G 5G13G15G18G20G21G24G28
   3119621.631    21920822.130          35.319  
   1476102.287    21052651.051          42.640  
   -348779.905    20506156.684          43.954  
  -2838352.8781   24207013.333          20.742  
   -874132.511    20040237.532          37.720  
  -1686567.686    22881378.448          45.127  
  -1277321.471    21726693.322          29.553  
    -14203.989    24783043.855          23.727  
 17 11 13  6 26 21.9998374  0  8G 5G13G15G18G20G21G24G28
   3121756.356    21921232.245          35.513  
   1477706.180    21052959.837          42.704  
   -348972.503    20506120.706          44.318  
  -2841220.5561   24206494.690          20.450  
   -874794.680    20040108.021          37.780  
  -1688028.014    22881099.642          44.916  
  -1280317.660    21726114.424          28.153  
    -14291.904    24783039.955          23.853  
 17 11 13  6 26 22.9998374  0  8G 5G13G15G18G20G21G24G28
   3123891.536    21921635.467          34.942  
   1479310.416    21053266.524          42.308  
   -349164.627    20506081.735          45.025  
  -2844088.0181   24205961.961          21.894  
   -875456.206    20039980.307          38.147  
  -1689487.675    22880822.934          44.217  
  -1283313.4731   21725523.830          24.568  
    -14379.171    24783017.174          23.486  
