     2.11           OBSERVATION DATA    G (GPS)             RINEX VERSION / TYPE
AndroidGNSSReceiver RITSUMEIKAN KUBOLAB 1513664694129       PGM / RUN BY / DATE
flounder                                                    MARKER NAME
GRitzLogger         KUBOLAB                                 OBSERVER / AGENCY
0                   Android Receiver                        REC # / TYPE / VERS
0                   Android Anttena                         ANT # / TYPE
        0.0000        0.0000        0.0000                  APPROX POSITION XYZ
        0.0000        0.0000        0.0000                  ANTENNA: DELTA H/E/N
1     0                                                     WAVELENGTH FACT L1/2
3         L1    C1    S1                                    # / TYPES OF OBSERV
1.000                                                       INTERVAL
  2017    12    19     6    24   33.9996887     GPS         TIME OF FIRST OBS
                                                            END OF HEADER
 17 12 19  6 24 33.9996887  0  8G10G12G18G20G21G24G25G32
    -92398.548    21738441.288          29.703  
    -89108.262    21339938.562          46.072  
    -22106.606    20565308.730          35.507  
     53982.987    22497251.975          39.807  
     83483.113    24069812.409          33.584  
     55968.5081   20518213.733          26.528  
   -116977.6871   23449526.830          33.123  
   -104550.7351   24448076.748          34.815  
 17 12 19  6 24 34.9996887  0  8G10G12G18G20G21G24G25G32
    -94751.7821   21737998.498          31.382  
    -91500.155    21339486.776          46.552  
    -22660.188    20565216.392          35.552  
     57356.459    22497897.729          39.630  
     85737.5341   24070247.111          33.209  
     57407.6631   20518502.438          29.345  
   -120737.1801   23448792.036          31.919  
   -107225.089    24447558.407          34.206  
 17 12 19  6 24 35.9996887  0  8G10G12G18G20G21G24G25G32
    -97105.5671   21737534.714          31.970  
    -93891.926    21339031.997          46.187  
    -23214.057    20565111.464          34.832  
     60729.409    22498542.279          40.895  
     87990.456    24070673.717          31.744  
     58840.1091   20518774.042          31.190  
   -124503.5711   23448085.730          32.900  
   -109900.2491   24447069.740          33.475  
 17 12 19  6 24 36.9996887  0  8G10G12G18G20G21G24G25G32
    -99458.7301   21737088.626          29.589  
    -96283.416    21338573.013          46.985  
    -23767.2101   20564997.243          33.593  
     64102.281    22499177.842          41.340  
     90242.6211   24071096.422          28.888  
     60272.8131   20519040.559          33.402  
   -128270.1391   23447362.026          32.177  
   -112575.1641   24446561.293          34.045  
 17 12 19  6 24 37.9996887  0  8G10G12G18G20G21G24G25G32
   -101805.4121   21736657.518          28.875  
    -98673.520    21338121.820          45.799  
    -24319.1131   20564891.120          35.133  
     67476.165    22499822.994          39.620  
     92501.0981   24071523.324          25.116  
     61713.4111   20519292.985          31.815  
   -132036.0431   23446650.920          33.626  
   -115249.224    24446026.766          33.507  
 17 12 19  6 24 38.9996887  0  7G10G12G18G20G24G25G32
   -104156.2441   21736209.030          30.769  
   -101061.982    21337663.743          45.738  
    -24869.884    20564783.495          36.181  
     70851.487    22500460.956          39.801  
     63155.8821   20519591.881          31.899  
   -135801.0471   23445925.419          35.848  
   -117923.126    24445535.708          35.071  
 17 12 19  6 24 39.9996887  0  7G10G12G18G20G24G25G32
   -106505.7271   21735755.150          30.145  
   -103450.480    21337211.957          42.935  
    -25420.478    20564686.062          34.069  
     74226.1661   22501107.304          38.283  
     64596.0121   20519854.498          30.953  
   -139565.2081   23445210.414          38.131  
   -120597.5241   24445025.159          33.471  
 17 12 19  6 24 40.9996887  0  7G10G12G18G20G24G25G32
   -108851.6811   21735309.358          30.830  
   -105838.941    21336758.068          46.502  
    -25970.8941   20564580.837          34.402  
     77600.5861   22501746.461          40.867  
     66036.2701   20520122.516          30.901  
   -143329.3751   23444503.209          36.758  
   -123272.1581   24444514.609          35.108  
 17 12 19  6 24 41.9996887  0  7G10G12G18G20G24G25G32
   -111200.9901   21734848.873          30.933  
   -108227.224    21336302.085          45.042  
    -26519.9951   20564474.112          34.386  
     80975.1581   22502393.114          40.585  
     67481.3351   20520381.835          29.552  
   -147094.303    23443775.308          36.566  
   -125946.336    24444018.456          34.218  
 17 12 19  6 24 42.9996887  0  8G10G12G15G18G20G24G25G32
   -113545.9291   21734402.784          31.037  
   -110615.335    21335848.493          46.536  
     13432.0001   22108997.055          42.923  
    -27065.4301   20564376.076          34.935  
     84349.6751   22503030.475          40.575  
     68929.1611   20520694.814          31.528  
   -150860.3961   23443063.304          37.156  
   -128620.454    24443500.411          33.200  
 17 12 19  6 24 43.9996887  0  8G10G12G15G18G20G24G25G32
   -115894.942    21733968.981          31.479  
   -113002.469    21335397.012          44.992  
         9.9161   22109370.899          42.473  
    -27612.1161   20564266.952          35.344  
     87724.7031   22503678.323          37.147  
     70370.409    20520937.345          30.295  
   -154626.020    23442344.102          39.985  
   -131295.015    24442984.469          32.108  
 17 12 19  6 24 44.9996887  0  8G10G12G15G18G20G24G25G32
   -118243.403    21733511.200          31.420  
   -115388.9541   21334941.622          45.301  
      1984.8631   22109748.339          42.874  
    -28160.178    20564164.126          36.184  
     91099.9461   22504317.481          38.382  
     71812.113    20521217.657          29.255  
   -158391.409    23441628.198          42.476  
   -133969.558    24442476.921          31.533  
 17 12 19  6 24 45.9996887  0  8G10G12G15G18G20G24G25G32
   -120590.5471   21733073.802          30.812  
   -117774.7731   21334488.335          44.968  
      3960.314    22110125.176          43.794  
    -28707.3661   20564060.699          36.232  
     94475.8321   22504965.634          38.709  
     73254.877    20521497.061          29.839  
   -162156.233    23440912.887          42.352  
   -136645.5861   24442024.236          29.102  
 17 12 19  6 24 46.9996887  0  8G10G12G15G18G20G24G25G32
   -122937.649    21732614.224          30.476  
   -120159.6811   21334031.454          44.573  
      5936.4201   22110501.115          43.272  
    -29253.9091   20563954.270          36.123  
     97852.9131   22505602.689          37.947  
     74697.6221   20521786.360          28.822  
   -165920.816    23440192.193          42.554  
   -139313.5431   24441504.699          27.970  
 17 12 19  6 24 47.9996887  0  8G10G12G15G18G20G24G25G32
   -125284.439    21732183.719          29.524  
   -122543.854    21333578.167          43.580  
      7912.9251   22110872.857          41.928  
    -29799.6831   20563855.039          34.586  
    101230.0931   22506241.847          36.109  
     76137.9941   20522065.764          27.316  
   -169685.125    23439484.081          39.284  
   -141981.9651   24440973.462          27.183  
 17 12 19  6 24 48.9996887  0  8G10G12G15G18G20G24G25G32
   -127631.566    21731725.336          30.463  
   -124928.274    21333126.983          45.200  
      9888.7701   22111250.296          43.790  
    -30345.7541   20563751.306          35.964  
    104606.6761   22506881.904          36.969  
     77581.2101   20522317.597          27.952  
   -173449.843    23438762.776          41.295  
   -144646.8211   24440492.299          26.525  
 17 12 19  6 24 49.9996887  0  8G10G12G15G18G20G24G25G32
   -129978.6451   21731292.135          31.319  
   -127312.3011   21332667.702          44.794  
     11864.5441   22111628.931          44.354  
    -30891.5121   20563641.885          35.364  
    107983.3711   22507530.956          38.494  
     79024.0711   20522588.904          27.933  
   -177214.684    23438044.473          41.559  
   -147327.7461   24439934.380          28.316  
 17 12 19  6 24 50.9996887  0  8G10G12G15G18G20G24G25G32
   -132326.9191   21730840.645          31.055  
   -129695.8481   21332218.908          43.375  
     13840.624    22112001.877          44.262  
    -31436.7861   20563539.958          36.565  
    111360.3621   22508175.209          38.149  
     80471.8431   20522856.023          28.525  
   -180979.361    23437328.272          42.540  
   -150007.5181   24439432.233          31.989  
 17 12 19  6 24 51.9996887  0  8G10G12G15G18G20G24G25G32
   -134669.8341   21730385.866          30.005  
   -132078.6581   21331765.927          44.740  
     15816.9401   22112377.519          43.894  
    -31980.8431   20563442.219          36.466  
    114736.8531   22508813.468          37.742  
     81924.2001   20523134.825          27.533  
   -184743.316    23436613.564          43.208  
   -152682.007    24438913.586          35.738  
 17 12 19  6 24 52.9996887  0  8G10G12G15G18G20G24G25G32
   -137016.7801   21729951.766          27.652  
   -134461.186    21331310.241          43.379  
     17793.6661   22112758.850          42.514  
    -32524.392    20563325.303          34.861  
    118114.9371   22509456.823          37.053  
     83374.9791   20523426.828          25.327  
   -188507.466    23435896.168          42.205  
   -155356.502    24438406.937          36.503  
 17 12 19  6 24 53.9996887  0  8G10G12G15G18G20G24G25G32
   -139360.8671   21729494.884          28.323  
   -136842.6261   21330858.751          43.690  
     19770.7721   22113130.592          42.935  
    -33067.671    20563233.567          35.689  
    121493.1381   22510103.179          37.728  
     84820.0041   20523684.943          25.565  
   -192271.444    23435182.960          43.324  
   -158031.624    24437890.402          38.086  
 17 12 19  6 24 54.9996887  0  8G10G12G15G18G20G24G25G32
   -141706.0401   21729061.081          28.803  
   -139224.188    21330401.564          44.959  
     21747.7061   22113514.331          43.761  
    -33610.486    20563127.444          36.497  
    124871.0641   22510738.733          38.029  
     86272.6391   20523965.255          25.820  
   -196035.639    23434464.055          43.062  
   -160706.639    24437385.549          36.543  
 17 12 19  6 24 55.9996887  0  8G10G12G15G18G20G24G25G32
   -144049.827    21728614.687          29.138  
   -141604.8711   21329952.177          42.404  
     23725.2081   22113883.971          44.503  
    -34152.4131   20563018.912          37.094  
    128249.1491   22511385.089          39.162  
     87723.9571   20524253.053          27.522  
   -199799.353    23433748.151          44.328  
   -163381.630    24436878.298          33.422  
 17 12 19  6 24 56.9996887  0  8G10G12G15G18G20G24G25G32
   -146393.7781   21728149.708          28.570  
   -143984.2831   21329494.397          42.290  
     25703.632    22114261.113          44.853  
    -34693.3511   20562917.282          36.351  
    131628.333    22512030.547          41.292  
     89174.7781   20524537.552          29.389  
   -203562.410    23433028.949          43.123  
   -166056.0691   24436376.150          33.473  
 17 12 19  6 24 57.9996887  0  8G10G12G15G18G20G24G25G32
   -148735.9641   21727726.706          28.971  
   -146364.1191   21329045.909          42.612  
     27682.7281   22114634.356          44.178  
    -35233.0931   20562818.653          36.127  
    135008.4581   22512671.502          40.217  
     90623.0341   20524813.964          29.249  
   -207324.821    23432316.945          43.624  
   -168730.0991   24435859.903          33.711  
 17 12 19  6 24 58.9996887  0  8G10G12G15G18G20G24G25G32
   -151077.0191   21727275.513          28.995  
   -148743.5821   21328592.622          44.028  
     29662.2531   22115017.188          44.572  
    -35772.2231   20562719.126          36.048  
    138389.3561   22513313.652          39.258  
     92069.5661   20525080.184          30.012  
   -211086.801    23431600.134          44.304  
   -171403.8531   24435355.051          33.940  
 17 12 19  6 24 59.9996887  0  8G10G12G15G18G20G24G25G32
   -153417.240    21726829.128          29.162  
   -151120.9901   21328142.634          43.034  
     31642.0401   22115393.432          43.519  
    -36310.5761   20562610.900          35.744  
    141769.3581   22513963.001          38.888  
     93520.2511   20525351.788          28.623  
   -214848.700    23430884.230          42.366  
   -174077.0861   24434852.598          33.997  
 17 12 19  6 25  0.9996887  0  7G10G12G15G18G20G25G32
   -155757.886    21726388.432          29.414  
   -153498.0101   21327690.542          44.110  
     33622.0731   22115765.174          43.904  
    -36848.664    20562509.566          36.594  
    145149.9101   22514601.260          37.697  
   -218610.626    23430169.530          42.565  
   -176750.965    24434332.163          36.600  
 17 12 19  6 25  1.9996887  0  7G10G12G15G18G20G25G32
   -158097.6201   21725938.739          28.783  
   -155875.4521   21327235.458          43.974  
     35604.8631   22116152.508          44.825  
    -37386.2301   20562408.242          35.909  
    148530.1921   22515252.415          37.585  
   -222372.616    23429456.026          43.368  
   -179424.901    24433823.410          33.082  
 17 12 19  6 25  2.9996887  0  7G10G12G15G18G20G25G32
   -160437.4131   21725488.751          29.015  
   -158257.2701   21326782.476          43.904  
     37584.7401   22116522.749          43.873  
    -37923.400    20562309.308          36.966  
    151911.1571   22515892.768          36.996  
   -226134.462    23428735.619          41.688  
   -182098.477    24433372.226          29.260  
 17 12 19  6 25  3.9996887  0  7G10G12G15G18G20G25G32
   -162776.936    21725043.561          29.177  
   -160635.3561   21326329.486          43.146  
     39564.6851   22116902.282          43.831  
    -38460.2951   20562197.487          36.202  
    155291.7681   22516535.826          38.953  
   -229896.261    23428025.413          36.210  
   -184773.2871   24432938.422          26.839  
 17 12 19  6 25  4.9996887  0  7G10G12G15G18G20G25G32
   -165115.8511   21724604.967          28.987  
   -163011.7191   21325878.895          44.147  
     41544.6121   22117278.221          44.483  
    -38996.7601   20562103.046          36.904  
    158672.9971   22517177.384          38.411  
   -233657.890    23427305.914          32.451  
   -187444.8571   24432449.764          25.183  
 17 12 19  6 25  5.9996887  0  7G10G12G15G18G20G25G32
   -167454.2281   21724148.679          26.954  
   -165387.4761   21325429.509          45.069  
     43518.2831   22117657.161          44.689  
    -39532.5301   20561986.426          33.690  
    162054.1451   22517819.238          37.481  
   -237419.1421   23426607.094          27.906  
   -190111.0531   24431931.423          23.820  
 17 12 19  6 25  6.9996887  0  8G10G12G15G18G20G21G25G32
   -169790.1331   21723726.279          23.194  
   -167762.186    21324978.019          46.882  
     45498.7091   22118028.301          44.291  
    -40071.6631   20561880.006          28.411  
    165435.8271   22518462.287          38.110  
        42.8121   24083962.616          32.133  
   -241173.6561   23425937.355          23.872  
   -192784.1891   24431419.076          24.131  
 17 12 19  6 25  7.9996887  0  7G12G15G18G20G21G25G32
   -170133.1911   21324526.538          43.858  
     47479.8891   22118402.146          43.557  
    -40605.0691   20561883.897          23.720  
    168817.8501   22519105.641          39.882  
      2298.959    24084399.116          38.193  
   -244928.6111   23425220.256          20.520  
   -195460.2661   24430895.037          23.411  
 17 12 19  6 25  8.9996887  0  7G12G15G18G20G21G25G32
   -172506.4471   21324072.047          43.180  
     49460.6731   22118781.680          41.722  
    -41143.9951   20561813.154          19.217  
    172201.7321   22519754.694          35.275  
      4554.887    24084820.024          37.982  
   -248679.4931   23424543.623          16.573  
   -198134.0301   24430417.468          22.668  
 17 12 19  6 25  9.9996887  0  7G12G15G18G20G21G25G32
   -174879.7221   21323624.161          37.036  
     51440.8281   22119160.620          44.554  
    -41681.8911   20561694.728          16.801  
    175586.0571   22520406.145          30.253  
      6809.794    24085248.427          40.297  
   -252429.1421   23423744.377          14.668  
   -200808.7001   24429874.548          22.590  
 17 12 19  6 25 10.9996887  0  7G12G15G18G20G21G25G32
   -177248.2181   21323210.748          31.743  
     53420.4681   22119539.263          44.639  
    -42220.2601   20561499.565          14.192  
    178966.5471   22521041.403          25.621  
      9064.478    24085675.634          40.029  
   -256187.1271   23423029.372          16.243  
   -203486.3771   24429367.898          23.114  
 17 12 19  6 25 11.9996887  0  7G12G15G18G20G21G25G32
   -179616.8651   21322730.475          27.841  
     55400.9721   22119911.599          37.769  
    -42757.7261   20561397.935          13.735  
    182355.3441   22521719.239          22.233  
     11319.356    24086106.733          39.337  
   -259947.3721   23422316.164          13.709  
   -206150.7481   24428859.748          21.803  
 17 12 19  6 25 12.9996887  0  8G12G13G15G18G20G21G25G32
   -181979.4481   21322320.962          23.823  
      5174.246    24721589.995          41.370  
     57381.308    22120291.437          37.708  
    -43288.5991   20561296.907          11.125  
    185734.8641   22522355.692          19.139  
     13574.315    24086548.625          38.572  
   -263705.3341   23421600.862          12.668  
   -208816.6701   24428373.184          22.447  
 17 12 19  6 25 13.9996887  0  8G12G13G15G18G20G21G25G32
   -184349.0581   21321906.048          19.581  
      7740.338    24722077.458          34.900  
     59360.0111   22120675.770          32.764  
    -43821.5221   20561248.343          10.735  
    189112.0211   22522994.850          15.464  
     15829.777    24086972.238          37.068  
   -267463.2671   23420943.120          10.299  
   -211482.8761   24427853.647          22.645  
 17 12 19  6 25 14.9996887  0  8G12G13G15G18G20G21G25G32
   -186723.2261   21321506.726          17.986  
     10310.6981   24722587.406          29.773  
     61335.9701   22121093.380          27.789  
    -44360.1451   20561099.344          10.487  
    192484.5221   22523626.513          10.921  
     18085.713    24087392.238          37.102  
   -271222.8881   23420288.065          10.695  
   -214146.3441   24427351.491          24.110  
 17 12 19  6 25 15.9996887  0  8G12G13G15G18G20G21G25G32
   -189099.7641   21321003.671          17.291  
     12877.9501   24723059.879          25.883  
     63303.6691   22121501.401          23.576  
    -44895.6501   20560965.937           9.943  
    195865.1781   22524275.862          14.769  
     20342.2221   24087827.543          35.700  
   -275011.2251   23419576.061           9.835  
   -216807.7921   24426851.141          21.853  
 17 12 19  6 25 16.9996887  0  8G12G13G15G18G20G21G25G32
   -191476.8761   21320503.024          18.515  
     15445.2651   24723558.432          23.505  
     65281.8441   22121823.078          21.389  
    -45426.4811   20560880.196           9.872  
    199249.1281   22524909.025          15.541  
     22599.2161   24088262.236          35.088  
   -278772.8661   23418714.160           9.079  
   -219466.5601   24426339.090          20.812  
 17 12 19  6 25 17.9996887  0  8G12G13G15G18G20G21G25G32
   -193854.0601   21320049.737          16.037  
     18005.8491   24724042.597          22.484  
     67269.7841   22122234.397          20.513  
    -45956.7581   20560926.064          10.188  
    202627.2891   22525579.960          14.330  
     24856.7951   24088672.953          33.069  
   -282532.2971   23417997.654          11.940  
   -222128.7021   24425832.144          17.867  
 17 12 19  6 25 18.9996887  0  8G12G13G15G18G20G21G25G32
   -196236.0191   21319597.646          17.548  
     20561.2681   24724552.248          20.894  
     69261.7701   22122598.339          20.270  
    -46484.2721   20560679.038          10.055  
    206002.4701   22526237.406          11.858  
     27115.0281   24089108.555          29.384  
   -286291.9571   23417268.558          12.207  
   -224790.8531   24425326.393          16.780  
 17 12 19  6 25 19.9996887  0  8G12G13G15G18G20G21G25G32
   -198615.1621   21319159.052          17.013  
     23133.5071   24725026.222          21.085  
     71236.7801   22122987.775          18.710  
    -47012.6481   20560563.317           9.890  
    209391.6471   22526881.965          13.533  
     29374.1941   24089541.756          26.468  
   -290047.8681   23416595.826          13.198  
   -227450.1731   24424836.836          17.222  
 17 12 19  6 25 20.9996887  0  8G12G13G15G18G20G21G25G32
   -200984.8731   21318698.567          16.207  
     25703.4311   24725546.657          18.762  
     73202.3131   22123364.011          18.454  
    -47538.7901   20560462.883          11.133  
    212747.7081   22527513.025          17.783  
     31632.9491   24089974.356          27.844  
   -293805.0761   23415855.038          15.281  
   -230113.7851   24424307.100          13.425  
 17 12 19  6 25 21.9996887  0  8G12G13G15G18G20G21G25G32
   -203353.2091   21318251.283          16.570  
     28262.9301   24726065.601          19.270  
     75169.8871   22123733.057          18.152  
    -48065.6621   20560362.151          10.995  
    216134.5541   22528153.684          17.046  
     33892.2201   24090408.456          28.545  
   -297561.8321   23415141.830          16.455  
   -232778.7661   24423825.631          13.166  
 17 12 19  6 25 22.9996887  0  8G12G13G15G18G20G21G25G32
   -205720.2981   21317798.589          15.095  
     30832.4891   24726550.062          20.363  
     77134.2571   22124108.699          19.180  
    -48590.6401   20560361.855          11.077  
    219526.2581   22528810.222          15.862  
     36151.523    24090830.865          34.431  
   -301317.9891   23414439.721          15.139  
   -235450.2731   24423309.994          15.861  
 17 12 19  6 25 23.9996887  0  8G12G13G15G18G20G21G25G32
   -208083.6471   21317370.789          18.252  
     33397.6571   24727047.716          19.735  
     79108.7631   22124483.433          19.306  
    -49120.6001   20560299.200          11.896  
    222912.4621   22529451.186          15.733  
     38410.756    24091258.666          40.660  
   -305076.2691   23413745.996          17.718  
   -238113.8561   24422821.030          15.030  
 17 12 19  6 25 24.9996887  0  8G12G13G15G18G20G21G25G32
   -210444.7331   21316925.293          18.668  
     35959.2841   24727595.741          18.236  
     81088.5681   22124882.459          18.519  
    -49644.3201   20560205.666          12.082  
    226302.4351   22530084.341          16.937  
     40670.551    24091690.969          39.867  
   -308823.8261   23413022.004          17.340  
   -240789.5301   24422328.472          14.611  
 17 12 19  6 25 25.9996887  0  8G12G13G15G18G20G21G25G32
   -212807.4831   21316462.418          18.501  
     38520.2681   24728119.779          16.867  
     83064.9601   22125246.409          17.979  
    -50171.5831   20560092.345          12.037  
    229683.4001   22530695.919          16.264  
     42930.261    24092123.865          39.922  
   -312573.8161   23412294.103          17.959  
   -243480.4601   24421605.675          14.222  
 17 12 19  6 25 26.9996887  0  8G12G13G15G18G20G21G25G32
   -215172.5191   21315981.254          18.305  
     41083.1561   24728614.432          15.778  
     85037.4281   22125626.545          17.201  
    -50701.0101   20559962.532          12.896  
    233061.7501   22531353.365          14.121  
     45189.807    24092553.472          42.270  
   -316324.1821   23411597.987          17.941  
   -246156.2751   24421128.700          13.798  
 17 12 19  6 25 27.9996887  0  8G12G13G15G18G20G21G25G32
   -217547.3121   21315514.775          18.997  
     43649.9081   24729114.189          14.669  
     87015.0401   22126039.356          19.527  
    -51223.5611   20559766.471          12.805  
    236446.3101   22532010.514          13.914  
     47449.127    24092981.273          42.107  
   -320082.0701   23410885.076          18.978  
   -248828.5221   24420564.796          12.941  
 17 12 19  6 25 28.9996887  0  8G12G13G15G18G20G21G25G32
   -219916.9841   21315120.845          22.244  
     46212.5041   24729558.480          19.484  
     88988.6881   22126399.110          15.727  
    -51744.3051   20559762.867          13.517  
    239821.4971   22532677.252          14.272  
     49708.345    24093410.574          42.857  
   -323840.3311   23410135.598          21.899  
   -251500.4131   24420172.960          13.171  
 17 12 19  6 25 29.9996887  0  8G12G13G15G18G20G21G25G32
   -222285.667    21314662.759          24.519  
     48765.2151   24730064.833          19.979  
     90967.6911   22126801.730          16.571  
    -52263.5241   20559583.592          14.213  
    243213.0421   22533323.006          14.054  
     51967.511    24093841.376          42.159  
   -327598.1801   23409423.594          23.447  
   -254170.2401   24419670.210          13.017  
 17 12 19  6 25 30.9996887  0  7G12G13G15G18G20G21G25
   -224650.1921   21314230.159          24.637  
     51324.1561   24730564.886          16.820  
     92941.0371   22127186.368          19.875  
    -52790.8651   20559531.434          20.444  
    246597.2941   22533943.570          14.985  
     54226.909    24094276.375          44.885  
   -331362.7701   23408693.896          22.911  
 17 12 19  6 25 31.9996887  0  7G12G13G15G18G20G21G25
   -227017.8171   21313745.401          24.044  
     53884.8751   24731026.863          16.059  
     94915.6661   22127507.739          20.939  
    -53318.2641   20559427.701          19.750  
    249979.6241   22534596.217          19.782  
     56486.185    24094702.082          46.453  
   -335120.030    23408001.977          34.974  
 17 12 19  6 25 32.9996887  0  7G12G13G15G18G20G21G25
   -229380.9111   21313305.900          22.760  
     56439.1681   24731499.040          21.252  
     96890.8311   22127902.271          19.658  
    -53845.1371   20559317.075          23.186  
    253356.5581   22535223.683          23.263  
     58745.703    24095131.384          44.796  
   -338876.772    23407270.482          42.512  
 17 12 19  6 25 33.9996887  0  7G12G13G15G18G20G21G25
   -231736.3731   21312838.827          24.282  
     58995.0201   24731984.104          21.479  
     98864.2001   22128306.986          19.390  
    -54373.2391   20559205.856          27.007  
    256741.9561   22535849.352          34.336  
     61005.160    24095564.585          41.738  
   -342633.541    23406560.572          43.217  
 17 12 19  6 25 34.9996887  0  7G12G13G15G18G20G21G25
   -234095.1981   21312367.855          33.720  
     61543.4841   24732443.987          21.245  
    100838.8391   22128672.733          20.849  
    -54891.9201   20559086.235          34.614  
    260131.7671   22536507.993          39.920  
     63264.933    24095987.596          38.563  
   -346389.925    23405842.269          41.587  
 17 12 19  6 25 35.9996887  0  7G12G13G15G18G20G21G25
   -236452.599    21311918.765          45.231  
     64101.8671   24732919.453          17.926  
    102819.4731   22129020.499          21.410  
    -55401.6871   20558995.703          35.299  
    263522.214    22537146.252          41.323  
     65525.397    24096428.284          36.749  
   -350146.008    23405129.061          39.669  
 17 12 19  6 25 36.9996887  0  7G12G13G15G18G20G21G25
   -238809.429    21311470.277          45.997  
     66662.6531   24733452.784          21.727  
    104798.0851   22129349.069          20.352  
    -55918.3831   20558896.167          37.079  
    266913.039    22537796.203          42.247  
     67785.866    24096849.794          37.367  
   -353901.953    23404412.564          39.741  
 17 12 19  6 25 37.9996887  0  7G12G13G15G18G20G21G25
   -241165.383    21311024.179          46.595  
     69223.2681   24733903.069          20.988  
    106781.5311   22129772.376          21.184  
    -56434.745    20558793.638          36.258  
    270304.4321   22538441.661          42.111  
     70046.201    24097284.191          38.374  
   -357657.515    23403705.952          40.486  
 17 12 19  6 25 38.9996887  0  7G12G13G15G18G20G21G25
   -243521.261    21310574.496          46.471  
     71780.5741   24734393.237          19.235  
    108763.0521   22130123.134          25.201  
    -56945.5981   20558694.713          36.089  
    273696.448    22539083.514          41.050  
     72306.3981   24097716.197          37.328  
   -361413.317    23402983.749          42.021  
 17 12 19  6 25 39.9996887  0  6G12G15G18G20G21G25
   -245876.290    21310128.102          44.965  
    110746.7141   22130516.462          27.095  
    -57461.4101   20558600.273          36.170  
    277091.4211   22539731.363          38.618  
     74567.1341   24098148.500          36.912  
   -365168.798    23402276.840          41.312  
 17 12 19  6 25 40.9996887  0  6G12G15G18G20G21G25
   -248230.6661   21309680.809          46.243  
    112736.3001   22130874.410          29.727  
    -57975.7891   20558504.043          36.404  
    280483.6841   22540375.319          38.985  
     76827.9401   24098570.001          37.418  
   -368924.044    23401558.537          38.830  
 17 12 19  6 25 41.9996887  0  6G12G15G18G20G21G25
   -250584.631    21309231.422          46.587  
    114726.1071   22131255.444          33.955  
    -58489.5691   20558404.211          36.470  
    283876.057    22541025.872          39.913  
     79089.031    24098999.303          37.844  
   -372678.817    23400844.134          40.911  
 17 12 19  6 25 42.9996887  0  8G10G12G15G18G20G21G24G25
    -27908.7491   21707755.735          29.094  
   -252938.415    21308784.732          44.896  
    116716.5761   22131632.884          43.424  
    -59002.8681   20558309.177          35.347  
    287268.7451   22541663.826          38.307  
     81350.234    24099432.505          39.353  
      5606.3501   20537311.112          29.642  
   -376433.544    23400128.230          42.634  
 17 12 19  6 25 43.9996887  0  8G10G12G15G18G20G21G24G25
    -30227.4471   21707309.341          29.322  
   -255291.463    21308333.844          44.391  
    118707.4161   22132007.924          45.258  
    -59515.6131   20558214.745          37.452  
    290661.5151   22542318.575          38.579  
     83611.476    24099867.809          40.073  
      7077.4981   20537600.715          29.725  
   -380188.087    23399409.621          41.996  
 17 12 19  6 25 44.9996887  0  8G10G12G15G18G20G21G24G25
    -32546.5351   21706875.842          29.194  
   -257644.0541   21307891.952          43.918  
    120698.9581   22132390.764          44.160  
    -60028.0721   20558105.018          36.161  
    294054.7021   22542955.631          37.943  
     85872.837    24100294.711          40.385  
      8549.7021   20537872.328          28.389  
   -383942.208    23398701.814          41.102  
 17 12 19  6 25 45.9996887  0  8G10G12G15G18G20G21G24G25
    -34864.8731   21706428.253          28.405  
   -259995.6621   21307440.760          41.408  
    122690.278    22132764.905          42.668  
    -60539.4281   20558013.579          34.604  
    297448.4511   22543598.985          35.171  
     88134.385    24100727.311          37.559  
     10021.4211   20538154.132          26.703  
   -387696.241    23397983.214          37.493  
 17 12 19  6 25 46.9996887  0  8G10G12G15G18G20G21G24G25
    -37179.0221   21705996.849          27.493  
   -262347.8501   21306990.771          41.053  
    124681.296    22133144.744          43.421  
    -61050.997    20557923.640          36.064  
    300841.7771   22544250.140          35.951  
     90395.297    24101151.220          36.775  
     11489.9761   20538429.042          26.081  
   -391451.006    23397266.708          39.610  
 17 12 19  6 25 47.9996887  0  8G10G12G15G18G20G21G24G25
    -39498.2361   21705551.955          27.813  
   -264703.0961   21306545.581          40.166  
    126671.2921   22133525.779          42.911  
    -61563.2461   20557816.321          35.552  
    304233.6591   22544896.191          34.554  
     92655.267    24101591.009          36.192  
     12960.9911   20538718.341          26.866  
   -395206.709    23396557.994          40.819  
 17 12 19  6 25 48.9996887  0  8G10G12G15G18G20G21G24G25
    -41818.5111   21705110.360          25.445  
   -267056.0021   21306096.491          43.119  
    128660.3661   22133909.212          44.178  
    -62075.7681   20557725.781          36.982  
    307625.0521   22545534.747          37.576  
     94914.410    24102006.229          35.017  
        16.2271   20538989.648          27.306  
   -398963.005    23395838.199          42.395  
 17 12 19  6 25 49.9996887  0  8G10G12G15G18G20G21G24G25
    -44138.7781   21704676.260          25.264  
   -269408.3301   21305653.404          42.518  
    130649.754    22134279.750          43.381  
    -62587.871    20557625.948          36.943  
    311016.9681   22546176.007          37.545  
     97173.748    24102436.725          34.334  
      1487.0001   20539280.447          27.440  
   -402719.188    23395125.287          42.354  
 17 12 19  6 25 50.9996887  0  8G10G12G15G18G20G21G24G25
    -46451.9981   21704236.165          25.712  
   -271759.4241   21305198.913          42.589  
    132640.188    22134657.792          43.601  
    -63098.5011   20557521.622          36.275  
    314410.3091   22546833.453          37.969  
     99433.622    24102878.626          32.786  
      2952.9201   20539549.067          27.500  
   -406474.658    23394408.485          42.051  
 17 12 19  6 25 51.9996887  0  8G10G12G15G18G20G21G24G25
    -48771.1771   21703776.588          25.520  
   -274109.2301   21304761.514          42.985  
    134631.5381   22135042.124          44.354  
    -63607.9541   20557431.082          36.440  
    317803.7271   22547470.211          37.343  
    101694.0571   24103319.619          31.704  
      4426.7901   20539836.263          28.887  
   -410229.584    23393697.074          41.420  
 17 12 19  6 25 52.9996887  0  8G10G12G15G18G20G21G24G25
    -51094.1011   21703333.195          23.331  
   -276457.9491   21304307.634          44.403  
    136623.3981   22135419.563          44.087  
    -64116.3271   20557334.250          36.329  
    321198.3471   22548139.645          39.715  
    103955.216    24103753.720          30.438  
      5901.9531   20540112.378          27.666  
   -413983.830    23392982.976          40.138  
 17 12 19  6 25 53.9996887  0  8G10G12G15G18G20G21G24G25
    -53414.6391   21702898.493          22.161  
   -278807.1791   21303866.039          41.780  
    138615.1001   22135796.401          42.075  
    -64625.099    20557240.115          34.394  
    324592.1911   22548777.608          37.005  
    106220.5571   24104182.419          26.585  
      7374.2851   20540376.792          25.716  
   -417738.197    23392267.971          39.260  
 17 12 19  6 25 54.9996887  0  8G10G12G15G18G20G21G24G25
    -55739.0411   21702470.989          23.069  
   -281156.3061   21303413.651          42.263  
    140606.0081   22136178.639          43.261  
    -65133.535    20557139.384          35.783  
    327985.1781   22549415.265          35.659  
    108486.9351   24104601.530          23.644  
      8847.2321   20540679.885          25.954  
   -421493.181    23391554.763          41.660  
 17 12 19  6 25 55.9996887  0  8G10G12G15G18G20G21G24G25
    -58060.1101   21702038.991          23.185  
   -283505.4411   21302971.454          43.329  
    142596.5721   22136554.883          44.930  
    -65642.284    20557041.951          37.068  
    331377.7871   22550059.213          37.323  
    110747.2641   24105076.097          21.337  
     10319.6811   20540955.686          26.727  
   -425248.681    23390835.256          42.158  
 17 12 19  6 25 56.9996887  0  8G10G12G15G18G20G21G24G25
    -60373.0041   21701601.287          25.685  
   -285854.098    21302519.074          44.502  
    144587.7391   22136933.815          44.545  
    -66150.2311   20556950.520          37.105  
    334771.0631   22550708.570          38.792  
    113006.8851   24105568.359          20.423  
     11793.1581   20541241.991          27.363  
   -429003.835    23390125.652          42.918  
 17 12 19  6 25 57.9996887  0  8G10G12G15G18G20G21G24G25
    -62688.4511   21701162.999          25.903  
   -288201.3031   21302074.477          43.209  
    146579.7611   22137312.153          44.356  
    -66656.6471   20556846.787          36.683  
    338165.6651   22551351.620          38.435  
    115268.2401   24105945.196          21.368  
     13268.8251   20541507.008          27.454  
   -432758.398    23389414.241          42.109  
 17 12 19  6 25 58.9996887  0  8G10G12G15G18G20G21G24G25
    -65003.7141   21700708.813          25.547  
   -290547.5801   21301633.484          42.726  
    148572.393    22137693.187          44.498  
    -67161.9641   20556754.153          36.421  
    341560.2891   22552001.274          37.732  
    117529.6101   24106410.175          22.154  
     14745.2381   20541795.407          28.128  
   -436512.070    23388699.838          39.409  
 17 12 19  6 25 59.9996887  0  8G10G12G15G18G20G21G24G25
    -67322.8721   21700267.515          24.932  
   -292892.8141   21301179.002          44.226  
    150565.9381   22138069.728          45.434  
    -67666.3761   20556654.024          36.362  
    344956.9831   22552645.527          37.945  
    119787.2851   24106853.873          18.995  
     16221.7301   20542070.920          27.965  
   -440265.475    23387981.831          43.897  
 17 12 19  6 26  0.9996887  0  8G10G12G15G18G20G21G24G25
    -69634.0451   21699854.102          23.092  
   -295236.9951   21300738.306          43.953  
    152560.0981   22138449.864          44.795  
    -68169.5771   20556566.485          35.034  
    348353.6731   22553295.775          38.976  
    122049.1341   24107315.850          18.316  
     17699.8951   20542371.614          28.225  
   -444018.286    23387267.428          44.054  
 17 12 19  6 26  1.9996887  0  8G10G12G15G18G20G21G24G25
    -71935.8571   21699411.608          21.352  
   -297579.0451   21300292.514          44.250  
    154555.1291   22138835.103          45.503  
    -68671.7541   20556470.247          35.711  
    351752.2551   22553941.232          40.323  
    124305.2261   24107758.946          18.905  
     19181.1981   20542640.827          28.702  
   -447769.416    23386553.322          43.383  
 17 12 19  6 26  2.9996887  0  8G10G12G15G18G20G21G24G25
    -74244.1031   21698955.921          19.667  
   -299920.3731   21299844.025          43.159  
    156551.2791   22139211.941          44.183  
    -69172.8991   20556374.916          36.742  
    355148.5021   22554595.676          40.245  
    126569.0671   24108189.443          18.390  
     20659.9031   20542912.736          27.551  
   -451519.618    23385841.318          44.432  
