     2.11           OBSERVATION DATA    G (GPS)             RINEX VERSION / TYPE
AndroidGNSSReceiver RITSUMEIKAN KUBOLAB 1524038841230       PGM / RUN BY / DATE
flounder                                                    MARKER NAME
GRitzLogger         KUBOLAB                                 OBSERVER / AGENCY
0                   Android Receiver                        REC # / TYPE / VERS
0                   Android Anttena                         ANT # / TYPE
        0.0000        0.0000        0.0000                  APPROX POSITION XYZ
        0.0000        0.0000        0.0000                  ANTENNA: DELTA H/E/N
1     0                                                     WAVELENGTH FACT L1/2
3         L1    C1    S1                                    # / TYPES OF OBSERV
1.000                                                       INTERVAL
  2018     4    18     8     5   43.0003976     GPS         TIME OF FIRST OBS
                                                            END OF HEADER
 18  4 18  8  5 43.0003973  0  6G 1G11G16G18G22G30
  -1368834.706    21674921.248          28.540  
   -712432.2661   21211172.899          19.947  
    670340.9031   23238543.977          15.810  
   -658849.3671   20320982.970          16.336  
   -702117.348    24531614.814          29.892  
   -383539.5901   22759669.309          15.661  
 18  4 18  8  5 44.0003973  0  6G 1G11G16G18G22G30
  -1371905.388    21674318.971          26.643  
   -714660.2591   21210742.996          20.868  
    672872.2341   23239034.137          19.671  
   -660672.2521   20320614.822          16.986  
   -705145.554    24531018.523          28.692  
   -385519.3931   22759291.267          14.954  
 18  4 18  8  5 45.0003973  0  6G 1G11G16G18G22G30
  -1374975.706    21673752.956          30.783  
   -716891.8201   21210315.500          20.610  
    675399.4531   23239510.510          19.079  
   -662504.5541   20320222.699          16.761  
   -708173.991    24530464.199          28.051  
   -387498.3431   22758938.703          16.001  
 18  4 18  8  5 46.0003973  0  6G 1G11G16G18G22G30
  -1378045.011    21673176.767          32.010  
   -719122.3541   21209909.870          20.324  
    677927.6981   23239956.904          21.028  
   -664334.2691   20319903.412          16.884  
   -711201.651    24529874.207          28.019  
   -389476.9601   22758519.305          16.571  
 18  4 18  8  5 47.0003973  0  6G 1G11G16G18G22G30
  -1381113.191    21672584.978          31.999  
   -721351.9501   21209453.896          19.206  
    680457.7591   23240465.944          21.273  
   -666164.5991   20319561.946          16.596  
   -714228.105    24529300.113          28.497  
   -391453.8401   22758147.248          15.352  
 18  4 18  8  5 48.0003973  0  6G 1G11G16G18G22G30
  -1384179.907    21672013.867          31.312  
   -723587.3211   21209034.480          15.638  
    682987.8651   23240949.211          21.586  
   -667993.0371   20319212.697          14.802  
   -717254.450    24528719.404          28.400  
   -393429.3871   22757796.202          18.034  
 18  4 18  8  5 49.0003973  0  5G 1G11G16G22G30
  -1387246.673    21671425.376          30.131  
   -725817.6841   21208591.384          14.522  
    685518.3591   23241442.982          21.804  
   -720280.949    24528160.893          28.092  
   -395402.4781   22757399.873          15.717  
 18  4 18  8  5 50.0003973  0  5G 1G11G16G22G30
  -1390312.678    21670834.180          33.724  
   -728054.3211   21208171.078          16.368  
    688045.1671   23241895.362          23.531  
   -723308.080    24527569.400          28.788  
   -397379.6901   22757020.942          16.008  
 18  4 18  8  5 51.0003973  0  5G 1G11G16G22G30
  -1393374.2191   21670256.177          30.506  
   -730296.0171   21207754.960          15.516  
    690569.5441   23242380.425          24.080  
   -726335.327    24527000.104          28.881  
   -399358.7821   22756674.380          17.227  
 18  4 18  8  5 52.0003973  0  5G 1G11G16G22G30
  -1396426.8031   21669665.591          28.302  
   -732531.4221   21207339.453          17.849  
    693100.7781   23242861.894          23.197  
   -729362.156    24526428.104          27.655  
   -401341.9691   22756299.637          15.672  
 18  4 18  8  5 53.0003973  0  5G 1G11G16G22G30
  -1399491.880    21669100.780          29.070  
   -734763.5281   21206960.225          17.549  
    695633.3921   23243364.949          21.940  
   -732389.022    24525852.805          27.142  
   -403320.4811   22755941.681          17.236  
 18  4 18  8  5 54.0003973  0  5G 1G11G16G22G30
  -1402556.402    21668501.801          30.492  
   -737003.7341   21206538.715          15.595  
    698161.2201   23243829.631          21.275  
   -735416.045    24525274.801          27.621  
   -405294.6521   22755553.448          19.068  
 18  4 18  8  5 55.0003973  0  5G 1G11G16G22G30
  -1405620.136    21667926.206          30.212  
   -739241.2891   21206074.033          16.077  
    700695.2481   23244288.607          20.984  
   -738442.627    24524694.407          26.854  
   -407272.2471   22755155.618          17.783  
 18  4 18  8  5 56.0003973  0  5G 1G11G16G22G30
  -1408683.242    21667338.308          29.722  
   -741477.0571   21205626.138          16.561  
    703239.5261   23244775.171          19.939  
   -741469.224    24524116.997          27.560  
   -409247.6601   22754766.792          18.136  
 18  4 18  8  5 57.0003973  0  5G 1G11G16G22G30
  -1411745.661    21666751.318          30.448  
   -743715.8771   21205194.734          15.559  
    705772.5561   23245260.235          21.912  
   -744495.532    24523534.508          28.087  
   -411219.0951   22754420.842          19.242  
 18  4 18  8  5 58.0003973  0  5G 1G11G16G22G30
  -1414807.525    21666176.909          30.597  
   -745950.3951   21204806.815          15.054  
    708304.3841   23245761.492          22.655  
   -747521.698    24522967.900          28.729  
   -413190.3821   22754050.583          19.501  
 18  4 18  8  5 59.0003973  0  5G 1G11G16G22G30
  -1417868.726    21665592.920          31.529  
   -748178.0261   21204407.188          14.768  
    710837.952    23246243.851          27.054  
   -750547.823    24522384.190          32.357  
   -415161.1541   22753667.149          19.278  
 18  4 18  8  6  0.0003973  0  5G 1G11G16G22G30
  -1420929.269    21665011.915          32.476  
   -750357.7431   21203987.772          14.645  
    713372.5111   23246703.438          24.561  
   -753573.556    24521811.596          31.776  
   -417130.7381   22753284.326          19.797  
