     2.11           OBSERVATION DATA    G (GPS)             RINEX VERSION / TYPE
AndroidGNSSReceiver RITSUMEIKAN KUBOLAB 1538721080534       PGM / RUN BY / DATE
flounder                                                    MARKER NAME
GRitzLogger         KUBOLAB                                 OBSERVER / AGENCY
0                   Android Receiver                        REC # / TYPE / VERS
0                   Android Anttena                         ANT # / TYPE
        0.0000        0.0000        0.0000                  APPROX POSITION XYZ
        0.0000        0.0000        0.0000                  ANTENNA: DELTA H/E/N
1     0                                                     WAVELENGTH FACT L1/2
3         L1    C1    S1                                    # / TYPES OF OBSERV
1.000                                                       INTERVAL
  2018    10     5     6    27   43.0000143     GPS         TIME OF FIRST OBS
                                                            END OF HEADER
 18 10  5  6 27 43.0000143  0  7G 2G 5G13G15G21G29G30
     90980.782    21170030.887          39.956  
     -2316.054    20551165.127          38.012  
    -35551.598    20278342.892          40.794  
   -132824.203    22289791.100          45.857  
   -159245.849    25978379.945          42.838  
     42278.111    23004073.603          42.821  
     32772.0291   22405317.317          28.910  
 18 10  5  6 27 44.0000143  0  7G 2G 5G13G15G21G29G30
     92878.799    21170385.545          38.673  
     -2356.731    20551157.327          36.434  
    -36274.0521   20278198.386          39.002  
   -135564.512    22289270.961          46.028  
   -162542.929    25977749.468          42.309  
     43164.594    23004239.694          41.908  
     33492.709    22405499.288          26.466  
 18 10  5  6 27 45.0000143  0  7G 2G 5G13G15G21G29G30
     94776.3161   21170750.098          37.211  
     -2398.468    20551149.841          37.055  
    -36997.1291   20278061.088          41.272  
   -138305.648    22288746.024          44.301  
   -165841.099    25977122.307          42.379  
     44050.650    23004412.975          45.443  
     34215.1451   22405581.740          28.101  
 18 10  5  6 27 46.0000143  0  7G 2G 5G13G15G21G29G30
     96675.0901   21171114.336          37.852  
     -2439.2831   20551135.445          37.085  
    -37720.0981   20277930.072          41.176  
   -141045.8151   22288229.480          44.416  
   -169139.705    25976498.445          43.450  
     44936.884    23004584.162          43.702  
     34937.0881   22405731.341          29.740  
 18 10  5  6 27 47.0000143  0  7G 2G 5G13G15G21G29G30
     98574.0971   21171468.105          36.363  
     -2480.0521   20551135.445          36.083  
    -38442.0151   20277786.177          40.401  
   -143786.5291   22287706.636          42.500  
   -172438.518    25975866.485          40.413  
     45823.570    23004746.641          43.825  
     35662.0991   22405860.839          29.989  
 18 10  5  6 27 48.0000143  0  7G 2G 5G13G15G21G29G30
    100474.2741   21171832.640          37.490  
     -2520.1241   20551123.160          35.726  
    -39162.9151   20277652.474          41.221  
   -146526.2451   22287187.999          44.842  
   -175736.467    25975243.512          41.208  
     46711.593    23004918.717          45.920  
     36385.7061   22406009.236          30.346  
 18 10  5  6 27 49.0000143  0  7G 2G 5G13G15G21G29G30
    102374.9841   21172192.097          37.452  
     -2559.8271   20551118.064          35.663  
    -39883.248    20277512.471          41.350  
   -149264.964    22286661.560          43.152  
   -179034.774    25974613.053          39.913  
     47600.061    23005088.700          45.487  
     37111.6401   22406153.741          30.632  
 18 10  5  6 27 50.0000143  0  7G 2G 5G13G15G21G29G30
    104275.7791   21172557.242          38.547  
     -2600.8541   20551113.265          35.699  
    -40603.9391   20277375.172          41.772  
   -152004.1531   22286144.720          45.166  
   -182333.318    25973985.282          41.478  
     48488.720    23005253.587          44.148  
     37837.2431   22406282.349          29.916  
 18 10  5  6 27 51.0000143  0  7G 2G 5G13G15G21G29G30
    106177.0261   21172916.996          37.701  
     -2641.3271   20551109.653          35.282  
    -41324.4001   20277237.856          40.334  
   -154743.443    22285618.578          45.177  
   -185632.007    25973358.121          41.408  
     49377.3451   23005426.868          44.316  
     38564.351    22406401.674          29.011  
 18 10  5  6 27 52.0000143  0  7G 2G 5G13G15G21G29G30
    108078.9521   21173283.032          37.602  
     -2681.4151   20551086.270          34.655  
    -42043.0411   20277104.746          43.101  
   -157481.9061   22285101.144          43.901  
   -188930.545    25972733.054          42.938  
     50267.366    23005598.648          43.766  
     39292.4651   22406563.560          30.166  
 18 10  5  6 27 53.0000143  0  7G 2G 5G13G15G21G29G30
    109981.7041   21173638.301          37.400  
     -2720.5271   20551085.380          34.686  
    -42761.330    20276964.446          41.212  
   -160219.992    22284575.614          43.644  
   -192229.014    25972107.987          40.813  
     51157.2271   23005760.847          43.252  
     40021.013    22406690.667          30.282  
 18 10  5  6 27 54.0000143  0  7G 2G 5G13G15G21G29G30
    111884.9431   21174009.432          38.060  
     -2759.8021   20551079.080          35.720  
    -43478.980    20276831.040          41.926  
   -162957.541    22284059.960          45.214  
   -195527.500    25971475.714          41.080  
     52048.231    23005935.925          44.801  
     40750.557    22406830.967          32.602  
 18 10  5  6 27 55.0000143  0  7G 2G 5G13G15G21G29G30
    113789.0911   21174368.296          36.832  
     -2798.4971   20551076.690          35.150  
    -44196.013    20276694.335          41.180  
   -165694.701    22283537.727          45.793  
   -198825.516    25970847.663          43.847  
     52939.984    23006101.999          42.070  
     41480.537    22406990.462          33.076  
 18 10  5  6 27 56.0000143  0  7G 2G 5G13G15G21G29G30
    115693.7711   21174728.643          36.842  
     -2836.2381   20551069.186          35.667  
    -44912.185    20276554.925          42.434  
   -168431.218    22283013.383          44.091  
   -202123.217    25970220.485          43.306  
     53832.715    23006271.685          44.317  
     42211.0481   22407107.081          31.504  
 18 10  5  6 27 57.0000143  0  7G 2G 5G13G15G21G29G30
    117599.4861   21175094.382          37.461  
     -2873.1821   20551063.794          35.789  
    -45627.645    20276424.223          42.668  
   -171167.075    22282496.246          44.052  
   -205420.799    25969594.824          44.871  
     54725.951    23006447.060          46.542  
     42942.1451   22407258.776          32.181  
 18 10  5  6 27 58.0000143  0  7G 2G 5G13G15G21G29G30
    119506.2331   21175458.935          37.582  
     -2910.5531   20551053.900          35.272  
    -46342.166    20276283.923          42.148  
   -173902.262    22281971.308          44.784  
   -208718.023    25968969.147          45.146  
     55620.104    23006612.854          44.542  
     43670.1591   22407383.790          31.883  
 18 10  5  6 27 59.0000143  0  7G 2G 5G13G15G21G29G30
    121412.8621   21175816.891          36.553  
     -2946.5001   20551045.209          34.034  
    -47056.127    20276149.905          42.023  
   -176637.470    22281458.063          43.992  
   -212014.860    25968338.391          43.899  
     56514.915    23006787.339          45.013  
     44397.0431   22407556.774          31.031  
 18 10  5  6 28  0.0000143  0  7G 2G 5G13G15G21G29G30
    123320.4801   21176188.929          35.714  
     -2981.6471   20551040.411          33.808  
    -47769.573    20276011.403          41.897  
   -179371.496    22280934.329          43.786  
   -215311.381    25967711.527          45.573  
     57410.751    23006953.709          44.652  
     45128.0531   22407659.590          29.797  
 18 10  5  6 28  1.0000143  0  8G 2G 5G 7G13G15G21G29G30
    125229.322    21176545.088          38.539  
     -3016.752    20551038.613          37.979  
      6092.7181   24481816.290          32.610  
    -48482.2191   20275880.404          37.770  
   -182105.279    22280414.784          45.961  
   -218608.090    25967084.960          45.386  
     58307.1391   23007121.005          41.161  
     45863.6021   22407819.085          31.289  
 18 10  5  6 28  2.0000143  0  8G 2G 5G 7G13G15G21G29G30
    127139.7261   21176911.124          37.784  
     -3051.8951   20551032.907          36.491  
        38.9201   24482219.809          32.317  
    -49196.0481   20275742.495          40.022  
   -184838.353    22279895.256          45.622  
   -221904.379    25966458.689          44.951  
     59204.212    23007293.989          44.322  
     46597.8811   22407947.100          30.881  
 18 10  5  6 28  3.0000143  0  8G 2G 5G 7G13G15G21G29G30
    129049.7481   21177269.988          37.876  
     -3086.190    20551020.029          34.615  
      2204.0081   24482604.150          30.015  
    -49908.6481   20275608.791          41.543  
   -187571.061    22279371.802          45.143  
   -225200.302    25965827.026          44.774  
     60102.043    23007464.268          45.137  
     47335.5831   22408095.200          30.965  
 18 10  5  6 28  4.0000143  0  8G 2G 5G 7G13G15G21G29G30
    130959.9761   21177635.430          38.417  
     -3119.9541   20551012.525          35.708  
      4369.590    24483049.044          30.060  
    -50619.000    20275469.678          41.385  
   -190303.431    22278854.071          46.898  
   -228495.662    25965208.852          45.274  
     61000.610    23007636.048          43.821  
     48071.3331   22408243.300          30.935  
 18 10  5  6 28  5.0000143  0  8G 2G 5G 7G13G15G21G29G30
    132871.4251   21177999.372          37.816  
     -3152.7671   20551010.431          35.748  
      6537.3291   24483469.349          28.546  
    -51328.7941   20275336.271          41.538  
   -193035.026    22278332.432          45.079  
   -231791.682    25964574.502          44.471  
     61899.759    23007807.828          43.163  
     48809.1271   22408385.397          31.197  
 18 10  5  6 28  6.0000143  0  8G 2G 5G 7G13G15G21G29G30
    134783.3041   21178359.126          37.529  
     -3186.2781   20550998.146          35.470  
      8707.3721   24483871.664          29.458  
    -52038.0001   20275198.676          41.325  
   -195766.462    22277813.183          45.398  
   -235087.941    25963945.526          44.690  
     62799.166    23007983.499          44.976  
     49545.4531   22408515.803          31.050  
 18 10  5  6 28  7.0000143  0  8G 2G 5G 7G13G15G21G29G30
    136696.1321   21178733.573          37.170  
     -3218.9611   20550990.346          36.203  
     10874.6831   24484297.066          29.337  
    -52746.5381   20275065.269          40.823  
   -198497.6051   22277296.343          45.006  
   -238383.818    25963321.663          44.948  
     63699.575    23008158.280          44.496  
     50287.8541   22408665.403          31.391  
 18 10  5  6 28  8.0000143  0  8G 2G 5G 7G13G15G21G29G30
    138609.0051   21179089.121          38.395  
     -3252.0351   20550996.331          35.189  
     13044.2881   24484661.915          29.686  
    -53455.5851   20274928.564          40.425  
   -201228.6271   22276772.906          45.766  
   -241679.697    25962692.408          44.871  
     64600.482    23008334.859          39.306  
     51025.9621   22408799.107          30.259  
 18 10  5  6 28  9.0000143  0  8G 2G 5G 7G13G15G21G29G30
    140522.7891   21179457.861          38.078  
     -3284.7781   20550980.748          35.425  
     15222.1721   24485102.917          28.282  
    -54163.8541   20274798.752          40.717  
   -203959.3271   22276256.973          44.274  
   -244975.807    25962069.435          43.744  
     65501.278    23008511.735          40.213  
     51765.8041   22408971.794          30.558  
 18 10  5  6 28 10.0000143  0  8G 2G 5G 7G13G15G21G29G30
    142435.5431   21179822.710          36.843  
     -3316.6731   20550973.262          35.742  
     17393.2931   24485493.243          29.614  
    -54871.1011   20274663.234          41.863  
   -206689.1291   22275736.834          43.736  
   -248272.028    25961439.273          44.375  
     66402.797    23008673.324          43.706  
     52504.8001   22409083.319          31.690  
 18 10  5  6 28 11.0000143  0  8G 2G 5G 7G13G15G21G29G30
    144350.2621   21180185.169          36.676  
     -3348.7151   20550978.951          36.198  
     19561.4021   24485930.633          29.954  
    -55577.959    20274530.141          41.594  
   -209419.310    22275214.287          45.619  
   -251568.302    25960812.409          44.556  
     67305.0551   23008843.306          38.315  
     53245.0681   22409212.520          33.001  
 18 10  5  6 28 12.0000143  0  8G 2G 5G 7G13G15G21G29G30
    146264.8391   21180547.313          37.246  
     -3380.9801   20550962.164          35.388  
     21730.5381   24486316.178          31.094  
    -56284.696    20274397.031          41.743  
   -212149.610    22274695.056          46.028  
   -254864.591    25960182.247          43.116  
     68207.5651   23009018.681          35.295  
     53986.8931   22409357.915          32.838  
 18 10  5  6 28 13.0000143  0  8G 2G 5G 7G13G15G21G29G30
    148178.6211   21180913.960          36.916  
     -3412.4011   20550965.759          34.566  
     23902.388    24486734.093          31.312  
    -56990.988    20274260.622          40.667  
   -214879.440    22274177.901          43.445  
   -258160.621    25959558.663          42.601  
     69110.9241   23009188.367          38.047  
     54728.2101   22409515.020          33.379  
 18 10  5  6 28 14.0000143  0  8G 2G 5G 7G13G15G21G29G30
    150093.648    21181274.603          38.245  
     -3444.3551   20550950.769          36.083  
     26075.6111   24487122.622          34.648  
    -57696.4761   20274119.712          39.410  
   -217608.3481   22273661.672          38.842  
   -261456.2021   25958925.500          36.291  
     70014.203    23009349.066          40.149  
     55470.6391   22409631.936          33.825  
 18 10  5  6 28 15.0000143  0  8G 2G 5G 7G13G15G21G29G30
    152011.441    21181658.037          33.439  
     -3483.1891   20550943.283          32.584  
     28249.058    24487535.128          33.237  
    -58406.7661   20273984.804          34.242  
   -220335.2551   22273171.809          33.235  
   -264751.5331   25958301.933          32.911  
     70919.5101   23009569.410          34.645  
     56215.749    22409771.642          32.083  
 18 10  5  6 28 16.0000143  0  8G 2G 5G 7G13G15G21G29G30
    153929.6811   21182003.394          28.359  
     -3523.8351   20550934.278          28.751  
     30417.6261   24487961.734          29.453  
    -59112.6561   20273843.615          29.138  
   -223066.7141   22272599.198          28.036  
   -268047.5281   25957677.774          30.177  
     71823.5261   23009754.382          29.390  
     56965.2461   22409959.302          26.818  
 18 10  5  6 28 17.0000143  0  8G 2G 5G 7G13G15G21G29G30
    155842.1531   21182381.436          23.194  
     -3553.2381   20550931.591          26.837  
     32590.2771   24488371.552          25.849  
    -59817.5311   20273730.590          25.347  
   -225805.3751   22272170.498          23.070  
   -271343.5131   25957041.609          28.105  
     72723.8311   23009860.811          24.873  
     57720.2601   22410027.655          23.077  
 18 10  5  6 28 18.0000143  0  8G 2G 5G 7G13G15G21G29G30
    157756.6151   21182742.987          20.132  
     -3581.8081   20550964.869          22.527  
     34768.2701   24488772.069          20.601  
    -60525.7951   20273583.397          20.689  
   -228545.5321   22271644.060          18.291  
   -274640.3191   25956419.544          23.396  
     73621.2641   23010080.858          21.653  
     58477.6951   22410178.459          18.011  
 18 10  5  6 28 19.0000143  0  8G 2G 5G 7G13G15G21G29G30
    159671.1801   21183107.243          16.839  
     -3616.9941   20550952.863          19.357  
     36938.8111   24489184.889          16.184  
    -61232.1331   20273393.015          16.462  
   -231287.3561   22271087.939          15.576  
   -277941.7671   25955785.176          20.089  
     74519.7031   23010233.146          17.488  
     59229.3461   22410350.536          13.141  
 18 10  5  6 28 20.0000143  0  8G 2G 5G 7G13G15G21G29G30
    161584.5011   21183470.591          15.442  
     -3644.9751   20550930.980          16.881  
     39110.2041   24489598.302          14.113  
    -61942.9021   20273346.545          13.905  
   -234029.5301   22270524.035          14.192  
   -281247.5481   25955173.301          17.806  
     75425.6211   23010374.650          19.696  
     59979.2551   22410612.551          11.225  
 18 10  5  6 28 21.0000143  0  8G 2G 5G 7G13G15G21G29G30
    163492.3131   21183831.532          12.430  
     -3671.3121   20550891.421          16.277  
     41279.1311   24490014.106          11.629  
    -62646.8841   20273198.759          13.936  
   -236772.3831   22269979.013          13.348  
   -284552.5531   25954554.534          16.890  
     76333.7501   23010537.443          17.602  
     60737.7001   22410655.426          13.726  
 18 10  5  6 28 22.0000143  0  8G 2G 5G 7G13G15G21G29G30
    165395.9471   21184199.085          10.226  
     -3699.4981   20550881.526          11.068  
     43447.0951   24490428.723          10.267  
    -63345.1371   20273073.746          11.834  
   -239515.0391   22269475.364          14.747  
   -287853.4631   25953923.464          14.061  
     77242.8651   23010707.112          14.369  
     61495.7231   22410779.532          12.481  
 18 10  5  6 28 23.0000143  0  8G 2G 5G 7G13G15G21G29G30
    167301.2661   21184563.027          12.905  
     -3731.0501   20550890.810          11.323  
     45618.2301   24490801.076          10.472  
    -64044.4331   20272962.815          14.082  
   -242251.2571   22268891.969           9.415  
   -291146.4141   25953293.599          12.335  
     78150.5801   23010884.894          11.990  
     62253.8661   22410920.739          12.192  
 18 10  5  6 28 24.0000143  0  8G 2G 5G 7G13G15G21G29G30
    169212.2621   21184926.079          12.562  
     -3762.4961   20550889.920          11.352  
     47790.2111   24491212.988           9.809  
    -64742.1971   20272842.007          11.271  
   -244985.8581   22268425.786           9.594  
   -294440.8131   25952676.036          14.030  
     79052.5761   23011015.003          11.817  
     63003.5281   22411063.447          11.758  
 18 10  5  6 28 25.0000143  0  8G 2G 5G 7G13G15G21G29G30
    171076.6881   21185262.449          11.912  
     -3789.3341   20550884.214          10.611  
     49976.6941   24491627.605           9.740  
    -65449.7221   20272662.723          11.425  
   -247718.6331   22267904.740           9.758  
   -297729.8091   25952027.289          13.615  
     79953.7201   23011262.029          11.171  
     63726.8721   22411172.860          11.022  
 18 10  5  6 28 26.0000143  0  8G 2G 5G 7G13G15G21G29G30
    172996.8601   21185628.188          11.052  
     -3812.7811   20550878.228          11.175  
     52149.6591   24492041.315           9.740  
    -66159.7991   20272528.427          10.801  
   -250470.2821   22267381.914          11.990  
   -301019.3171   25951383.324          14.328  
     80833.2211   23011431.418          13.020  
     64475.5981   22411315.568          11.408  
 18 10  5  6 28 27.0000143  0  8G 2G 5G 7G13G15G21G29G30
    174915.5021   21185994.538          10.191  
     -3836.2821   20550873.726          12.189  
     54324.6991   24492455.618           9.320  
    -66872.1121   20272393.816          11.421  
   -253208.5141   22266786.827          12.585  
   -304313.5661   25950770.856          18.194  
     81737.9121   23011602.290          14.481  
     65223.6971   22411458.276          10.862  
 18 10  5  6 28 28.0000143  0  8G 2G 5G 7G13G15G21G29G30
    176833.5821   21186359.684          10.402  
     -3868.7421   20550866.223          12.482  
     56500.4511   24492871.143           8.598  
    -67584.9461   20272259.205          11.750  
   -255945.5821   22266265.781          12.830  
   -307615.7891   25950126.594          21.975  
     82643.7611   23011737.809          18.995  
     65971.9841   22411601.874          11.596  
 18 10  5  6 28 29.0000143  0  7G 2G 5G13G15G21G29G30
    178752.6231   21186728.739          10.284  
     -3903.0691   20550860.830          13.464  
    -68289.0181   20272124.890          12.210  
   -258681.0731   22265768.432          13.131  
   -310916.8491   25949522.223          21.864  
     83552.5591   23011912.887          20.069  
     66720.4311   22411747.269          11.705  
 18 10  5  6 28 30.0000143  0  6G 5G13G15G21G29G30
     -3937.0221   20550859.033          14.336  
    -68990.9681   20271986.999          11.976  
   -261414.8461   22265296.857          12.871  
   -314215.6911   25948892.654          21.688  
     84460.6441   23012104.455          21.210  
     67465.6891   22411888.179          12.389  
 18 10  5  6 28 31.0000143  0  6G 5G13G15G21G29G30
     -3969.8641   20550853.030          14.241  
    -69691.6201   20271855.686          12.116  
   -264147.3941   22264774.921          12.897  
   -317517.1761   25948269.681          19.780  
     85369.1581   23012302.620          20.017  
     68211.6101   22412030.276          12.679  
 18 10  5  6 28 32.0000143  0  6G 5G13G15G21G29G30
     -4000.4481   20550869.521          13.976  
    -70393.8861   20271748.367          12.440  
   -266878.7341   22264253.579          12.506  
   -320813.0811   25947635.331          19.555  
     86280.7371   23012473.789          19.298  
     68960.4131   22412169.076          11.947  
 18 10  5  6 28 33.0000143  0  5G 5G13G15G21G29
     -4028.6851   20550852.437          13.873  
    -71091.2711   20271586.778          12.068  
   -269609.5221   22263732.829          12.878  
   -324110.3061   25947011.154          17.670  
     87197.0771   23012629.689          17.843  
 18 10  5  6 28 34.0000143  0  5G 5G13G15G21G29
     -4056.1651   20550784.381          13.452  
    -71797.5101   20271448.258          12.372  
   -272339.8291   22263213.301          12.862  
   -327406.2151   25946377.100          16.913  
     88111.3521   23012815.552          15.835  
 18 10  5  6 28 35.0000143  0  5G 5G13G15G21G29
     -4089.1401   20550814.064          12.802  
    -72505.0721   20271312.461          11.981  
   -275071.5261   22262776.505          12.470  
   -330693.8141   25945767.023          16.550  
     89025.3161   23012977.751          17.420  
 18 10  5  6 28 36.0000143  0  5G 5G13G15G21G29
     -4124.7731   20550804.170          12.125  
    -73214.4101   20271138.587          11.736  
   -277810.4671   22262273.154          12.235  
   -333984.1861   25945147.645          18.273  
     89944.4271   23013124.647          19.888  
 18 10  5  6 28 37.0000143  0  5G 5G13G15G21G29
     -4161.9391   20550795.183          12.217  
    -73918.4411   20271051.650          12.042  
   -280551.7841   22261664.577          11.466  
   -337285.7751   25944509.089          16.460  
     90857.3701   23013310.510          18.586  
 18 10  5  6 28 38.0000143  0  5G 5G13G15G21G29
     -4190.8511   20550790.384          12.095  
    -74623.8491   20270919.133          13.005  
   -283294.4431   22261149.831          11.865  
   -340579.7601   25943884.319          15.661  
     91772.2001   23013530.871          19.433  
 18 10  5  6 28 39.0000143  0  5G 5G13G15G21G29
     -4218.1101   20550785.288          11.829  
    -75329.8851   20270786.319          13.274  
   -286037.3641   22260626.691          11.619  
   -343877.3041   25943267.646          15.413  
     92683.9711   23013684.049          18.909  
 18 10  5  6 28 40.0000143  0  4G13G15G21G29
    -76036.4801   20270673.608          13.177  
   -288776.4781   22260112.241          10.977  
   -347177.7041   25942616.195          14.927  
     93596.7781   23013831.852          18.425  
 18 10  5  6 28 41.0000143  0  4G13G15G21G29
    -76740.0921   20270540.794          13.971  
   -291508.1131   22259603.794          11.345  
   -350474.1261   25941998.631          15.200  
     94513.1671   23014019.529          18.512  
 18 10  5  6 28 42.0000143  0  4G13G15G21G29
    -77444.4701   20270394.492          13.499  
   -294237.1451   22259089.955          11.203  
   -353766.5131   25941336.692          15.039  
     95434.3681   23014201.500          19.097  
 18 10  5  6 28 43.0000143  0  4G13G15G21G29
    -78148.5941   20270259.881          13.272  
   -296965.0141   22258683.138          11.975  
   -357053.3781   25940689.725          14.923  
     96354.2931   23014389.160          18.775  
 18 10  5  6 28 44.0000143  0  4G13G15G21G29
    -78853.6221   20270121.378          13.226  
   -299690.6591   22258049.067          12.211  
   -360347.4511   25940063.158          15.276  
     97277.9281   23014542.355          20.197  
 18 10  5  6 28 45.0000143  0  4G13G15G21G29
    -79557.4661   20269992.770          13.406  
   -302413.7881   22257537.932          12.286  
   -363640.6321   25939454.896          15.176  
     98202.8461   23014719.248          20.461  
 18 10  5  6 28 46.0000143  0  4G13G15G21G29
    -80259.3121   20269860.568          13.062  
   -305139.0821   22257030.079          11.977  
   -366931.5261   25938845.115          14.571  
     99123.5191   23014891.622          19.972  
 18 10  5  6 28 47.0000143  0  3G13G21G29
    -80952.4531   20269730.162          13.244  
   -370223.2141   25938252.122          13.928  
    100051.8091   23015054.711          17.196  
 18 10  5  6 28 48.0000143  0  2G21G29
   -373521.1661   25937591.369          13.492  
    100975.6851   23015245.372          17.304  
 18 10  5  6 28 49.0000143  0  2G21G29
   -376819.0541   25936960.021          13.750  
    101897.5011   23015419.560          19.936  
 18 10  5  6 28 50.0000143  0  2G21G29
   -380117.8491   25936338.845          13.422  
    102816.8471   23015600.327          18.792  
 18 10  5  6 28 51.0000143  0  2G21G29
   -383419.6111   25935705.385          12.694  
    103742.4161   23015765.214          15.598  
 18 10  5  6 28 52.0000143  0  2G21G29
   -386723.0931   25935115.393          12.792  
    104660.7221   23015908.812          16.423  
 18 10  5  6 28 53.0000143  0  2G21G29
   -390024.8491   25934456.455          13.401  
    105586.4431   23016100.991          15.072  
 18 10  5  6 28 54.0000143  0  2G21G29
   -393315.6761   25933876.358          13.544  
    106515.0511   23016330.619          18.648  
 18 10  5  6 28 55.0000143  0  2G21G29
   -396611.1801   25933269.265          14.547  
    107440.9721   23016485.908          18.407  
 18 10  5  6 28 56.0000143  0  2G21G29
   -399913.3701   25932648.403          14.413  
    108370.6651   23016639.104          19.051  
 18 10  5  6 28 57.0000143  0  2G21G29
   -403210.1861   25931949.592          28.469  
    109290.5431   23016827.078          31.752  
 18 10  5  6 28 58.0000143  0  2G21G29
   -406507.3111   25931328.120          34.293  
    110209.7831   23017007.862          46.468  
 18 10  5  6 28 59.0000143  0  2G21G29
   -409803.5281   25930698.551          35.249  
    111135.3231   23017180.235          48.310  
 18 10  5  6 29  0.0000143  0  2G21G29
   -413100.138    25930068.982          36.563  
    112061.273    23017361.019          47.416  
 18 10  5  6 29  1.0000143  0  6G 2G 5G13G15G21G29
      5822.7121   21198497.689          37.443  
       -42.2671   20550707.338          36.569  
     -2744.9441   20267909.825          40.476  
    -10882.9791   22249302.634          42.683  
   -416396.844    25929444.823          36.543  
    112987.349    23017532.188          46.398  
 18 10  5  6 29  2.0000143  0  6G 2G 5G13G15G21G29
      7758.7011   21198869.728          37.848  
       -63.3281   20550708.542          35.935  
     -3428.7691   20267783.608          41.337  
    -13599.757    22248786.980          44.798  
   -419693.428    25928811.955          38.184  
    113913.913    23017713.269          46.589  
 18 10  5  6 29  3.0000143  0  6G 2G 5G13G15G21G29
      9695.3541   21199239.672          35.662  
       -84.3821   20550710.933          35.879  
        -8.1291   20267652.295          41.899  
    -16315.805    22248269.546          44.717  
   -422989.771    25928190.187          37.797  
    114841.533    23017888.941          46.824  
 18 10  5  6 29  4.0000143  0  6G 2G 5G13G15G21G29
     11633.4661   21199603.911          37.993  
      -105.0111   20550696.240          35.863  
      -690.575    20267516.497          41.922  
    -19031.146    22247755.096          45.490  
   -426286.159    25927566.917          37.223  
    115769.933    23018066.130          46.667  
 18 10  5  6 29  5.0000143  0  6G 2G 5G13G15G21G29
     13571.6091   21199971.465          37.348  
      -125.6331   20550708.246          36.510  
     -1372.484    20267388.186          41.735  
    -21746.090    22247234.067          42.134  
   -429582.584    25926937.052          38.330  
    116698.911    23018243.006          46.253  
 18 10  5  6 29  6.0000143  0  6G 2G 5G13G15G21G29
     15510.6781   21200342.299          37.843  
      -146.0331   20550694.757          35.088  
     -2053.813    20267263.766          41.513  
    -24460.007    22246714.819          43.148  
   -432879.302    25926305.389          38.193  
    117628.181    23018415.676          46.451  
 18 10  5  6 29  7.0000143  0  7G 2G 5G13G15G21G29G30
     17449.5821   21200712.244          37.859  
      -166.6481   20550694.757          34.672  
     -2734.831    20267130.062          41.828  
    -27174.690    22246202.480          44.569  
   -436175.671    25925677.617          38.832  
    118557.940    23018598.257          46.509  
      7374.6741   22417279.930          31.432  
 18 10  5  6 29  8.0000143  0  7G 2G 5G13G15G21G29G30
     19388.9441   21201078.594          37.783  
      -186.3921   20550686.956          36.215  
     -3415.9901   20267001.140          40.351  
    -29889.040    22245687.123          45.600  
   -439472.111    25925055.848          39.018  
    119488.177    23018769.444          46.646  
      8147.9631   22417427.140          31.867  
 18 10  5  6 29  9.0000143  0  7G 2G 5G13G15G21G29G30
     21329.2501   21201451.540          37.124  
      -205.5841   20550685.159          36.544  
     -4095.727    20266871.642          41.724  
    -32602.920    22245171.486          45.418  
   -442768.470    25924428.094          39.829  
    120419.024    23018945.708          46.509  
      8921.6581   22417583.023          32.644  
 18 10  5  6 29 10.0000143  0  7G 2G 5G13G15G21G29G30
     23268.3661   21201825.079          37.391  
      -225.3691   20550679.767          36.263  
     -4774.873    20266739.422          41.486  
    -35316.174    22244649.847          44.486  
   -446064.811    25923796.135          39.926  
    121350.687    23019128.883          47.294  
      9695.9961   22417724.527          34.507  
 18 10  5  6 29 11.0000143  0  7G 2G 5G13G15G21G29G30
     25209.6891   21202183.036          36.731  
      -247.8201   20550687.253          34.453  
     -5453.613    20266612.314          41.498  
    -38028.708    22244136.008          45.027  
   -449361.056    25923174.366          39.161  
    122282.670    23019304.572          46.075  
     10469.9111   22417880.427          33.313  
 18 10  5  6 29 12.0000143  0  7G 2G 5G13G15G21G29G30
     27151.4241   21202557.779          36.924  
      -265.9161   20550660.572          32.751  
     -6131.994    20266484.003          41.636  
    -40741.5361   22243621.558          45.154  
   -452657.372    25922544.500          38.376  
    123215.092    23019477.242          47.628  
     11244.9611   22418022.821          33.038  
 18 10  5  6 29 13.0000143  0  7G 2G 5G13G15G21G29G30
     29093.4601   21202929.224          38.079  
      -284.3121   20550676.155          34.330  
     -6810.020    20266356.895          40.910  
    -43454.282    22243100.512          46.406  
   -455953.993    25921916.135          39.479  
    124147.803    23019660.417          46.945  
     12020.4541   22418173.312          32.531  
 18 10  5  6 29 14.0000143  0  7G 2G 5G13G15G21G29G30
     31036.1671   21203292.869          38.732  
      -303.7191   20550662.369          33.225  
     -7487.336    20266224.378          41.881  
    -46166.604    22242591.472          45.963  
   -459250.263    25921287.160          40.383  
    125081.233    23019836.106          45.629  
     12796.3551   22418318.428          30.869  
 18 10  5  6 29 15.0000143  0  7G 2G 5G13G15G21G29G30
     32979.7541   21203670.911          38.450  
      -321.1951   20550659.368          36.252  
     -8164.1521   20266095.770          41.688  
    -48878.384    22242072.537          45.151  
   -462546.750    25920660.906          41.820  
    126015.302    23020011.184          46.790  
     13567.7081   22418468.622          31.853  
 18 10  5  6 29 16.0000143  0  7G 2G 5G13G15G21G29G30
     34923.7881   21204039.948          37.195  
      -338.2201   20550662.369          36.080  
     -8840.436    20265970.460          40.327  
    -51589.417    22241554.493          43.974  
   -465843.277    25920030.133          41.337  
    126949.727    23020194.341          47.519  
     14344.4971   22418610.422          31.728  
 18 10  5  6 29 17.0000143  0  7G 2G 5G13G15G21G29G30
     36868.2781   21204405.391          37.478  
      -355.2931   20550656.070          37.811  
     -9516.1791   20265837.943          41.072  
    -54300.839    22241042.137          45.912  
   -469139.969    25919405.363          40.223  
    127884.503    23020367.622          45.875  
     15122.2131   22418767.509          30.460  
 18 10  5  6 29 18.0000143  0  7G 2G 5G13G15G21G29G30
     38812.8281   21204779.227          36.851  
      -371.8561   20550656.680          36.818  
    -10191.662    20265713.541          41.130  
    -57012.340    22240519.014          45.989  
   -472436.663    25918778.499          41.249  
    128819.408    23020549.296          46.733  
     15901.8601   22418908.419          29.875  
 18 10  5  6 29 19.0000143  0  7G 2G 5G13G15G21G29G30
     40758.7191   21205147.374          37.290  
      -387.5331   20550653.382          35.445  
    -10866.658    20265584.619          41.630  
    -59723.228    22240007.862          45.991  
   -475733.137    25918149.541          41.112  
    129755.093    23020724.374          45.583  
     16682.0381   22419057.409          29.120  
 18 10  5  6 29 20.0000143  0  7G 2G 5G13G15G21G29G30
     42704.2721   21205518.523          37.132  
      -403.1451   20550642.877          36.146  
    -11540.7191   20265454.510          41.298  
    -62433.496    22239493.412          46.669  
   -479029.352    25917526.271          43.048  
    130691.848    23020905.455          45.008  
         4.0751   22419208.807          31.386  
 18 10  5  6 29 21.0000143  0  7G 2G 5G13G15G21G29G30
     44650.7851   21205890.265          36.779  
      -418.0421   20550646.489          34.798  
    -12214.250    20265331.294          40.977  
    -65143.391    22238978.073          46.323  
   -482325.569    25916893.998          41.359  
    131628.981    23021084.739          46.796  
       784.1381   22419354.796          33.078  
 18 10  5  6 29 22.0000143  0  7G 2G 5G13G15G21G29G30
     46598.1351   21206259.005          37.215  
      -432.994    20550638.393          37.317  
    -12886.871    20265197.293          41.096  
    -67852.369    22238459.435          45.381  
   -485621.226    25916268.931          39.867  
    132567.181    23021258.019          47.617  
      1563.9251   22419505.304          31.549  
