     2.11           OBSERVATION DATA    G (GPS)             RINEX VERSION / TYPE
AndroidGNSSReceiver RITSUMEIKAN KUBOLAB 1543214039865       PGM / RUN BY / DATE
flounder                                                    MARKER NAME
GRitzLogger         KUBOLAB                                 OBSERVER / AGENCY
0                   Android Receiver                        REC # / TYPE / VERS
0                   Android Anttena                         ANT # / TYPE
        0.0000        0.0000        0.0000                  APPROX POSITION XYZ
        0.0000        0.0000        0.0000                  ANTENNA: DELTA H/E/N
1     0                                                     WAVELENGTH FACT L1/2
3         L1    C1    S1                                    # / TYPES OF OBSERV
1.000                                                       INTERVAL
  2018    11    26     6    29   45.9997000     GPS         TIME OF FIRST OBS
                                                            END OF HEADER
 18 11 26  6 29 45.9997000  0  7G10G12G13G15G20G21G24
   -674934.256    22596155.307          41.068  
   -921913.462    22323528.840          36.325  
    368498.480    24000530.678          41.441  
    155004.128    21286779.667          44.794  
   -436403.408    20611853.909          40.065  
    478136.727    23342030.548          29.072  
    250656.567    20217051.227          47.808  
 18 11 26  6 29 46.9997000  0  7G10G12G13G15G20G21G24
   -678017.575    22595580.601          40.538  
   -925117.154    22322891.480          37.330  
    370859.720    24000980.065          38.286  
    156362.800    21287041.084          45.398  
   -437860.929    20611572.402          40.966  
    479856.9311   23342376.507          25.706  
    251598.645    20217227.801          43.306  
 18 11 26  6 29 47.9997000  0  7G10G12G13G15G20G21G24
   -681099.146    22594986.413          43.853  
   -928323.161    22322302.989          37.475  
    373218.289    24001422.558          43.878  
    157719.672    21287301.005          47.154  
   -439316.928    20611309.187          40.953  
    481576.9301   23342710.775          23.295  
    252540.315    20217411.875          46.724  
 18 11 26  6 29 48.9997000  0  7G10G12G13G15G20G21G24
   -684180.269    22594395.823          44.249  
   -931529.815    22321667.129          37.282  
    375575.003    24001871.648          39.050  
    159074.6931   21287560.329          45.494  
   -440772.814    20611023.183          41.082  
    483300.323    23343001.875          25.180  
    253481.053    20217589.051          45.398  
 18 11 26  6 29 49.9997000  0  7G10G12G13G15G20G21G24
   -687260.117    22593810.630          44.659  
   -934735.8371   22321079.236          34.686  
    377932.531    24002315.041          35.174  
    160431.1651   21287819.949          41.372  
   -442226.9011   20610744.075          38.049  
    485023.0291   23343395.500          23.023  
    254423.653    20217771.327          45.830  
 18 11 26  6 29 50.9997000  0  7G10G12G13G15G20G21G24
   -690339.025    22593225.734          45.673  
   -937940.2921   22320464.661          33.038  
    380291.056    24002776.721          39.638  
    161789.034    21288079.865          44.866  
   -443679.5511   20610469.169          40.804  
    486746.961    23343671.610          30.966  
    255367.475    20217947.304          45.931  
 18 11 26  6 29 51.9997000  0  7G10G12G13G15G20G21G24
   -693418.225    22592639.040          45.314  
   -941145.0951   22319867.475          33.132  
    382649.507    24003226.710          39.251  
    163146.772    21288339.490          44.758  
   -445132.1351   20610196.954          39.688  
    488470.728    23344019.070          29.021  
    256311.499    20218129.580          46.157  
 18 11 26  6 29 52.9997000  0  7G10G12G13G15G20G21G24
   -696496.996    22592055.644          44.193  
   -944349.292    22319255.300          38.068  
    385007.8281   24003670.705          33.604  
    164504.5171   21288594.311          43.751  
   -446584.129    20609913.650          40.629  
    490193.0261   23344430.987          26.124  
    257255.8011   20218314.548          45.442  
 18 11 26  6 29 53.9997000  0  7G10G12G13G15G20G21G24
   -699575.679    22591470.748          45.070  
   -947553.422    22318631.432          34.366  
    387365.781    24004125.488          36.410  
    165862.2321   21288854.533          41.813  
   -448035.6741   20609642.338          38.093  
    491909.7111   23344659.428          24.089  
    258200.464    20218483.632          46.219  
 18 11 26  6 29 54.9997000  0  7G10G12G13G15G20G21G24
   -702654.213    22590882.257          43.452  
   -950757.274    22318009.363          36.684  
    389723.883    24004562.886          32.744  
    167220.1021   21289111.452          44.007  
   -449486.863    20609364.731          40.909  
    493634.8271   23344993.098          24.144  
    259145.4311   20218666.506          44.177  
 18 11 26  6 29 55.9997000  0  7G10G12G13G15G20G21G24
   -705732.274    22590294.664          40.645  
   -953960.665    22317408.277          37.007  
    392082.376    24005029.361          34.581  
    168578.477    21289374.972          46.786  
   -450937.234    20609086.523          41.899  
    495360.140    23345320.468          27.346  
    260091.310    20218849.079          42.916  
 18 11 26  6 29 56.9997000  0  7G10G12G13G15G20G21G24
   -708810.083    22589718.763          42.542  
   -957163.873    22316807.492          38.482  
    394440.797    24005469.456          36.043  
    169937.004    21289626.194          45.396  
   -452387.177    20608812.214          41.574  
    497085.359    23345667.331          28.583  
    261037.3531   20219032.254          42.817  
 18 11 26  6 29 57.9997000  0  7G10G12G13G15G20G21G24
   -711887.853    22589120.374          42.143  
   -960366.675    22316185.723          37.382  
    396799.235    24005915.549          34.110  
    171295.725    21289888.816          44.716  
   -453836.687    20608539.105          40.589  
    498811.6291   23346002.798          26.159  
    261983.5991   20219204.636          43.143  
 18 11 26  6 29 58.9997000  0  7G10G12G13G15G20G21G24
   -714965.394    22588539.076          42.536  
   -963569.099    22315570.250          37.415  
    399157.748    24006369.734          36.243  
    172654.773    21290149.636          45.365  
   -455285.591    20608265.691          40.991  
    500538.1441   23346300.490          25.710  
    262930.679    20219391.405          43.618  
 18 11 26  6 29 59.9997000  0  7G10G12G13G15G20G21G24
   -718042.434    22587956.579          42.922  
   -966771.373    22314976.663          38.058  
    401516.246    24006806.531          35.546  
    174013.915    21290401.761          45.148  
   -456733.723    20607989.585          41.157  
    502265.165    23346646.153          24.278  
    263878.0991   20219564.983          43.442  
 18 11 26  6 30  0.9997000  0  7G10G12G13G15G20G21G24
   -721119.314    22587370.488          44.409  
   -969972.950    22314363.886          36.668  
    403875.009    24007261.318          33.589  
    175373.438    21290663.479          43.529  
   -458181.571    20607705.979          40.027  
    503992.9741   23346969.627          23.345  
    264825.927    20219750.256          44.938  
 18 11 26  6 30  1.9997000  0  7G10G12G13G15G20G21G24
   -724195.307    22586787.092          43.009  
   -973174.015    22313760.104          38.072  
    406234.5021   24007717.000          32.450  
    176733.964    21290921.001          45.577  
   -459627.987    20607437.368          41.191  
    505725.5691   23347289.507          22.696  
    265775.0911   20219926.835          43.235  
 18 11 26  6 30  2.9997000  0  7G10G12G13G15G20G21G24
   -727271.342    22586199.198          43.671  
   -976374.691    22313145.830          37.450  
    408593.3201   24008161.894          31.495  
    178094.473    21291180.922          44.186  
   -461074.237    20607157.658          40.847  
    507453.6871   23347645.958          23.316  
    266724.1531   20220108.208          43.940  
 18 11 26  6 30  3.9997000  0  6G10G12G13G15G20G24
   -730346.8101   22585612.505          41.509  
   -979574.990    22312528.258          38.361  
    410952.702    24008603.785          34.924  
    179455.140    21291438.142          45.613  
   -462519.650    20606884.549          41.919  
    267673.893    20220293.180          43.118  
 18 11 26  6 30  4.9997000  0  6G10G12G13G15G20G24
   -733421.381    22585028.507          41.646  
   -982774.948    22311926.274          38.584  
    413312.308    24009062.770          35.141  
    180816.256    21291701.361          45.893  
   -463964.031    20606609.338          41.640  
    268624.7341   20220473.057          43.723  
 18 11 26  6 30  5.9997000  0  6G10G12G13G15G20G24
   -736496.268    22584442.415          41.591  
   -985974.246    22311313.496          38.398  
    415672.069    24009497.468          36.174  
    182177.769    21291957.382          47.534  
   -465408.194    20606334.431          42.276  
    269575.605    20220648.733          43.832  
 18 11 26  6 30  6.9997000  0  6G10G12G13G15G20G24
   -739570.2771   22583859.617          40.690  
   -989173.025    22310710.316          38.975  
    418032.384    24009952.853          36.973  
    183539.913    21292218.804          47.379  
   -466851.234    20606061.920          41.772  
    270527.451    20220836.406          45.383  
 18 11 26  6 30  7.9997000  0  7G10G12G13G15G20G24G25
   -742643.778    22583275.920          41.490  
   -992371.431    22310099.336          38.666  
    420392.796    24010412.435          37.244  
    184902.380    21292473.926          46.604  
   -468293.652    20605781.011          41.505  
    271479.9571   20221018.979          43.915  
    -15707.301    24463401.237          29.497  
 18 11 26  6 30  8.9997000  0  7G10G12G13G15G20G24G25
   -745717.300    22582685.929          40.951  
   -995569.010    22309476.970          38.009  
    422753.449    24010849.833          38.300  
    186265.196    21292735.644          46.499  
   -469735.437    20605508.203          41.596  
    272432.655    20221199.453          44.360  
    -19615.778    24462680.539          29.683  
 18 11 26  6 30  9.9997000  0  7G10G12G13G15G20G24G25
   -748790.109    22582101.037          43.055  
   -998766.441    22308883.680          38.768  
    425114.069    24011306.715          35.876  
    187628.295    21292997.363          46.477  
   -471176.348    20605232.694          41.568  
    273386.1571   20221377.232          43.663  
    -23524.522    24461910.670          29.984  
 18 11 26  6 30 10.9997000  0  7G10G12G13G15G20G24G25
   -751862.608    22581519.438          45.327  
  -1001963.495    22308270.902          36.744  
    427475.1651   24011766.297          33.004  
    188992.013    21293249.488          42.663  
   -472616.755    20604961.378          39.694  
    274340.258    20221559.202          45.315  
    -27433.301    24461164.787          30.531  
 18 11 26  6 30 11.9997000  0  7G10G12G13G15G20G24G25
   -754934.544    22580932.142          44.531  
  -1005160.000    22307671.618          37.731  
    429836.099    24012203.395          33.574  
    190355.6671   21293512.105          44.557  
   -474056.3761   20604685.569          40.513  
    275294.8591   20221734.882          44.533  
    -31341.649    24460428.496          29.910  
 18 11 26  6 30 12.9997000  0  7G10G12G13G15G20G24G25
   -758005.851    22580349.048          43.678  
  -1008356.482    22307050.748          38.234  
    432197.443    24012637.796          35.705  
    191719.9211   21293777.723          45.027  
   -475495.1191   20604417.555          40.297  
    276250.6641   20221927.049          44.408  
    -35250.601    24459680.515          30.302  
 18 11 26  6 30 13.9997000  0  7G10G12G13G15G20G24G25
   -761077.805    22579765.050          44.190  
  -1011552.539    22306438.573          37.203  
    434558.396    24013103.071          36.087  
    193084.066    21294028.348          44.788  
   -476934.108    20604137.850          40.535  
    277205.7861   20222106.027          44.810  
    -39159.319    24458934.631          30.727  
 18 11 26  6 30 14.9997000  0  7G10G12G13G15G20G24G25
   -764149.337    22579179.857          44.425  
  -1014748.424    22305844.384          37.783  
    436919.610    24013555.459          34.228  
    194448.393    21294295.166          44.899  
   -478372.1931   20603865.937          40.135  
    278161.4031   20222282.902          44.164  
    -43068.161    24458198.638          31.854  
 18 11 26  6 30 15.9997000  0  7G10G12G13G15G20G24G25
   -767220.899    22578596.762          44.603  
  -1017944.203    22305232.209          37.303  
    439280.461    24013993.455          33.254  
    195812.727    21294556.282          44.403  
   -479810.121    20603589.831          39.928  
    279117.6381   20222469.375          44.748  
    -46977.249    24457445.260          31.242  
 18 11 26  6 30 16.9997000  0  7G10G12G13G15G20G24G25
   -770292.466    22578012.167          45.098  
  -1021139.715    22304626.926          36.714  
    441640.917    24014452.736          34.039  
    197176.6761   21294813.804          43.766  
   -481248.0711   20603320.617          39.888  
    280073.651    20222652.847          45.660  
    -50886.324    24456718.266          32.969  
 18 11 26  6 30 17.9997000  0  7G10G12G13G15G20G24G25
   -773363.523    22577428.169          45.177  
  -1024335.030    22304021.046          35.737  
    444001.760    24014907.524          33.536  
    198541.441    21295073.127          42.858  
   -482684.5641   20603046.906          39.741  
    281030.637    20222829.125          45.726  
    -54795.582    24455996.063          33.707  
 18 11 26  6 30 18.9997000  0  7G10G12G13G15G20G24G25
   -776435.030    22576839.377          44.361  
  -1027530.243    22303400.477          37.695  
    446362.393    24015338.924          33.410  
    199905.933    21295336.045          43.994  
   -484121.489    20602770.198          40.213  
    281987.3031   20223010.201          43.999  
    -58705.092    24455216.902          32.775  
 18 11 26  6 30 19.9997000  0  7G10G12G13G15G20G24G25
   -779506.145    22576259.279          42.761  
  -1030725.409    22302799.391          39.254  
    448722.632    24015797.607          37.217  
    201270.330    21295592.367          46.851  
   -485557.756    20602496.186          42.102  
    282944.3311   20223201.469          42.874  
    -62614.923    24454451.535          31.965  
 18 11 26  6 30 20.9997000  0  7G10G12G13G15G20G24G25
   -782577.087    22575677.084          43.774  
  -1033920.116    22302193.210          38.088  
    451083.010    24016245.799          36.974  
    202634.982    21295851.686          45.485  
   -486993.617    20602229.673          41.355  
    283902.0081   20223379.243          43.392  
    -66524.361    24453732.333          33.104  
 18 11 26  6 30 21.9997000  0  7G10G12G13G15G20G24G25
   -785647.861    22575089.788          44.864  
  -1037114.952    22301586.732          37.166  
    453442.590    24016688.890          32.253  
    203999.860    21296111.908          44.708  
   -488429.048    20601950.566          40.423  
    284859.6671   20223564.516          44.278  
    -70434.741    24452980.451          33.391  
 18 11 26  6 30 22.9997000  0  7G10G12G13G15G20G24G25
   -788717.761    22574504.896          44.327  
  -1040309.499    22300976.951          37.903  
    455803.0601   24017131.982          35.151  
    205365.236    21296368.531          45.470  
   -489863.3611   20601686.448          40.716  
    285818.4191   20223742.294          43.869  
    -74344.831    24452255.552          32.281  
 18 11 26  6 30 23.9997000  0  7G10G12G13G15G20G24G25
   -791787.413    22573919.397          44.049  
  -1043503.674    22300357.582          38.126  
    458163.511    24017599.962          35.975  
    206730.545    21296633.246          45.534  
   -491297.1411   20601405.242          40.935  
    286777.5241   20223922.769          44.193  
    -78254.886    24451512.369          32.572  
 18 11 26  6 30 24.9997000  0  7G10G12G13G15G20G24G25
   -794857.479    22573334.204          44.807  
  -1046697.165    22299749.001          37.542  
    460523.979    24018037.657          36.055  
    208095.938    21296891.069          44.993  
   -492730.969    20601133.032          40.695  
    287736.4761   20224110.437          43.858  
    -82164.521    24450778.177          33.676  
 18 11 26  6 30 25.9997000  0  7G10G12G13G15G20G24G25
   -797926.752    22572753.505          44.338  
  -1049890.707    22299152.714          39.075  
    462884.421    24018478.650          35.884  
    209461.846    21297149.489          46.099  
   -494163.629    20600863.518          40.915  
    288696.285    20224287.614          43.167  
    -86074.692    24450045.486          33.251  
 18 11 26  6 30 26.9997000  0  7G10G12G13G15G20G24G25
   -800995.995    22572165.611          44.687  
  -1053084.058    22298538.440          37.279  
    465245.793    24018943.031          33.374  
    210827.927    21297410.907          46.113  
   -495596.054    20600591.307          40.604  
    289656.8101   20224472.887          43.616  
    -89985.053    24449290.607          33.262  
 18 11 26  6 30 27.9997000  0  7G10G12G13G15G20G24G25
   -804065.045    22571585.815          43.853  
  -1056276.713    22297941.556          38.391  
    467606.6061   24019391.218          33.987  
    212193.987    21297666.631          46.290  
   -497028.050    20600316.994          41.748  
    290617.0181   20224655.460          43.865  
    -93895.058    24448543.524          33.847  
 18 11 26  6 30 28.9997000  0  7G10G12G13G15G20G24G25
   -807133.598    22570998.222          43.684  
  -1059469.216    22297334.476          37.581  
    469967.377    24019844.806          33.410  
    213560.569    21297932.245          44.929  
   -498459.096    20600049.879          42.303  
    291578.4831   20224844.328          42.736  
    -97804.887    24447782.350          33.779  
 18 11 26  6 30 29.9997000  0  7G10G12G13G15G20G24G25
   -810201.904    22570414.525          43.268  
  -1062661.376    22296726.794          37.952  
    472328.430    24020285.502          36.667  
    214927.494    21298190.966          45.764  
   -499889.655    20599771.073          42.226  
    292540.3301   20225021.806          43.601  
   -101715.174    24447046.060          32.503  
 18 11 26  6 30 30.9997000  0  7G10G12G13G15G20G24G25
   -813270.266    22569836.225          42.114  
  -1065852.954    22296112.821          37.627  
    474689.216    24020725.597          38.729  
    216294.318    21298452.685          47.324  
   -501319.970    20599499.460          41.997  
    293501.9851   20225208.279          44.676  
   -105625.023    24446275.292          31.942  
 18 11 26  6 30 31.9997000  0  7G10G12G13G15G20G24G25
   -816337.940    22569248.332          43.297  
  -1069044.428    22295506.042          38.036  
    477050.121    24021190.872          37.134  
    217661.613    21298714.704          46.394  
   -502749.252    20599227.848          41.866  
    294464.8381   20225394.451          42.921  
   -109535.076    24445561.788          31.398  
 18 11 26  6 30 32.9997000  0  7G10G12G13G15G20G24G25
   -819405.445    22568667.034          43.999  
  -1072235.870    22294896.562          37.852  
    479411.107    24021627.372          35.343  
    219029.053    21298963.832          45.435  
   -504178.245    20598960.436          41.281  
    295427.6871   20225569.529          43.639  
   -113445.594    24444791.321          30.602  
 18 11 26  6 30 33.9997000  0  7G10G12G13G15G20G24G25
   -822472.798    22568080.341          42.985  
  -1075426.943    22294294.281          38.467  
    481771.971    24022090.849          36.367  
    220396.446    21299235.144          46.786  
   -505606.743    20598680.727          41.401  
    296390.8171   20225751.800          42.583  
   -117355.725    24444071.522          31.317  
 18 11 26  6 30 34.9997000  0  7G10G12G13G15G20G24G25
   -825539.358    22567497.246          42.733  
  -1078617.791    22293686.900          39.287  
    484133.047    24022534.543          38.857  
    221764.546    21299489.367          46.607  
   -507034.203    20598412.412          41.621  
    297355.2361   20225939.172          44.028  
   -121266.2891   24443312.446          28.939  
 18 11 26  6 30 35.9997000  0  7G10G12G13G15G20G24G25
   -828606.216    22566909.051          42.857  
  -1081808.013    22293084.916          39.144  
    486494.055    24022984.833          38.828  
    223132.552    21299754.384          46.898  
   -508461.525    20598135.704          41.607  
    298319.4721   20226123.246          43.563  
   -125176.466    24442575.855          29.129  
 18 11 26  6 30 36.9997000  0  7G10G12G13G15G20G24G25
   -831672.6581   22566333.452          42.907  
  -1084998.110    22292477.238          39.633  
    488855.085    24023427.026          38.129  
    224500.792    21300008.908          47.194  
   -509888.237    20597872.188          41.891  
    299283.8251   20226306.717          44.106  
   -129086.882    24441835.669          29.840  
 18 11 26  6 30 37.9997000  0  7G10G12G13G15G20G24G25
   -834738.6611   22565748.555          43.116  
  -1088187.855    22291863.562          39.132  
    491216.189    24023874.615          36.617  
    225869.241    21300274.226          47.148  
   -511314.132    20597603.276          41.952  
    300249.3301   20226489.290          43.727  
   -132997.194    24441111.070          29.612  
 18 11 26  6 30 38.9997000  0  7G10G12G13G15G20G24G25
   -837804.926    22565166.359          44.120  
  -1091377.265    22291247.190          37.533  
    493577.239    24024337.796          36.217  
    227237.794    21300529.649          45.809  
   -512740.022    20597323.566          41.629  
    301214.6171   20226667.370          42.399  
   -136907.339    24440327.713          31.812  
 18 11 26  6 30 39.9997000  0  7G10G12G13G15G20G24G25
   -840870.972    22564581.463          45.413  
  -1094566.359    22290657.198          37.851  
    495938.168    24024779.090          36.522  
    228606.348    21300794.665          43.815  
   -514165.423    20597054.353          41.138  
    302180.294    20226859.833          45.011  
   -140817.732    24439572.834          31.866  
 18 11 26  6 30 40.9997000  0  7G10G12G13G15G20G24G25
   -843936.114    22563998.665          44.422  
  -1097755.745    22290039.923          37.926  
    498299.266    24025229.079          37.086  
    229975.666    21301050.089          43.871  
   -515589.646    20596784.839          40.699  
    303147.050    20227040.010          44.345  
   -144728.738    24438857.231          33.160  
 18 11 26  6 30 41.9997000  0  7G10G12G13G15G20G24G25
   -847001.381    22563411.373          44.792  
  -1100944.509    22289438.841          37.957  
    500660.439    24025676.668          39.185  
    231344.9971   21301311.209          43.354  
   -517013.6681   20596514.129          40.070  
    304113.7101   20227229.481          44.890  
   -148639.5001   24438146.121          33.113  
 18 11 26  6 30 42.9997000  0  7G10G12G13G15G20G24G25
   -850066.514    22562831.874          44.826  
  -1104132.851    22288830.862          38.376  
    503021.523    24026123.058          40.414  
    232713.9611   21301576.823          44.317  
   -518437.522    20596247.311          40.719  
    305080.7221   20227408.755          44.599  
   -152550.042    24437398.441          32.000  
 18 11 26  6 30 43.9997000  0  7G10G12G13G15G20G24G25
   -853131.102    22562249.377          45.210  
  -1107321.100    22288227.382          37.589  
    505382.627    24026576.044          39.714  
    234083.8381   21301832.548          44.592  
   -519860.0861   20595968.505          40.624  
    306048.7811   20227595.224          45.421  
   -156460.811    24436644.460          29.892  
 18 11 26  6 30 44.9997000  0  7G10G12G13G15G20G24G25
   -856196.254    22561662.683          43.577  
  -1110508.619    22287619.398          37.794  
    507744.346    24027035.329          36.567  
    235453.905    21302092.168          47.173  
   -521282.985    20595704.989          41.848  
    307016.6781   20227772.104          44.037  
   -160371.613    24435887.487          30.510  
