     3.03           OBSERVATION DATA    M                   RINEX VERSION / TYPE
G = GPS  R = GLONASS  E = GALILEO  J = QZSS  C = BDS        COMMENT             
S = SBAS payload  M = Mixed                                 COMMENT             
GRitz Logger        MI 8                1568284783988       UTC PGM / RUN BY / DATE
                                                            MARKER NAME         
                                                            MARKER NUMBER       
                                                            OBSERVER / AGENCY   
                                                            REC # / TYPE / VERS 
                                                            ANT # / TYPE        
        0.0000        0.0000        0.0000                  APPROX POSITION XYZ
        0.0000        0.0000        0.0000                  ANTENNA: DELTA H/E/N
     0                                                      RCV CLOCK OFFS APPL 
G    6 C1C L1C S1C C5X L5X S5X                              SYS / # / OBS TYPES 
J    6 C1C L1C S1C C5X L5X S5X                              SYS / # / OBS TYPES 
E    6 C1X L1X S1X C5X L5X S5X                              SYS / # / OBS TYPES 
  2019     9    12    10    40    2.0002386     GPS         TIME OF FIRST OBS   
 24 R01  1 R02 -4 R03  5 R04  6 R05  1 R06 -4 R07  5 R08  6 GLONASS SLOT / FRQ #
    R09 -2 R10 -7 R11  0 R12 -1 R13 -2 R14 -7 R15  0 R16 -1 GLONASS SLOT / FRQ #
    R17  4 R18 -3 R19  3 R20  2 R21  4 R22 -3 R23  3 R24  2 GLONASS SLOT / FRQ #
                                                            END OF HEADER       
> 2019  9 12 10 40  2.0002386  0 19
G10  22529871.806     -168787.416          30.125  
G12  22316471.139     -177964.595          46.051  
G15  21361528.425       62304.068          38.774  
G20  20544730.080      -83520.441          33.343  
G21  23378917.612       71764.124          34.025  
G24  20078166.383       18606.564          42.261  
G25  24713479.413     -214211.649          29.001  
G32  25071329.981     -149999.481          36.440  
J01  38091491.516      -53471.712          39.578  
E27  23887952.016      -27965.552          38.884  
> 2019  9 12 10 40  3.0002386  0 19
G10  22529255.726     -172060.068          27.957  
G12  22315821.188     -181374.369          46.511  
G15  21361762.572       63527.832          39.656  
G20  20544430.896      -85134.120          31.609  
G21  23379170.047       73174.416          36.582  
G24  20078234.125       18986.181          41.823  
G25  24712679.879     -218380.569          30.539  
G32  25070774.471     -152914.629          33.350  
J01  38091293.648      -54510.564          38.462  
E27  23887560.485      -30030.756          37.362  
> 2019  9 12 10 40  4.0002386  0 19
G10  22528633.661     -175336.676          27.546  
G12  22315174.239     -184783.999          46.586  
G13  24162048.659       10405.161          31.456  
G15  21361993.700       64753.310          38.265  
G20  20544119.707      -86746.586          30.974  
G21  23379442.846       74583.925          36.785  
G24  20078305.776       19366.496          41.666  
G25  24711880.624     -222550.590          30.595  
G32  25070217.146     -155831.494          33.334  
J01  38091096.984      -55549.493          38.851  
E27  23887168.955      -32092.159          37.056  
E30  23293200.956       10215.912          39.436  
> 2019  9 12 10 40  5.0002386  0 19
G10  22528010.688     -178611.319          26.816  
G12  22314525.178     -188193.294          47.005  
G13  24162461.478       12556.794          28.267  
G15  21362234.740       65978.386          36.812  
G20  20543812.112      -88354.105          33.664  
G21  23379711.772       75992.986          35.052  
G24  20078378.334       19747.135          41.602  
G25  24711087.075     -226720.924          31.948  
G32  25069666.138     -158751.934          32.979  
J01  38090898.226      -56588.410          38.431  
E27  23886775.627      -34154.128          37.758  
E30  23293341.256       10960.115          39.304  
> 2019  9 12 10 40  6.0002386  0 19
G10  22527385.918     -181879.774          25.553  
G12  22313875.227     -191602.081          46.216  
G13  24162870.389       14701.547          28.366  
G15  21362460.179       67203.950          41.430  
G20  20543506.925      -89960.655          33.962  
G21  23379982.774       77402.415          35.698  
G24  20078454.783       20128.330          41.541  
G25  24710296.825     -230889.538          28.178  
G32  25069109.424     -161667.297          28.613  
J01  38090705.157      -57627.485          39.290  
E27  23886381.706      -36213.586          39.816  
E30  23293482.760       11704.949          39.980  
> 2019  9 12 10 40  7.0002386  0 19
G10  22526766.243     -185150.641          28.147  
G12  22313228.871     -195010.933          45.296  
G13  24163282.912       16848.586          26.757  
G15  21362695.216       68430.264          42.043  
G20  20543202.349      -91567.319          34.018  
G21  23380249.291       78811.950          34.249  
G24  20078526.137       20507.038          41.078  
G25  24709509.872     -235055.224          27.190  
G32  25068574.295     -164589.689          27.144  
J01  38090506.696      -58666.441          38.406  
E27  23885990.175      -38274.143          41.654  
> 2019  9 12 10 40  8.0002386  0 19
G10  22526135.784     -188420.810          28.955  
G12  22312580.421     -198417.527          42.850  
G15  21362929.363       69657.768          43.578  
G20  20542895.661      -93172.409          32.153  
G21  23380519.403       80221.492          33.913  
G24  20078597.788       20886.502          39.552  
G25  24708713.322     -239225.329          29.886  
G32  25067994.791     -167506.533          33.922  
J01  38090307.327      -59704.580          38.116  
E27  23885599.849      -40333.278          42.339  
> 2019  9 12 10 40  9.0002386  0 19
G10  22525511.625     -191688.969          30.607  
G12  22311932.268     -201825.448          43.320  
G15  21363162.603       70884.734          44.622  
G20  20542592.272      -94776.034          30.653  
G21  23380784.419       81631.415          32.923  
G24  20078670.921       21269.304          39.025  
G25  24707918.570     -243395.942          27.719  
G32  25067440.781     -170422.891          35.476  
J01  38090107.976      -60743.739          37.449  
E27  23885207.411      -42392.393          42.601  
> 2019  9 12 10 40 10.0002386  0 19
G10  22524888.042     -194954.397          29.607  
G12  22311282.317     -205232.613          42.772  
G15  21363393.731       72112.349          44.590  
G20  20542287.975      -96379.765          31.642  
G21  23381054.531       83041.596          33.249  
G24  20078746.777       21651.794          39.298  
G25  24707121.723     -247563.357          28.362  
G32  25066884.957     -173340.238          31.490  
J01  38089909.514      -61782.147          36.741  
E27  23884814.397      -44451.452          42.446  
> 2019  9 12 10 40 11.0002386  0 19
G10  22524269.274     -198221.767          28.513  
G12  22310632.977     -208638.654          43.221  
G15  21363629.379       73340.849          44.066  
G20  20541979.193      -97984.614          33.343  
G21  23381323.456       84451.047          36.177  
G24  20078818.725       22036.443          40.278  
G25  24706320.671     -251733.848          30.656  
G32  25066331.541     -176260.899          29.377  
J01  38089714.037      -62818.034          37.888  
E27  23884423.460      -46509.043          42.789  
> 2019  9 12 10 40 12.0002386  0 19
G10  22523646.005     -201491.923          28.527  
G12  22309989.029     -212043.601          43.624  
G15  21363862.304       74569.364          43.993  
G20  20541673.396      -99587.991          33.344  
G21  23381591.160       85861.177          36.500  
G24  20078890.375       22419.723          40.333  
G25  24705524.417     -255905.009          32.824  
G32  25065782.016     -179174.016          28.096  
J01  38089517.076      -63856.862          37.320  
E27  23884031.039      -48566.872          41.759  
> 2019  9 12 10 40 13.0002386  0 19
G10  22523028.442     -204761.137          28.273  
G12  22309338.171     -215449.664          46.375  
G15  21364095.544       75797.988          42.723  
G20  20541370.617     -101190.654          35.097  
G21  23381860.086       87271.833          33.560  
G24  20078964.731       22805.340          39.999  
G25  24704731.479     -260075.805          32.993  
G32  25065232.805     -182091.881          28.847  
J01  38089317.725      -64894.877          37.523  
E27  23883640.399      -50624.046          41.888  
> 2019  9 12 10 40 14.0002386  0 19
G10  22522399.169     -208029.723          30.252  
G12  22308689.127     -218854.875          43.257  
G15  21364332.692       77028.324          44.258  
G20  20541065.727     -102792.707          34.981  
G21  23382127.493       88682.231          38.672  
G24  20079039.976       23191.477          39.578  
G25  24703943.323     -264245.219          33.286  
G32  25064668.902     -185009.445          31.164  
J01  38089122.248      -65931.901          37.215  
E27  23883249.182      -52680.746          41.941  
> 2019  9 12 10 40 15.0002386  0 19
G10  22521780.699     -211296.523          31.033  
G12  22308043.975     -222259.966          41.543  
G15  21364566.229       78257.891          44.765  
G20  20540762.337     -104394.372          35.670  
G21  23382396.715       90098.313          39.875  
G24  20079107.124       23578.297          38.946  
G25  24703151.572     -268413.567          33.582  
G32  25064110.687     -187926.092          33.427  
J01  38088924.083      -66969.404          36.321  
E27  23882859.449      -54736.999          41.716  
> 2019  9 12 10 40 16.0002386  0 19
G10  22521160.134     -214563.160          31.274  
G12  22307394.914     -225664.210          41.225  
G15  21364798.264       79487.297          43.712  
G20  20540456.836     -105995.455          35.537  
G21  23382666.512       91510.867          41.513  
G24  20079184.481       23964.502          39.213  
G25  24702357.115     -272577.800          34.625  
G32  25063554.566     -190842.718          34.103  
J01  38088725.622      -68007.464          35.730  
E27  23882465.214      -56792.218          40.794  
> 2019  9 12 10 40 17.0002386  0 19
G10  22520538.662     -217829.306          30.986  
G12  22306744.667     -229069.471          42.636  
G15  21365035.692       80716.918          44.319  
G20  20540152.260     -107595.463          36.416  
G21  23382930.342       92923.935          40.366  
G24  20079257.022       24344.873          39.677  
G25  24701558.175     -276748.795          34.361  
G32  25062999.352     -193759.251          35.607  
J01  38088533.757      -69045.296          37.650  
E27  23882075.184      -58846.834          39.382  
> 2019  9 12 10 40 18.0002386  0 19
G10  22519914.189     -221096.180          31.995  
G12  22306099.812     -232474.517          41.687  
G13  24167771.998       10399.641          27.399  
G15  21365268.338       81946.495          44.574  
G20  20539843.164     -109195.556          35.638  
G21  23383204.346       94337.432          40.419  
G24  20079334.675       24732.656          40.301  
G25  24700768.517     -280919.769          32.142  
G32  25062445.936     -196675.270          37.101  
J01  38088331.107      -70083.185          37.736  
E27  23881684.561      -60901.384          40.895  
> 2019  9 12 10 40 19.0002386  0 19
G10  22519294.828     -224367.721          28.888  
G12  22305449.861     -235879.002          42.759  
G13  24168184.522       12552.052          26.087  
G15  21365500.374       83175.268          42.832  
G20  20539540.368     -110793.304          33.642  
G21  23383469.659       95751.968          37.311  
G24  20079404.825       25120.161          41.431  
G25  24699972.875     -285090.488          31.407  
G32  25061891.316     -199590.134          34.022  
J01  38088133.833      -71121.815          38.901  
E27  23881293.327      -62957.541          40.643  
> 2019  9 12 10 40 20.0002386  0 19
G10  22518679.952     -227634.749          28.454  
G12  22304803.505     -239282.926          42.622  
G15  21365733.613       84405.140          41.614  
G20  20539235.792     -112387.696          32.254  
G21  23383742.179       97167.085          38.468  
G24  20079480.961       25504.625          41.088  
G25  24699180.809     -289260.918          34.162  
G32  25061333.711     -202505.443          37.182  
J01  38087935.982      -72160.686          37.446  
E27  23880905.094      -65011.241          40.600  
> 2019  9 12 10 40 21.0002386  0 19
G10  22518056.072     -230901.360          27.959  
G12  22304156.852     -242686.573          40.955  
G15  21365968.354       85634.971          39.970  
G20  20538935.997     -113986.070          32.874  
G21  23384009.586       98582.674          38.412  
G24  20079556.223       25893.637          41.148  
G25  24698381.869     -293431.468          36.019  
G32  25060782.982     -205421.361          39.014  
J01  38087739.615      -73199.149          37.733  
E07  24052079.690       10139.470          38.695  
E27  23880509.969      -67065.207          39.966  
> 2019  9 12 10 40 22.0002386  0 19
G10  22517435.804     -234166.105          27.964  
G12  22303509.013     -246090.118          41.668  
G15  21366202.797       86863.131          40.790  
G20  20538634.702     -115584.064          31.982  
G21  23384278.511       99997.602          39.247  
G24  20079630.265       26281.178          40.589  
G25  24697591.025     -297602.830          34.040  
G32  25060225.675     -208338.119          38.224  
J01  38087540.246      -74235.501          37.436  
E07  24052139.352       10457.870          38.465  
E27  23880121.737      -69117.782          40.707  
> 2019  9 12 10 40 23.0002386  0 19
G10  22516817.037     -237429.391          28.384  
G12  22302856.950     -249494.562          41.698  
G15  21366435.426       88092.059          41.442  
G20  20538330.108     -117181.895          32.160  
G21  23384548.326      101412.611          38.332  
G24  20079702.823       26670.265          41.346  
G25  24696798.366     -301774.408          37.463  
G32  25059669.257     -211254.552          38.783  
J01  38087341.488      -75275.005          36.847  
E07  24052199.904       10777.711          38.404  
E27  23879730.817      -71173.487          39.468  
> 2019  9 12 10 40 24.0002386  0 19
G10  22516193.471     -240696.596          28.548  
G12  22302210.298     -252894.444          43.281  
G15  21366672.261       89321.629          41.813  
G20  20538020.733     -118777.795          33.478  
G21  23384819.328      102830.161          38.539  
G24  20079774.770       27060.160          41.442  
G25  24696003.020     -305944.251          36.960  
G32  25059113.433     -214169.189          36.678  
J01  38087141.526      -76313.314          37.314  
E07  24052259.567       11097.831          37.789  
E27  23879338.082      -73224.567          38.791  
> 2019  9 12 10 40 25.0002386  0 19
G10  22515573.203     -243957.375          28.311  
G12  22301568.147     -256296.201          42.433  
G15  21366904.296       90553.339          41.832  
G20  20537724.237     -120370.715          34.134  
G21  23385087.940      104250.254          38.285  
G24  20079851.516       27452.022          40.034  
G25  24695209.175     -310112.686          38.863  
G32  25058564.519     -217082.267          35.552  
J01  38086951.458      -77351.136          37.486  
E07  24052321.323       11419.676          38.447  
E27  23878947.756      -75275.777          39.878  
> 2019  9 12 10 40 26.0002386  0 19
G10  22514953.825     -247219.743          27.820  
G12  22300915.806     -259696.174          42.383  
G15  21367141.741       91784.986          41.089  
G20  20537419.347     -121961.862          33.706  
G21  23385360.460      105670.720          37.648  
G24  20079925.854       27845.405          41.514  
G25  24694420.407     -314280.660          37.233  
G32  25058014.697     -219994.940          33.421  
J01  38086749.088      -78387.738          36.189  
E07  24052383.079       11741.719          39.474  
E27  23878559.820      -77325.360          40.324  
> 2019  9 12 10 40 27.0002386  0 19
G12  22300271.544     -263095.752          42.128  
G15  21367376.482       93017.257          41.954  
G20  20537115.050     -123555.040          30.839  
G21  23385630.572      107090.958          35.115  
G24  20080004.711       28239.002          41.616  
G25  24693622.357     -318448.915          34.074  
G32  25057467.581     -222912.051          31.948  
J01  38086553.331      -79423.952          36.644  
E07  24052441.538       12063.003          38.852  
E27  23878170.087      -79374.903          40.634  
> 2019  9 12 10 40 28.0002386  0 19
G12  22299624.594     -266495.083          44.510  
G15  21367608.517       94249.925          39.999  
G20  20536811.067     -125145.483          31.426  
G21  23385901.887      108509.873          32.614  
G24  20080072.767       28633.430          43.458  
G25  24692827.918     -322617.555          35.141  
G32  25056918.352     -225835.957          30.975  
J01  38086357.871      -80460.271          39.308  
E07  24052503.311       12385.613          37.030  
E27  23877780.057      -81423.839          37.281  
> 2019  9 12 10 40 29.0002386  0 19
G12  22298975.847     -269894.170          44.387  
G13  24172277.592       10392.883          27.512  
G15  21367846.556       95482.466          41.468  
G20  20536516.368     -126736.204          34.743  
G21  23386176.484      109929.243          31.472  
G24  20080149.513       29027.820          41.929  
G25  24692038.854     -326785.970          34.901  
G32  25056373.941     -228753.711          30.309  
J01  38086161.208      -81497.482          38.126  
E07  24052566.254       12707.682          37.649  
E27  23877390.027      -83471.955          33.927  
> 2019  9 12 10 40 30.0002386  0 19
G12  22298328.898     -273293.302          44.370  
G13  24172686.207       12545.497          26.692  
G15  21368078.591       96715.695          41.336  
G20  20536207.883     -128326.097          36.813  
G21  23386443.612      111350.792          31.025  
G24  20080227.760       29422.999          42.895  
G25  24691245.916     -330954.961          32.481  
G32  25055817.820     -231673.780          28.520  
J01  38085961.245      -82534.341          38.311  
E07  24052628.011       13029.540          37.036  
E27  23877000.608      -85520.717          35.136  
> 2019  9 12 10 40 31.0002386  0 19
G12  22297684.636     -276692.648          46.082  
G13  24173088.225       14699.188          26.030  
G15  21368313.035       97948.048          40.366  
G20  20535907.198     -129914.963          35.491  
G21  23386708.925      112772.280          33.272  
G24  20080297.596       29818.115          42.488  
G25  24690452.053     -335123.414          31.249  
G32  25055264.700     -234589.968          26.249  
J01  38085766.379      -83570.877          37.591  
E07  24052688.877       13352.102          37.437  
E27  23876611.468      -87569.095          35.042  
> 2019  9 12 10 40 32.0002386  0 19
G12  22297038.280     -280091.276          44.502  
G13  24173498.933       16851.268          26.492  
G15  21368546.868       99180.594          41.204  
G20  20535599.010     -131503.596          35.972  
G21  23386985.633      114191.263          33.325  
G24  20080374.656       30213.861          42.353  
G25  24689654.910     -339292.244          36.514  
G32  25054713.395     -237503.992          26.567  
J01  38085567.621      -84608.336          37.123  
E07  24052750.633       13673.784          37.697  
E27  23876223.533      -89616.439          37.703  
> 2019  9 12 10 40 33.0002386  0 19
G12  22296388.643     -283490.020          43.789  
G13  24173907.251       18997.825          25.283  
G15  21368780.107      100412.448          40.198  
G20  20535297.121     -133092.486          36.069  
G21  23387256.949      115608.306          33.457  
G24  20080451.995       30609.152          43.745  
G25  24688868.254     -343461.610          35.309  
J01  38085371.254      -85645.931          37.845  
E07  24052811.185       13995.328          36.743  
E27  23875832.316      -91664.488          39.283  
> 2019  9 12 10 40 34.0002386  0 19
G12  22295744.085     -286889.154          43.651  
G13  24174319.163       21145.108          25.838  
G15  21369016.645      101643.340          41.156  
G20  20534998.827     -134681.686          35.924  
G21  23387522.262      117029.443          33.947  
G24  20080523.646       31004.310          43.237  
G25  24688070.500     -347631.438          32.394  
J01  38085172.792      -86684.281          37.851  
E07  24052872.348       14316.581          37.098  
E27  23875441.972      -93712.703          39.619  
> 2019  9 12 10 40 35.0002386  0 19
G12  22295095.931     -290287.706          44.194  
G13  24174728.091       23293.042          26.598  
G15  21369251.979      102875.769          40.063  
G20  20534696.921     -136268.038          34.723  
G21  23387795.672      118451.658          33.497  
G24  20080604.894       31400.513          43.153  
G25  24687278.155     -351801.831          34.472  
J01  38084972.830      -87722.147          37.525  
E07  24052935.012       14638.489          37.055  
> 2019  9 12 10 40 36.0002386  0 19
G10  22508748.422      -13003.993          28.576  
G12  22294449.278     -293685.357          45.043  
G13  24175128.906       25442.251          27.770  
G15  21369484.311      104109.559          40.251  
G20  20534389.046     -137854.819          35.681  
G21  23388066.378      119875.802          32.245  
G24  20080675.934       31797.829          43.413  
G25  24686482.513     -355972.503          32.483  
J01  38084774.666      -88759.427          38.265  
E07  24052995.861       14961.115          35.344  
> 2019  9 12 10 40 37.0002386  0 19
G10  22508129.655      -16265.830          27.035  
G12  22293805.627     -297081.723          45.101  
G13  24175539.335       27591.596          26.299  
G15  21369721.756      105344.712          41.077  
G20  20534092.253     -139440.091          35.257  
G21  23388332.598      121299.458          33.063  
G24  20080751.197       32195.385          43.320  
G25  24685691.355     -360141.585          29.406  
J01  38084581.893      -89795.756          37.515  
E07  24053059.415       15285.559          36.465  
> 2019  9 12 10 40 38.0002386  0 19
G10  22507513.279      -19525.538          27.549  
G12  22293158.067     -300478.313          45.336  
G13  24175956.639       29738.320          24.045  
G15  21369953.198      106579.173          40.708  
G20  20533792.458     -141025.097          34.894  
G21  23388613.512      122721.815          32.336  
G24  20080828.536       32593.909          43.064  
G25  24684903.495     -364310.560          30.583  
J01  38084384.042      -90833.522          37.872  
E07  24053121.468       15607.363          37.288  
E21  27436480.824      -12536.938          33.745  
> 2019  9 12 10 40 39.0002386  0 19
G10  22506893.604      -22783.183          27.786  
G12  22292512.025     -303874.804          44.332  
G15  21370191.533      107813.121          40.311  
G20  20533482.176     -142610.274          35.725  
G21  23388877.621      124144.344          34.587  
G24  20080904.375       32992.986          43.058  
G25  24684104.554     -368480.068          31.862  
J01  38084182.876      -91870.746          36.711  
E07  24053182.038       15934.805          35.611  
E21  27435817.680      -16012.911          31.319  
E30  23298208.087       10444.600          38.380  
> 2019  9 12 10 40 40.0002386  0 19
G10  22506269.741      -26053.669          28.546  
G12  22291866.873     -307271.139          44.014  
G15  21370423.569      109047.796          38.943  
G20  20533187.773     -144194.783          35.849  
G21  23389151.624      125568.118          33.733  
G24  20080983.826       33391.996          43.197  
G25  24683308.004     -372648.723          31.781  
J01  38083986.509      -92908.375          37.001  
E07  24053246.185       16259.786          36.572  
E21  27435156.335      -19487.238          32.309  
E27  23873105.702      -11381.051          37.769  
E30  23298352.295       11204.203          38.192  
> 2019  9 12 10 40 41.0002386  0 19
G10  22505647.362      -29308.566          30.289  
G12  22291219.610     -310667.524          45.203  
G15  21370663.405      110282.284          42.356  
G20  20532885.588     -145780.055          34.306  
G21  23389422.940      126989.506          31.621  
G24  20081054.272       33791.593          41.166  
G25  24682516.253     -376819.476          31.791  
J01  38083789.252      -93946.046          34.685  
E07  24053304.939       16583.457          38.943  
E21  27434496.804      -22962.832          34.484  
E27  23872715.969      -13424.863          34.203  
E30  23298499.488       11963.336          35.740  
> 2019  9 12 10 40 42.0002386  0 19
G10  22505023.499      -32565.417          30.320  
G12  22290571.456     -314064.343          45.121  
G15  21370890.641      111516.273          40.498  
G20  20532579.790     -147365.450          34.286  
G21  23389690.661      128410.311          30.474  
G24  20081132.519       34190.590          41.633  
G25  24681723.908     -380990.298          30.838  
J01  38083591.977      -94985.022          35.374  
E07  24053365.806       16906.256          39.368  
E21  27433836.051      -26439.407          38.930  
E27  23872329.831      -15468.578          33.774  
E30  23298644.883       12722.286          36.147  
> 2019  9 12 10 40 43.0002386  0 19
G10  22504402.638      -35824.660          30.863  
G12  22289926.915     -317460.734          44.884  
G15  21371131.978      112749.473          42.210  
G20  20532283.294     -148950.014          33.948  
G21  23389961.367      129833.049          31.325  
G24  20081208.078       34589.796          42.416  
G25  24680933.344     -385160.479          27.672  
J01  38083395.016      -96025.072          35.543  
E07  24053427.265       17229.049          38.953  
E21  27433175.019      -29915.449          40.701  
E27  23871932.611      -17502.209          35.501  
E30  23298787.294       13481.990          37.413  
> 2019  9 12 10 40 44.0002386  0 19
G10  22503781.759      -39081.356          29.181  
G12  22289278.465     -320855.626          43.314  
G15  21371366.107      113984.399          41.951  
G20  20531980.515     -150532.110          34.256  
G21  23390230.885      131258.664          32.855  
G24  20081286.622       34989.665          43.018  
G25  24680137.701     -389329.174          30.267  
J01  38083196.852      -97067.835          35.745  
E07  24053489.615       17552.981          38.998  
E21  27432516.675      -33389.659          39.144  
E27  23871545.583      -19545.663          37.252  
E30  23298932.986       14242.880          34.809  
> 2019  9 12 10 40 45.0002386  0 19
G10  22503165.993      -42336.757          31.254  
G12  22288631.812     -324248.704          44.190  
G15  21371597.550      115221.182          41.860  
G20  20531683.722     -152113.369          32.917  
G21  23390507.890      132685.150          32.607  
G24  20081361.274       35392.450          41.467  
G25  24679336.649     -393497.744          33.943  
J01  38083000.188      -98104.220          34.107  
E07  24053552.575       17878.802          39.439  
E21  27431856.533      -36862.652          40.082  
E27  23871160.352      -21587.062          36.999  
E30  23299079.586       15003.838          35.342  
> 2019  9 12 10 40 46.0002386  0 19
G10  22502543.910      -45591.814          30.804  
G12  22287988.457     -327640.409          43.601  
G13  24179217.474       10400.330          30.148  
G15  21371835.588      116458.859          42.415  
G20  20531380.629     -153692.687          34.318  
G21  23390778.909      134112.465          32.304  
G24  20081442.505       35796.734          42.871  
G25  24678550.604     -397664.744          34.526  
J01  38082808.323      -99139.746          34.117  
E07  24053612.534       18204.963          39.220  
E21  27431193.076      -40333.679          39.065  
E27  23870774.213      -23626.701          36.948  
E30  23299222.590       15766.844          36.177  
> 2019  9 12 10 40 47.0002386  0 19
G10  22501920.344      -48846.401          29.418  
G12  22287343.602     -331032.218          43.482  
G13  24179626.699       12551.467          30.563  
G15  21372070.625      117696.632          43.240  
G20  20531079.333     -155271.181          33.202  
G21  23391047.817      135539.204          32.574  
G24  20081513.562       36201.275          42.085  
G25  24677756.444     -401833.092          35.583  
J01  38082608.361     -100175.697          35.245  
E07  24053674.587       18531.706          39.414  
E21  27430533.545      -43805.967          36.056  
E27  23870383.573      -25666.849          36.798  
E30  23299365.595       16531.633          36.955  
> 2019  9 12 10 40 48.0002386  0 19
G10  22501303.671      -52097.352          26.720  
G12  22286697.246     -334423.969          43.912  
G13  24180037.111       14702.877          32.138  
G15  21372303.271      118934.658          43.112  
G20  20530784.041     -156850.198          33.798  
G21  23391320.337      136964.341          32.691  
G24  20081592.699       36605.797          41.849  
G25  24676960.208     -406002.408          32.862  
J01  38082408.695     -101211.804          34.995  
E07  24053736.640       18858.509          39.776  
E21  27429872.496      -47278.825          35.244  
E27  23869996.248      -27707.022          36.503  
E30  23299515.178       17296.472          38.406  
> 2019  9 12 10 40 49.0002386  0 19
G10  22500695.391      -55358.500          25.433  
G12  22286052.687     -337815.761          43.632  
G13  24180446.022       16853.713          30.057  
G15  21372540.996      120172.437          39.953  
G20  20530481.855     -158429.061          34.706  
G21  23391593.433      138383.359          31.439  
G24  20081669.462       37010.682          43.232  
G25  24676169.050     -410172.182          31.531  
J01  38082211.438     -102247.423          38.664  
E07  24053799.897       19185.213          37.686  
E21  27429212.058      -50751.356          32.383  
E27  23869603.217      -29746.596          36.215  
E30  23299660.591       18061.609          39.823  
> 2019  9 12 10 40 50.0002386  0 19
G10  22500076.031      -58616.386          27.633  
G12  22285406.331     -341207.261          45.303  
G13  24180859.435       19005.141          29.470  
G15  21372777.830      121411.853          41.506  
G20  20530173.667     -160006.092          35.821  
G21  23391865.046      139812.269          33.445  
G24  20081745.004       37416.441          42.517  
G25  24675376.688     -414336.304          28.241  
J01  38082015.367     -103283.243          37.639  
E07  24053861.654       19512.023          38.070  
E21  27428551.305      -54223.955          29.996  
E27  23869223.378      -31785.679          35.728  
E30  23299806.579       18827.605          38.670  
> 2019  9 12 10 40 51.0002386  0 19
G10  22499452.465      -61866.601          29.052  
G12  22284761.179     -344598.604          45.360  
G13  24181271.661       21156.128          33.932  
G15  21373013.478      122652.300          43.631  
G20  20529879.265     -161583.173          35.100  
G21  23392132.470      141241.082          33.604  
G24  20081826.549       37822.424          41.354  
J01  38081811.217     -104319.305          35.918  
E07  24053922.817       19839.262          39.477  
E21  27427889.366      -57697.826          33.786  
E27  23868833.348      -33823.789          34.526  
E30  23299950.491       19593.691          37.529  
> 2019  9 12 10 40 52.0002386  0 19
G10  22498832.790      -65119.910          28.830  
G12  22284116.027     -347989.721          44.364  
G13  24181676.978       23305.486          29.781  
G15  21373251.516      123890.475          43.724  
G20  20529582.175     -163160.220          35.527  
G21  23392406.770      142669.026          33.811  
G24  20081902.684       38228.502          42.580  
J01  38081619.649     -105355.639          34.895  
E07  24053985.777       20166.465          39.385  
E21  27427227.130      -61170.825          35.169  
E27  23868443.021      -35861.983          35.168  
E30  23300096.776       20359.621          37.323  
> 2019  9 12 10 40 53.0002386  0 19
G10  22498215.820      -68372.876          26.587  
G12  22283471.486     -351380.702          44.176  
G13  24182094.282       25456.400          28.349  
G15  21373487.146      125129.248          41.382  
G20  20529278.174     -164735.967          35.814  
G21  23392678.383      144097.014          34.951  
G24  20081979.744       38634.419          43.580  
J01  38081426.283     -106392.005          37.338  
E07  24054049.627       20493.792          37.947  
E21  27426567.285      -64643.833          37.712  
E27  23868055.993      -37900.709          36.908  
E30  23300242.486       21125.826          39.213  
> 2019  9 12 10 40 54.0002386  0 19
G10  22497595.849      -71625.457          29.569  
G12  22282821.535     -354771.426          43.494  
G13  24182504.100       27606.898          28.884  
G15  21373718.885      126368.435          42.220  
G20  20528975.396     -166311.897          34.631  
G21  23392952.997      145526.006          34.770  
G24  20082057.677       39040.483          42.638  
J01  38081227.211     -107427.945          36.531  
E07  24054110.790       20821.465          38.401  
E21  27425907.143      -68117.105          38.139  
E27  23867668.057      -39938.828          37.182  
E30  23300388.788       21892.800          38.800  
> 2019  9 12 10 40 55.0002386  0 19
G10  22496977.064      -74882.550          30.795  
G12  22282180.868     -358161.736          44.227  
G13  24182916.624       29762.536          26.636  
G15  21373950.328      127607.115          41.955  
G20  20528677.695     -167887.808          34.007  
G21  23393222.219      146954.772          32.670  
G24  20082132.032       39448.116          41.239  
J01  38081029.954     -108464.619          34.801  
E07  24054174.047       21149.107          38.347  
E21  27425246.408      -71590.418          40.257  
E27  23867278.638      -41977.697          35.681  
E30  23300533.573       22659.349          36.296  
> 2019  9 12 10 40 56.0002386  0 19
G10  22496355.906      -78140.695          30.170  
G12  22281534.512     -361551.951          44.222  
G13  24183321.643       31916.606          26.317  
G15  21374197.353      128846.275          42.961  
G20  20528380.902     -169464.046          34.897  
G21  23393495.332      148383.280          33.844  
G24  20082213.281       39856.281          42.761  
J01  38080832.993     -109500.681          35.477  
E07  24054234.896       21476.340          38.870  
E21  27424584.766      -75064.634          39.463  
E27  23866894.000      -44016.757          36.218  
E30  23300680.486       23427.862          37.531  
> 2019  9 12 10 40 57.0002386  0 19
G10  22495737.435      -81398.830          29.885  
G12  22280891.471     -364941.888          44.865  
G13  24183733.259       34066.521          25.574  
G15  21374429.999      130085.434          41.650  
G20  20528078.419     -171038.781          34.873  
G21  23393766.334      149813.393          32.973  
G24  20082290.323       40264.177          43.312  
J01  38080636.922     -110540.353          36.949  
E07  24054298.468       21803.368          38.156  
E21  27423923.123      -78537.866          37.327  
E27  23866507.269      -46053.296          36.258  
E30  23300827.975       24195.227          37.694  
> 2019  9 12 10 40 58.0002386  0 19
G10  22495118.651      -84652.325          30.988  
G12  22280244.819     -368331.447          44.179  
G15  21374666.537      131324.523          42.677  
G20  20527784.907     -172614.261          33.865  
G21  23394039.744      151242.183          32.158  
G24  20082360.473       40672.708          41.836  
J01  38080440.572     -111577.529          33.915  
E07  24054359.020       22130.805          39.493  
E21  27423261.481      -82010.338          37.560  
E27  23866115.145      -48090.172          37.604  
E30  23300970.072       24962.636          34.752  
> 2019  9 12 10 40 59.0002386  0 19
G10  22494497.789      -87908.928          29.701  
G12  22279601.761     -371721.057          44.264  
G15  21374901.574      132563.991          41.524  
G20  20527486.020     -174188.988          32.859  
G21  23394311.357      152671.161          33.205  
G24  20082444.409       41081.871          41.278  
J01  38080239.110     -112614.805          32.620  
E07  24054421.666       22458.578          39.951  
E21  27422598.634      -85482.413          32.976  
E27  23865732.305      -50127.016          37.744  
E30  23301118.783       25731.572          36.220  
> 2019  9 12 10 41  0.0002386  0 19
G10  22493878.411      -91165.942          30.872  
G12  22278957.795     -375109.796          43.472  
G15  21375126.717      133803.661          41.113  
G20  20527181.740     -175755.267          31.919  
G21  23394577.577      154101.088          33.017  
G24  20082521.766       41491.743          41.359  
J01  38080040.648     -113650.324          34.988  
E07  24054484.626       22785.986          40.371  
E21  27421938.196      -88954.998          33.950  
E27  23865340.181      -52162.567          38.505  
E30  23301268.977       26500.593          37.073  
> 2019  9 12 10 41  1.0002386  0 19
G10  22493260.848      -94420.686          30.463  
G12  22278309.956     -378498.672          42.519  
G15  21375374.335      135042.611          43.289  
G20  20526884.929     -177323.049          33.097  
G21  23394853.989      155530.219          30.865  
G24  20082599.716       41901.540          40.919  
J01  38079844.874     -114687.147          32.197  
E07  24054545.493       23113.666          40.282  
E21  27421278.351      -92427.786          35.990  
E27  23864955.840      -54198.619          37.903  
E30  23301411.074       27269.695          37.015  
> 2019  9 12 10 41  2.0002386  0 19
G10  22492650.160      -97675.136          30.002  
G12  22277665.694     -381888.199          43.495  
G13  24185773.940       10402.663          27.264  
G15  21375607.278      136281.244          41.521  
G20  20526589.043     -178895.238          33.981  
G21  23395130.086      156961.031          32.885  
G24  20082673.460       42310.588          41.827  
J01  38079647.617     -115725.458          34.457  
E07  24054608.453       23440.423          39.983  
E21  27420618.803      -95901.809          37.020  
E27  23864567.311      -56235.318          36.826  
E30  23301559.174       28038.023          36.485  
> 2019  9 12 10 41  3.0002386  0 19
G10  22492023.593     -100931.091          29.765  
G12  22277020.839     -385277.637          44.457  
G13  24186183.461       12546.172          26.985  
G15  21375843.519      137520.281          41.302  
G20  20526280.558     -180467.130          34.528  
G21  23395399.308      158391.760          31.350  
G24  20082756.803       42720.333          42.276  
J01  38079452.751     -116762.799          35.579  
J02  37237389.387       10057.082          40.216  
E07  24054672.600       23767.545          38.549  
E21  27419958.364      -99375.775          36.148  
E27  23864178.485      -58271.620          36.058  
E30  23301702.475       28807.241          36.260  
> 2019  9 12 10 41  4.0002386  0 19
G10  22491400.027     -104181.884          28.661  
G12  22276377.484     -388665.196          44.677  
G13  24186586.980       14696.690          28.874  
G15  21376077.352      138761.058          41.456  
G20  20525986.452     -182037.456          36.132  
G21  23395670.624      159819.046          32.090  
G24  20082833.845       43131.904          43.263  
G25  24664266.396      -11654.093          32.103  
J01  38079252.195     -117798.995          37.154  
J02  37237404.691       10154.068          39.351  
E07  24054734.950       24096.324          38.341  
E21  27419297.018     -102848.339          34.558  
E27  23863799.833      -60305.521          36.355  
E30  23301858.358       29577.345          35.841  
> 2019  9 12 10 41  5.0002386  0 19
G10  22490784.558     -107430.142          28.797  
G12  22275729.645     -392050.995          45.864  
G13  24186996.188       16849.020          30.557  
G15  21376314.797      140003.633          42.986  
G20  20525689.066     -183604.857          35.564  
G21  23395942.533      161248.445          31.006  
G24  20082913.889       43545.816          43.121  
G25  24663474.942      -15823.023          35.772  
J01  38079057.014     -118833.869          37.016  
J02  37237428.668       10252.874          40.141  
E07  24054798.521       24426.951          39.081  
E21  27418637.784     -106319.484          36.956  
E27  23863403.817      -62338.407          36.249  
E30  23301998.972       30350.230          36.173  
> 2019  9 12 10 41  6.0002386  0 19
G10  22490174.480     -110684.200          26.455  
G12  22275089.588     -395435.906          45.691  
G13  24187402.411       19002.398          28.429  
G15  21376549.520      141247.396          40.312  
G20  20525385.083     -185171.667          35.727  
G21  23396219.835      162681.559          33.649  
G24  20082993.044       43960.230          43.735  
G25  24662682.283      -19991.959          33.019  
J01  38078857.663     -119868.618          37.578  
J02  37237444.251       10352.041          40.812  
E07  24054859.963       24758.738          37.837  
E21  27417975.827     -109789.929          37.345  
E27  23863019.476      -64371.192          36.837  
E30  23302146.165       31123.933          36.276  
> 2019  9 12 10 41  7.0002386  0 19
G10  22489558.715     -113941.310          27.437  
G12  22274443.825     -398820.234          44.357  
G13  24187810.432       21155.343          28.673  
G15  21376787.558      142490.894          40.182  
G20  20525094.572     -186738.195          35.721  
G21  23396490.243      164115.412          32.516  
G24  20083071.290       44374.655          44.226  
G25  24661886.344      -24160.669          30.992  
J01  38078663.093     -120903.382          37.935  
J02  37237463.149       10451.524          41.177  
E07  24054922.627       25090.484          36.238  
E21  27417316.296     -113259.462          36.503  
E27  23862635.746      -66402.344          39.079  
E30  23302292.764       31897.754          36.285  
> 2019  9 12 10 41  8.0002386  0 19
G10  22488936.335     -117193.001          28.413  
G12  22273800.471     -402204.703          44.263  
G13  24188222.048       23308.843          27.188  
G15  21377030.989      143735.713          40.313  
G20  20524794.184     -188303.651          35.040  
G21  23396762.170      165549.433          32.950  
G24  20083152.835       44789.833          44.781  
G25  24661090.980      -28329.678          36.743  
J01  38078467.337     -121938.138          37.241  
J02  37237482.327       10550.734          41.539  
E07  24054985.291       25420.854          35.383  
E21  27416656.748     -116729.810          35.859  
E27  23862246.013      -68433.195          38.839  
E30  23302440.567       32672.012          36.274  
> 2019  9 12 10 41  9.0002386  0 19
G10  22488317.271     -120444.700          28.295  
G12  22273157.413     -405589.184          43.646  
G13  24188644.152       25462.584          25.821  
G15  21377263.025      144983.906          40.332  
G20  20524494.092     -189868.703          35.661  
G21  23397034.969      166983.337          32.937  
G24  20083229.581       45205.504          43.506  
G25  24660294.430      -32499.224          34.343  
J01  38078269.469     -122973.171          37.500  
J02  37237502.116       10649.764          41.123  
E07  24055050.938       25752.006          36.551  
E21  27415996.606     -120200.631          35.699  
E27  23861859.874      -70464.125          39.154  
E30  23302587.167       33446.443          38.563  
> 2019  9 12 10 41 10.0002386  0 19
G10  22487697.300     -123695.910          28.085  
G12  22272511.667     -408973.717          43.784  
G13  24189047.374       27615.300          27.825  
G15  21377497.468      146227.131          38.979  
G20  20524201.191     -191433.273          35.084  
G21  23397309.583      168415.040          32.621  
G24  20083308.125       45621.645          43.850  
G25  24659502.382      -36669.432          30.667  
J01  38078071.601     -124008.530          38.365  
J02  37237522.201       10748.574          41.719  
E07  24055113.899       26083.206          35.287  
E21  27415335.557     -123672.298          35.160  
E27  23861470.752      -72494.962          39.632  
E30  23302735.249       34221.517          39.696  
> 2019  9 12 10 41 11.0002386  0 19
G10  22487080.330     -126943.054          28.221  
G12  22271866.812     -412357.925          44.529  
G13  24189452.393       29767.932          27.920  
G15  21377736.397      147470.933          41.222  
G20  20523897.208     -192997.635          35.310  
G21  23397583.587      169843.933          33.169  
G24  20083387.558       46037.894          43.332  
G25  24658713.039      -40838.655          28.832  
J01  38077874.937     -125043.989          37.367  
J02  37237539.895       10847.366          41.337  
E07  24055176.545       26414.002          36.013  
E21  27414676.323     -127143.360          37.426  
E27  23861084.317      -74526.670          35.741  
E30  23302881.848       34996.900          36.642  
> 2019  9 12 10 41 12.0002386  0 19
G10  22486462.156     -130194.100          28.501  
G12  22271223.457     -415741.972          45.146  
G13  24189867.604       31919.810          27.576  
G15  21377968.450      148714.767          42.331  
G20  20523603.713     -194561.883          37.117  
G21  23397852.215      171278.265          31.583  
G24  20083466.712       46454.892          42.911  
G25  24657922.178      -45009.028          32.191  
J01  38077678.884     -126079.799          35.557  
J02  37237559.370       10946.046          37.835  
E07  24055241.303       26745.418          40.251  
E21  27414013.773     -130615.695          34.869  
E27  23860704.775      -76556.186          36.725  
E30  23303029.058       35772.333          35.394  
> 2019  9 12 10 41 13.0002386  0 19
G10  22485847.280     -133447.308          28.238  
G12  22270579.806     -419125.589          43.738  
G13  24190271.123       34073.470          27.010  
G15  21378208.285      149957.752          42.492  
G20  20523306.012     -196125.470          37.158  
G21  23398128.313      172712.140          31.289  
G24  20083547.961       46871.428          43.170  
G25  24657127.425      -49179.482          35.692  
J01  38077481.609     -127116.111          36.920  
J02  37237579.158       11044.642          39.032  
E07  24055303.059       27076.523          39.423  
E21  27413351.241     -134086.945          34.070  
E27  23860315.949      -78585.328          36.310  
E30  23303178.048       36547.756          37.708  
> 2019  9 12 10 41 14.0002386  0 19
G10  22485227.309     -136697.245          29.574  
G12  22269934.358     -422509.044          44.290  
G13  24190680.941       36224.296          28.595  
G15  21378440.914      151202.353          40.979  
G20  20523005.624     -197688.185          35.637  
G21  23398402.019      174146.738          35.303  
G24  20083624.707       47288.212          42.708  
G25  24656333.580      -53349.342          31.512  
J01  38077286.149     -128152.274          36.990  
J02  37237597.150       11143.403          38.836  
E07  24055366.316       27407.712          38.539  
E21  27412691.099     -137557.584          34.589  
E27  23859926.827      -80614.483          36.197  
E30  23303325.241       37323.393          38.139  
> 2019  9 12 10 41 15.0002386  0 19
G10  22484603.132     -139944.135          30.762  
G12  22269293.690     -425892.236          42.839  
G13  24191097.949       38372.192          26.844  
G15  21378681.657      152446.490          41.237  
G20  20522711.535     -199251.652          34.342  
G21  23398680.839      175578.398          33.735  
G24  20083705.047       47706.045          42.654  
G25  24655540.624      -57519.840          28.857  
J01  38077089.485     -129189.974          34.600  
J02  37237615.141       11242.216          39.644  
E07  24055429.277       27739.363          38.784  
E21  27412032.144     -141028.917          38.049  
E27  23859541.281      -82643.530          37.214  
E30  23303473.044       38100.033          37.906  
> 2019  9 12 10 41 16.0002386  0 19
G10  22483990.053     -143192.677          28.281  
G12  22268649.446     -429275.253          44.792  
G13  24191506.581       40525.052          26.905  
G15  21378918.195      153691.339          38.896  
G20  20522413.241     -200813.675          34.760  
G21  23398951.841      177014.659          31.400  
G24  20083783.591       48124.092          43.424  
G25  24654744.388      -61690.886          32.000  
J01  38076890.727     -130227.302          36.591  
J02  37237632.521       11340.835          40.596  
E07  24055491.330       28070.882          38.183  
E21  27411371.112     -144500.364          36.614  
E27  23859156.661      -84672.443          37.503  
E30  23303619.940       38876.908          38.646  
> 2019  9 12 10 41 17.0002386  0 19
G10  22483375.492     -146444.007          27.330  
G12  22268004.294     -432658.101          45.306  
G13  24191909.192       42674.923          25.457  
G15  21379158.328      154935.493          39.150  
G20  20522114.336     -202375.268          34.773  
G21  23399224.361      178448.332          31.125  
G24  20083864.228       48542.465          43.940  
G25  24653951.433      -65861.910          33.662  
J01  38076691.952     -131263.398          37.540  
J02  37237652.606       11439.325          41.961  
E07  24055554.290       28402.642          36.645  
E21  27410711.564     -147970.835          34.442  
E27  23858766.928      -86701.689          37.066  
E30  23303767.150       39653.910          38.409  
> 2019  9 12 10 41 18.0002386  0 19
G10  22482760.319     -149689.893          27.658  
G12  22267363.330     -436040.810          45.154  
G13  24192326.496       44823.598          23.888  
G15  21379394.865      156180.296          39.814  
G20  20521823.546     -203936.950          35.679  
G21  23399498.661      179887.870          30.238  
G24  20083945.477       48960.993          43.463  
G25  24653154.272      -70033.468          34.234  
J01  38076496.195     -132300.352          36.800  
J02  37237671.505       11537.674          41.966  
E07  24055617.547       28733.751          37.008  
E21  27410049.624     -151442.534          35.979  
E27  23858381.994      -88731.197          36.065  
E30  23303918.845       40431.270          38.621  
> 2019  9 12 10 41 19.0002386  0 19
G10  22482137.643     -152938.439          28.896  
G12  22266716.084     -439423.425          44.971  
G15  21379628.698      157425.592          40.440  
G20  20521522.547     -205498.181          37.009  
G21  23399763.991      181322.752          32.153  
G24  20084023.130       49380.032          42.790  
G25  24652360.723      -74205.806          31.602  
J01  38076297.140     -133337.822          35.440  
J02  37237688.292       11635.800          40.925  
E07  24055682.305       29065.726          37.835  
E21  27409388.279     -154914.514          39.407  
E27  23858003.045      -90760.830          35.162  
E30  23304065.130       41209.035          37.630  
> 2019  9 12 10 41 20.0002386  0 19
G10  22481519.766     -156184.286          29.499  
G12  22266072.729     -442805.561          45.763  
G15  21379864.329      158670.648          41.230  
G20  20521221.252     -207058.140          35.496  
G21  23400041.590      182758.585          34.278  
G24  20084104.972       49800.122          42.412  
G25  24651568.379      -78377.550          31.135  
J01  38076104.368     -134373.824          37.546  
J02  37237706.283       11734.018          40.898  
E07  24055744.358       29398.216          37.900  
E21  27408728.730     -158386.145          40.156  
E27  23857610.921      -92788.241          35.954  
E30  23304215.028       41987.705          38.229  
> 2019  9 12 10 41 21.0002386  0 19
G10  22480905.797     -159432.984          27.218  
G12  22265432.358     -446187.650          47.092  
G15  21380101.163      159915.615          40.793  
G20  20520925.662     -208617.823          34.778  
G21  23400316.500      184193.404          33.915  
G24  20084185.016       50219.913          42.257  
G25  24650774.830      -82549.016          32.443  
J01  38075901.404     -135410.491          35.613  
J02  37237725.758       11832.358          42.526  
E07  24055808.208       29730.126          36.872  
E21  27408067.088     -161857.910          38.956  
E27  23857226.283      -94815.836          37.693  
E30  23304361.330       42766.081          39.547  
> 2019  9 12 10 41 22.0002386  0 19
G10  22480281.935     -162680.228          26.907  
G12  22264786.020     -449570.184          44.907  
G15  21380341.906      161159.424          41.059  
G20  20520633.668     -210178.083          34.649  
G21  23400588.410      185628.179          31.175  
G24  20084261.762       50639.088          42.374  
G25  24649977.983      -86720.905          29.828  
J01  38075705.944     -136448.345          36.789  
J02  37237744.046       11929.789          41.694  
E07  24055870.575       30060.744          36.541  
E21  27407407.243     -165330.597          37.286  
E27  23856838.365      -96843.944          37.106  
E30  23304506.725       43543.661          37.788  
> 2019  9 12 10 41 23.0002386  0 19
G10  22479668.245     -165928.036          26.204  
G12  22264141.164     -452952.341          45.044  
G15  21380575.146      162404.072          38.972  
G20  20520334.170     -211737.679          32.734  
G21  23400866.025      187066.791          30.614  
G24  20084343.307       51058.914          43.359  
G25  24649184.435      -90893.959          36.180  
J01  38075510.485     -137485.966          38.279  
J02  37237764.445       12027.414          41.381  
E07  24055931.721       30392.778          36.535  
E21  27406746.508     -168803.082          37.144  
E27  23856451.633      -98871.958          38.004  
E30  23304659.328       44321.984          37.962  
> 2019  9 12 10 41 24.0002386  0 19
G10  22479052.479     -169174.320          26.394  
G12  22263499.607     -456332.665          44.793  
G13  24194781.498       10409.017          30.345  
G15  21380814.371      163650.045          40.271  
G20  20520042.175     -213295.169          32.394  
G21  23401134.340      188503.272          30.970  
G24  20084424.241       51480.620          43.539  
G25  24648385.773      -95065.848          36.267  
J01  38075311.709     -138522.249          38.126  
J02  37237783.326       12126.451          41.340  
E07  24055993.791       30725.262          36.597  
E21  27406084.569     -172274.073          36.608  
E27  23856070.294     -100897.931          39.093  
E30  23304805.019       45102.078          37.698  
> 2019  9 12 10 41 25.0002386  0 19
G10  22478430.414     -172420.071          26.004  
G12  22262858.940     -459711.103          44.565  
G13  24195194.614       12562.851          29.900  
G15  21381050.018      164896.926          40.982  
G20  20519742.084     -214850.710          31.445  
G21  23401409.547      189942.372          32.086  
G24  20084501.301       51904.444          43.044  
G25  24647599.135      -99236.001          35.784  
J01  38075113.859     -139556.660          37.031  
J02  37237802.207       12227.526          40.912  
E07  24056057.345       31059.937          36.529  
E21  27405424.130     -175742.616          36.779  
E27  23855683.562     -102921.377          38.427  
E30  23304953.416       45884.092          38.018  
> 2019  9 12 10 41 26.0002386  0 19
G10  22477808.942     -175661.064          31.976  
G12  22262211.101     -463088.945          44.022  
G13  24195599.337       14716.615          31.305  
G15  21381288.354      166144.627          39.075  
G20  20519444.994     -216405.208          33.926  
G21  23401676.361      191382.384          32.842  
G24  20084586.126       52329.185          43.200  
G25  24646805.272     -103405.196          34.961  
J01  38074917.491     -140590.735          38.892  
J02  37237823.793       12328.927          41.421  
E07  24056120.898       31394.706          35.457  
E21  27404764.582     -179210.742          33.157  
E27  23855297.423     -104944.277          40.918  
E30  23305105.407       46666.453          39.093  
> 2019  9 12 10 41 27.0002386  0 19
G10  22477194.974     -178902.040          30.694  
G12  22261570.137     -466466.212          43.458  
G13  24196005.264       16870.916          27.280  
G15  21381525.485      167392.736          42.118  
G20  20519150.295     -217958.588          35.304  
G21  23401951.272      192822.800          31.793  
G24  20084664.984       52754.449          43.392  
G25  24646011.427     -107574.607          35.251  
J01  38074719.623     -141624.791          38.297  
J02  37237839.690       12430.493          40.971  
E07  24056183.859       31728.621          37.260  
E21  27404106.534     -182678.910          34.184  
E27  23854915.787     -106966.745          39.537  
E30  23305252.618       47449.337          39.264  
> 2019  9 12 10 41 28.0002386  0 19
G10  22476579.784     -182146.452          30.333  
G12  22260931.284     -469843.350          44.399  
G15  21381758.113      168640.590          40.688  
G20  20518854.391     -219512.551          36.046  
G21  23402236.670      194264.171          34.245  
G24  20084745.918       53179.500          43.699  
G25  24645218.471     -111743.908          38.719  
J01  38074525.367     -142659.433          38.853  
J02  37237859.775       12531.702          40.756  
E07  24056248.303       32063.813          37.757  
E21  27403446.986     -186147.600          34.765  
E27  23854527.258     -108989.423          39.319  
E30  23305402.218       48232.571          38.403  
> 2019  9 12 10 41 29.0002386  0 19
G10  22475961.627     -185394.406          30.884  
G12  22260285.225     -473220.319          43.333  
G15  21382001.544      169889.552          39.571  
G20  20518559.099     -221065.423          35.734  
G21  23402499.592      195705.348          31.916  
G24  20084827.463       53605.372          43.836  
G25  24644424.033     -115913.937          38.598  
J01  38074325.091     -143694.173          39.261  
J02  37237881.047       12633.210          41.138  
E07  24056313.671       32399.111          37.388  
E21  27402786.251     -189616.855          35.026  
E27  23854144.418     -111011.379          38.101  
E30  23305550.301       49016.333          38.217  
> 2019  9 12 10 41 30.0002386  0 19
G10  22475341.342     -188638.367          32.022  
G12  22259644.575     -476597.035          44.222  
G15  21382239.286      171139.092          40.092  
G20  20518262.899     -222618.454          34.857  
G21  23402773.596      197149.923          31.037  
G24  20084907.210       54031.665          43.351  
G25  24643633.765     -120084.080          35.186  
J01  38074128.427     -144728.701          38.230  
J02  37237899.038       12734.505          41.159  
E07  24056379.022       32736.241          35.712  
E21  27402128.499     -193085.498          36.825  
E27  23853760.094     -113032.880          39.133  
E30  23305699.605       49800.422          39.451  
> 2019  9 12 10 41 31.0002386  0 19
G10  22474732.172     -191881.786          33.763  
G12  22258998.812     -479973.854          44.805  
G15  21382477.621      172387.511          38.232  
G20  20517967.013     -224170.695          32.514  
G21  23403046.709      198588.452          30.790  
G24  20084992.350       54458.294          43.539  
G25  24642835.121     -124254.781          38.191  
J01  38073932.671     -145763.403          38.224  
J02  37237917.937       12835.551          41.115  
E07  24056443.169       33071.257          34.459  
E21  27401467.171     -196554.662          36.067  
E27  23853373.956     -115054.599          40.238  
E30  23305848.909       50584.701          39.796  
> 2019  9 12 10 41 32.0002386  0 19
G10  22474114.591     -195125.190          32.746  
G12  22258357.272     -483350.780          43.793  
G15  21382712.361      173636.624          39.332  
G20  20517674.111     -225722.214          35.407  
G21  23403321.620      200027.531          30.575  
G24  20085070.300       54885.023          44.054  
G25  24642040.979     -128425.520          35.602  
J01  38073736.600     -146798.576          39.022  
J02  37237938.022       12936.348          41.181  
E07  24056507.334       33407.394          34.788  
E21  27400804.918     -200024.112          35.931  
E27  23852988.131     -117076.054          38.275  
E30  23305996.101       51369.557          39.999  
> 2019  9 12 10 41 33.0002386  0 19
G10  22473495.231     -198366.269          30.705  
G12  22257719.903     -486727.250          43.330  
G13  24198474.644       10421.239          29.383  
G15  21382956.088      174886.112          39.616  
G20  20517377.318     -227273.296          34.799  
G21  23403593.232      201469.354          31.826  
G24  20085152.142       55312.220          43.219  
G25  24641248.617     -132597.162          38.266  
J01  38073540.233     -147833.830          38.777  
J02  37237957.200       13037.128          41.615  
E07  24056570.294       33744.246          36.042  
E21  27400144.480     -203493.727          38.288  
E27  23852603.790     -119097.347          38.235  
E30  23306146.889       52154.616          39.149  
> 2019  9 12 10 41 34.0002386  0 19
G10  22472879.762     -201607.599          30.153  
G12  22257075.344     -490103.362          44.000  
G13  24198874.865       12576.223          30.763  
G15  21383189.328      176135.080          41.151  
G20  20517079.931     -228824.131          32.756  
G21  23403869.644      202910.487          32.576  
G24  20085235.781       55739.706          42.907  
G25  24640455.365     -136768.451          37.074  
J01  38073340.882     -148869.224          37.265  
J02  37237974.284       13137.844          41.069  
E07  24056633.848       34079.385          36.648  
E21  27399484.338     -206960.486          34.649  
E27  23852219.449     -121118.644          39.534  
E30  23306298.287       52939.953          37.064  
> 2019  9 12 10 41 35.0002386  0 19
G10  22472263.978     -204846.083          30.276  
G12  22256432.304     -493479.721          43.443  
G13  24199288.278       14729.977          32.646  
G15  21383430.071      177384.201          39.314  
G20  20516792.421     -230374.305          32.496  
G21  23404149.057      204352.169          33.181  
G24  20085312.823       56167.636          43.483  
G25  24639659.722     -140940.504          35.388  
J01  38073149.016     -149904.719          37.908  
J02  37237995.276       13238.454          42.234  
E07  24056697.698       34414.905          35.385  
E21  27398824.493     -210424.849          33.834  
E27  23851836.330     -123139.594          39.188  
E30  23306449.982       53725.634          39.534  
> 2019  9 12 10 41 36.0002386  0 19
G10  22471650.603     -208086.821          30.574  
G12  22255790.747     -496855.761          43.957  
G13  24199694.799       16883.970          32.739  
G15  21383663.904      178634.542          40.066  
G20  20516493.237     -231923.856          34.291  
G21  23404426.358      205794.301          32.869  
G24  20085396.480       56596.057          43.845  
G25  24638867.674     -145112.799          37.476  
J01  38072948.147     -150940.236          38.233  
J02  37238015.658       13339.004          42.230  
E07  24056759.454       34751.270          35.727  
E21  27398166.742     -213892.608          32.607  
E27  23851452.285     -125160.061          38.519  
E30  23306597.785       54511.910          39.648  
> 2019  9 12 10 41 37.0002386  0 19
G10  22471031.225     -211326.585          31.597  
G12  22255146.188     -500231.231          42.377  
G13  24200104.024       19037.471          32.921  
G15  21383901.332      179884.249          41.254  
G20  20516199.131     -233473.190          35.269  
G21  23404698.267      207233.115          32.563  
G24  20085480.415       57024.665          44.380  
G25  24638073.515     -149285.297          38.009  
J01  38072751.186     -151975.875          37.992  
J02  37238030.351       13439.741          41.530  
E07  24056824.509       35088.052          37.387  
E21  27397504.506     -217362.336          35.648  
E27  23851066.461     -127180.087          38.393  
E30  23306744.978       55298.414          39.358  
> 2019  9 12 10 41 38.0002386  0 19
G10  22470424.446     -214571.727          28.743  
G12  22254503.723     -503606.476          43.268  
G13  24200515.029       21190.961          31.958  
G15  21384142.668      181134.100          42.448  
G20  20515906.840     -235021.822          33.657  
G21  23404978.570      208678.746          30.778  
G24  20085558.959       57453.886          43.264  
G25  24637283.561     -153457.327          37.091  
J01  38072553.632     -153011.389          34.603  
J02  37238053.141       13540.608          39.033  
E07  24056889.266       35424.227          39.169  
E21  27396844.661     -220831.814          38.050  
E27  23850682.120     -129199.465          39.993  
E30  23306893.671       56085.162          37.629  
> 2019  9 12 10 41 39.0002386  0 19
G10  22469798.193     -217820.378          29.592  
G12  22253861.276     -506981.718          44.521  
G13  24200927.255       23345.265          30.110  
G15  21384376.501      182383.771          40.196  
G20  20515610.047     -236569.922          34.378  
G21  23405247.181      210120.591          35.252  
G24  20085645.302       57883.269          43.775  
G25  24636486.121     -157629.174          36.671  
J01  38072356.968     -154047.301          37.955  
J02  37238069.928       13641.180          40.331  
E07  24056953.413       35760.236          36.647  
E21  27396184.222     -224301.576          39.758  
E27  23850297.779     -131219.047          37.716  
E30  23307046.866       56872.048          39.221  
> 2019  9 12 10 41 40.0002386  0 19
G10  22469180.315     -221059.611          29.544  
G12  22253216.421     -510356.470          43.235  
G13  24201340.057       25494.948          25.640  
G15  21384614.540      183633.516          40.317  
G20  20515312.957     -238117.602          34.620  
G21  23405523.296      211562.514          34.626  
G24  20085723.846       58312.954          44.151  
G25  24635690.478     -161801.376          37.611  
J01  38072158.804     -155083.423          37.725  
J02  37238089.717       13741.627          40.671  
E07  24057016.374       36096.436          35.713  
E21  27395522.877     -227771.036          40.310  
E27  23849913.455     -133238.466          37.988  
E30  23307194.076       57659.177          39.442  
> 2019  9 12 10 41 41.0002386  0 19
G10  22468563.642     -224298.770          29.381  
G12  22252575.160     -513731.634          42.144  
G15  21384853.171      184883.669          39.503  
G20  20515017.647     -239665.686          33.495  
G21  23405792.815      213004.100          34.794  
G24  20085804.483       58742.910          43.579  
G25  24634896.319     -165974.522          42.031  
J01  38071959.732     -156119.698          37.910  
J02  37238108.895       13841.958          40.049  
E07  24057079.334       36432.518          35.407  
E21  27394863.939     -231241.319          40.775  
E27  23849531.226     -135257.631          37.090  
E30  23307343.660       58446.774          40.112  
> 2019  9 12 10 41 42.0002386  0 19
G10  22467947.859     -227538.405          30.030  
G12  22251933.306     -517106.985          40.577  
G15  21385094.211      186132.728          40.629  
G20  20514722.965     -241212.389          33.899  
G21  23406066.521      214445.852          34.043  
G24  20085886.935       59172.581          44.039  
G25  24634103.677     -170148.300          40.510  
J01  38071762.771     -157156.673          37.962  
J02  37238128.387       13941.681          39.864  
E07  24057142.591       36767.436          35.309  
E21  27394203.483     -234712.063          40.478  
E27  23849144.477     -137276.982          37.103  
E30  23307494.464       59233.679          39.881  
> 2019  9 12 10 41 43.0002386  0 19
G10  22467330.889     -230777.408          31.256  
G12  22251292.953     -520486.420          40.069  
G15  21385329.545      187382.240          40.508  
G20  20514435.159     -242759.261          34.593  
G21  23406337.837      215888.528          34.061  
G24  20085970.278       59602.760          44.175  
G25  24633309.815     -174322.464          41.555  
J01  38071570.609     -158194.145          37.371  
J02  37238148.175       14041.523          39.106  
E07  24057209.146       37102.977          36.222  
E21  27393542.155     -238182.403          40.189  
E27  23848760.450     -139295.773          37.825  
E30  23307644.362       60020.837          38.984  
> 2019  9 12 10 41 44.0002386  0 19
G10  22466715.123     -234014.809          32.909  
G12  22250651.396     -523859.536          41.057  
G15  21385565.786      188633.451          40.638  
G20  20514137.161     -244304.234          34.799  
G21  23406619.344      217331.889          33.822  
G24  20086050.322       60034.832          44.037  
G25  24632515.969     -178495.312          40.655  
J01  38071369.443     -159229.850          37.702  
J02  37238165.556       14142.555          37.311  
E07  24057273.608       37440.101          36.918  
E21  27392882.013     -241651.716          40.065  
E27  23848380.611     -141313.275          39.595  
E30  23307793.963       60809.954          39.160  
> 2019  9 12 10 41 45.0002386  0 19
G10  22466106.547     -237249.956          31.814  
G12  22250011.339     -527230.055          39.504  
G15  21385802.620      189887.174          41.581  
G20  20513844.870     -245847.301          34.321  
G21  23406885.862      218777.434          34.188  
G24  20086132.460       60468.703          43.155  
G25  24631722.124     -182666.840          40.485  
J01  38071176.671     -160264.663          35.570  
J02  37238185.344       14244.631          36.503  
E07  24057338.348       37778.881          39.123  
E21  27392220.667     -245119.989          41.002  
E27  23847995.083     -143328.987          41.452  
E30  23307945.343       61601.164          38.824  
> 2019  9 12 10 41 46.0002386  0 19
G10  22465494.969     -240488.076          31.043  
G12  22249364.983     -530601.921          39.393  
G15  21386043.346      191143.084          42.122  
G20  20513553.172     -247389.760          34.223  
G21  23407162.570      220224.727          33.863  
G24  20086214.302       60902.515          42.952  
G25  24630925.277     -186838.094          37.671  
J01  38070979.413     -161299.969          35.543  
J02  37238205.133       14346.781          36.734  
E07  24057403.106       38117.930          39.020  
E21  27391560.229     -248587.907          40.414  
E27  23847610.742     -145344.252          40.212  
E30  23308096.148       62392.737          39.404  
> 2019  9 12 10 41 47.0002386  0 19
G10  22464877.092     -243724.921          31.208  
G12  22248724.037     -533973.129          41.378  
G15  21386282.292      192395.329          39.864  
G20  20513259.363     -248932.000          34.868  
G21  23407436.870      221672.415          34.159  
G24  20086300.349       61336.747          43.326  
G25  24630134.119     -191009.614          35.803  
J01  38070778.858     -162335.335          36.629  
J02  37238224.921       14448.519          38.171  
E07  24057467.270       38457.042          37.430  
E21  27390900.384     -252055.604          38.782  
E27  23847225.214     -147359.468          39.089  
E30  23308246.045       63183.865          38.713  
> 2019  9 12 10 41 48.0002386  0 19
G10  22464256.527     -246969.238          28.754  
G12  22248086.074     -537343.946          41.972  
G15  21386519.126      193648.855          39.957  
G20  20512966.182     -250473.336          34.775  
G21  23407715.672      223118.743          34.857  
G24  20086381.300       61771.797          42.939  
G25  24629338.163     -195179.219          33.208  
J01  38070586.993     -163370.385          36.635  
J02  37238245.600       14551.245          39.287  
E07  24057532.028       38796.405          36.900  
E21  27390240.539     -255523.001          38.164  
E27  23846842.671     -149372.887          38.418  
E30  23308397.740       63975.729          39.267  
> 2019  9 12 10 41 49.0002386  0 19
G12  22247441.219     -540713.987          42.753  
G15  21386757.461      194902.872          39.920  
G20  20512671.779     -252013.574          35.290  
G21  23407989.099      224566.559          34.159  
G24  20086463.735       62207.248          43.511  
G25  24628550.913     -199348.259          29.494  
J01  38070386.420     -164404.764          36.452  
J02  37238263.591       14654.600          38.637  
E07  24057595.878       39135.966          37.006  
E21  27389580.100     -258989.736          37.125  
E27  23846462.239     -151386.247          38.459  
E30  23308548.527       64768.392          39.761  
> 2019  9 12 10 41 50.0002386  0 19
G12  22246804.757     -544083.196          43.679  
G15  21386996.390      196158.704          40.008  
G20  20512376.190     -253552.154          33.796  
G21  23408265.807      226014.196          35.102  
G24  20086549.171       62644.630          42.886  
J01  38070192.164     -165438.543          37.836  
J02  37238280.378       14758.462          39.164  
E07  24057661.229       39477.881          36.774  
E21  27388921.145     -262458.499          34.060  
E27  23846080.009     -153398.745          37.726  
E30  23308698.721       65562.901          39.770  
> 2019  9 12 10 41 51.0002386  0 19
G12  22246160.809     -547452.323          41.993  
G15  21387235.632      197413.276          39.500  
G20  20512082.992     -255091.179          34.418  
G21  23408542.515      227461.461          34.972  
G24  20086632.810       63081.891          43.198  
J01  38069991.591     -166472.529          37.501  
J02  37238304.355       14861.963          40.324  
E07  24057726.580       39817.761          36.815  
E21  27388261.597     -265926.617          33.366  
E27  23845696.279     -155411.221          37.870  
E30  23308849.526       66356.947          38.792  
> 2019  9 12 10 41 52.0002386  0 19
G12  22245528.239     -550821.331          41.315  
G13  24206253.655       10428.278          31.512  
G15  21387474.857      198667.317          41.816  
G20  20511792.777     -256630.251          34.586  
G21  23408812.627      228908.894          35.868  
G24  20086715.262       63518.935          43.122  
J01  38069795.835     -167506.230          37.068  
J02  37238323.550       14965.348          39.536  
E07  24057790.448       40157.980          38.512  
E21  27387604.456     -269393.359          32.640  
E27  23845311.938     -157424.095          38.432  
E30  23309000.924       67150.806          38.841  
> 2019  9 12 10 41 53.0002386  0 19
G12  22244879.492     -554190.609          41.606  
G13  24206670.680       12583.955          28.539  
G15  21387715.304      199921.269          41.792  
G20  20511499.596     -258169.113          34.358  
G21  23409094.134      230359.817          34.908  
G24  20086796.196       63956.399          43.819  
G32  25009808.680      -11636.762          34.492  
J01  38069600.061     -168541.484          36.993  
J02  37238343.338       15067.738          38.283  
E07  24057854.892       40498.303          39.872  
E21  27386942.221     -272860.526          33.927  
E27  23844924.002     -159436.920          38.476  
E30  23309153.509       67944.581          38.927  
> 2019  9 12 10 41 54.0002386  0 19
G12  22244234.043     -557559.696          42.040  
G13  24207080.184       14736.077          29.268  
G15  21387950.027      201175.764          41.063  
G20  20511206.397     -259707.423          34.308  
G21  23409365.136      231807.219          35.407  
G24  20086882.244       64393.976          43.051  
G32  25009247.167      -14559.790          35.063  
J01  38069403.100     -169576.831          35.667  
J02  37238362.220       15170.138          39.223  
E07  24057921.150       40838.264          39.058  
E21  27386283.283     -276328.013          36.522  
E27  23844546.571     -161449.243          37.367  
E30  23309303.703       68739.215          39.140  
> 2019  9 12 10 41 55.0002386  0 19
G12  22243593.987     -560928.848          40.217  
G13  24207494.505       16891.911          28.692  
G15  21388190.770      202429.881          42.623  
G20  20510913.199     -261245.282          35.697  
G21  23409647.236      233255.798          33.501  
G24  20086965.882       64831.009          40.216  
G32  25008687.451      -17478.314          34.155  
J01  38069207.047     -170611.412          33.429  
J02  37238382.601       15272.688          38.049  
E07  24057985.611       41178.444          39.800  
E08  25707445.508       11298.938          41.761  
E21  27385624.328     -279795.938          38.452  
E27  23844161.637     -163461.409          38.105  
E30  23309455.101       69533.914          36.232  
> 2019  9 12 10 41 56.0002386  0 19
G12  22242957.822     -564297.505          35.944  
G13  24207896.820       19046.892          33.783  
G15  21388431.810      203684.280          44.342  
G20  20510618.499     -262782.583          34.325  
G21  23409921.850      234704.032          31.636  
G24  20087051.022       65269.456          38.802  
G32  25008139.427      -20395.127          31.562  
J01  38069008.586     -171646.514          36.827  
J02  37238400.889       15375.568          37.724  
E07  24058047.961       41518.410          41.552  
E08  25707760.293       12959.278          40.129  
E21  27384962.982     -283263.478          41.090  
E27  23843780.594     -165473.063          40.539  
E30  23309605.592       70328.917          33.424  
> 2019  9 12 10 41 57.0002386  0 19
G12  22242313.577     -567665.816          40.073  
G13  24208303.637       21202.111          36.331  
G15  21388670.441      204939.203          44.402  
G20  20510329.803     -264319.538          34.754  
G21  23410196.465      236147.298          34.982  
G24  20087130.473       65708.505          40.018  
G32  25007589.013      -23318.047          29.825  
J01  38068812.812     -172681.503          39.019  
J02  37238419.491       15478.422          40.020  
E07  24058112.719       41858.721          40.521  
E08  25708078.672       14620.026          39.090  
E21  27384304.044     -286731.412          40.483  
E27  23843396.864     -167484.440          41.153  
E30  23309753.098       71124.637          33.549  
> 2019  9 12 10 41 58.0002386  0 19
G12  22241673.206     -571033.152          36.387  
G13  24208714.066       23356.837          34.696  
G15  21388906.072      206194.112          42.968  
G20  20510038.105     -265855.819          34.077  
G21  23410471.672      237594.801          34.312  
G24  20087217.706       66147.676          39.527  
G32  25007031.094      -26233.414          31.344  
J01  38068616.148     -173716.538          34.305  
J02  37238441.967       15581.295          37.977  
E07  24058178.070       42199.061          40.427  
E08  25708394.957       16280.522          38.040  
E21  27383643.309     -290199.028          39.165  
E27  23843011.632     -169495.448          40.999  
E30  23309911.093       71920.428          38.368  
> 2019  9 12 10 41 59.0002386  0 19
G12  22241037.652     -574400.930          42.674  
G13  24209133.464       25511.093          31.475  
G15  21389145.000      207449.062          43.736  
G20  20509747.908     -267392.004          34.160  
G21  23410748.973      239041.125          34.906  
G24  20087298.955       66586.812          39.521  
G32  25006462.985      -29145.870          31.349  
J01  38068417.390     -174752.389          36.360  
J02  37238460.552       15683.664          39.739  
E07  24058241.938       42539.481          40.617  
E08  25708710.928       17941.063          37.119  
E21  27382983.168     -293666.807          37.814  
E27  23842633.888     -171506.267          41.477  
E30  23310060.379       72716.473          38.243  
> 2019  9 12 10 42  0.0002386  0 19
G12  22240393.407     -577768.427          44.601  
G13  24209537.297       27659.814          31.522  
G15  21389383.649      208704.232          44.304  
G20  20509448.113     -268927.446          34.331  
G21  23411019.399      240488.881          34.926  
G24  20087379.592       67026.703          38.588  
G32  25005908.975      -32066.216          32.902  
J01  38068221.616     -175787.750          38.346  
J02  37238481.247       15786.476          41.837  
E07  24058309.086       42879.997          40.665  
E08  25709026.323       19601.199          33.500  
E21  27382323.008     -297134.948          38.292  
E27  23842246.859     -173516.719          39.728  
E30  23310210.277       73512.617          36.125  
> 2019  9 12 10 42  1.0002386  0 19
G12  22239743.753     -581136.014          43.879  
G13  24209958.196       29810.713          33.552  
G15  21389622.874      209959.255          44.863  
G20  20509158.510     -270462.323          33.489  
G21  23411298.795      241936.187          36.129  
G24  20087467.733       67467.018          37.763  
G32  25005351.354      -34988.789          34.662  
J01  38068021.968     -176823.438          38.821  
J02  37238500.129       15888.979          42.704  
E07  24058372.936       43220.410          40.744  
E08  25709341.998       21261.420          32.744  
E21  27381664.664     -300602.903          37.323  
E27  23841867.020     -175527.009          40.724  
E30  23310367.381       74309.604          34.183  
> 2019  9 12 10 42  2.0002386  0 19
G12  22239102.789     -584505.061          42.324  
G13  24210367.107       31963.743          31.574  
G15  21389862.710      211214.237          43.488  
G20  20508868.312     -271997.372          34.280  
G21  23411574.316      243384.178          35.841  
G24  20087549.575       67907.261          39.561  
G32  25004798.548      -37913.488          37.914  
J01  38067825.304     -177860.382          35.991  
J02  37238518.713       15990.774          39.950  
E07  24058438.287       43560.556          40.593  
E08  25709656.486       22921.737          32.158  
E21  27381004.836     -304072.112          35.399  
E27  23841484.494     -177537.791          41.870  
E30  23310516.371       75106.154          39.526  
> 2019  9 12 10 42  3.0002386  0 19
G12  22238465.141     -587872.244          43.241  
G13  24210763.437       34117.912          34.131  
G15  21390102.249      212469.288          44.676  
G20  20508578.709     -273532.088          32.631  
G21  23411847.116      244832.113          36.485  
G24  20087631.434       68347.718          36.933  
G32  25004241.223      -40829.984          38.534  
J01  38067630.734     -178896.849          36.765  
J02  37238539.392       16092.766          41.277  
E07  24058502.748       43900.767          41.454  
E08  25709973.958       24581.688          31.846  
E21  27380343.491     -307540.933          33.462  
E27  23841102.858     -179547.905          40.426  
E30  23310667.158       75903.091          36.560  
> 2019  9 12 10 42  4.0002386  0 19
G12  22237840.964     -591238.106          38.567  
G13  24211192.747       36272.313          35.452  
G15  21390339.380      213725.456          44.071  
G20  20508285.510     -275065.711          31.587  
G21  23412125.621      246281.900          34.230  
G24  20087715.666       68789.557          38.865  
G32  25003686.010      -43752.824          36.678  
J01  38067435.571     -179932.002          34.241  
J02  37238556.493       16195.971          39.515  
E07  24058567.506       44242.081          41.576  
E08  25710291.133       26243.995          28.577  
E21  27379673.455     -311007.804          30.594  
E27  23840716.719     -181556.567          42.369  
E30  23310818.853       76701.140          38.614  
> 2019  9 12 10 42  5.0002386  0 19
G12  22237180.526     -594602.621          42.814  
G13  24211607.364       38428.878          32.669  
G15  21390579.809      214984.197          41.110  
G20  20507989.310     -276597.647          32.920  
G21  23412407.739      247732.372          33.971  
G24  20087803.510       69233.744          43.284  
G32  25003125.404      -46664.364          37.313  
J01  38067236.813     -180966.044          36.993  
J02  37238578.079       16300.685          39.563  
E07  24058633.451       44584.704          38.989  
E08  25710614.311       27908.870          24.335  
E27  23840339.585     -183563.463          39.287  
E30  23310968.454       77501.732          40.233  
> 2019  9 12 10 42  6.0002386  0 19
G12  22236551.253     -597966.092          44.198  
G13  24212007.585       40585.504          35.121  
G15  21390821.739      216242.207          39.084  
G20  20507707.210     -278127.067          35.557  
G21  23412679.648      249182.377          35.188  
G24  20087888.650       69678.762          43.717  
G32  25002572.878      -49580.151          37.748  
J01  38067038.648     -181999.292          38.198  
J02  37238597.867       16406.253          41.054  
E07  24058699.116       44926.522          36.217  
E08  25710937.192       29575.013          22.640  
E27  23839955.541     -185569.246          37.407  
E30  23311122.243       78302.612          40.320  
> 2019  9 12 10 42  7.0002386  0 19
G12  22235917.496     -601328.906          43.381  
G13  24212419.497       42742.484          35.258  
G15  21391057.090      217501.612          40.510  
G20  20507411.324     -279655.539          36.053  
G21  23412952.151      250636.046          33.846  
G24  20087971.085       70123.985          44.154  
G32  25002020.962      -52495.590          37.269  
J01  38066844.375     -183032.276          38.402  
J02  37238618.842       16512.060          40.254  
E07  24058765.374       45269.992          36.597  
E08  25711254.071       31242.804          23.700  
E27  23839572.107     -187574.405          37.927  
E30  23311276.939       79104.205          40.172  
> 2019  9 12 10 42  8.0002386  0 19
G12  22235264.247     -604691.760          44.640  
G13  24212830.816       44900.179          34.417  
G15  21391297.223      218760.284          40.905  
G20  20507119.626     -281183.776          35.623  
G21  23413230.359      252090.941          31.372  
G24  20088058.929       70569.947          43.616  
G32  25001465.749      -55411.187          37.681  
J01  38066641.708     -184065.492          37.771  
J02  37238639.538       16617.540          41.089  
E07  24058830.115       45614.538          36.766  
E08  25711577.842       32909.026          27.687  
E27  23839193.769     -189579.185          38.351  
E30  23311429.838       79906.075          40.041  
> 2019  9 12 10 42  9.0002386  0 19
G12  22234631.398     -608054.346          45.066  
G13  24213235.225       47057.060          33.355  
G15  21391536.744      220018.983          39.679  
G20  20506827.614     -282711.553          34.911  
G21  23413505.567      253545.183          30.544  
G24  20088139.881       71016.274          43.883  
G32  25000911.739      -58326.905          36.167  
J01  38066448.046     -185098.848          38.315  
J02  37238654.825       16723.033          41.333  
E07  24058894.576       45957.893          36.904  
E08  25711889.939       34567.619          27.948  
E27  23838810.336     -191583.907          39.540  
E30  23311580.939       80708.143          40.139  
> 2019  9 12 10 42 10.0002386  0 19
G12  22233997.623     -611416.911          45.899  
G13  24213642.950       49214.320          34.599  
G15  21391781.082      221277.235          39.246  
G20  20506533.822     -284239.463          34.329  
G21  23413781.385      254998.323          32.434  
G24  20088226.207       71462.432          44.219  
G32  25000359.509      -61243.111          34.972  
J01  38066250.788     -186132.845          38.975  
J02  37238677.004       16828.027          41.866  
E07  24058959.333       46303.548          34.768  
E08  25712205.614       36230.203          30.950  
E27  23838428.996     -193588.698          40.756  
E30  23311735.024       81510.614          40.634  
> 2019  9 12 10 42 11.0002386  0 19
G12  22233356.066     -614779.155          44.498  
G13  24214052.157       51372.844          33.236  
G15  21392016.713      222536.913          40.600  
G20  20506247.831     -285767.909          34.735  
G21  23414057.482      256450.497          34.672  
G24  20088312.254       71909.129          44.046  
G32  24999808.798      -64159.805          33.472  
J01  38066055.328     -187166.761          38.643  
J02  37238696.496       16933.084          41.004  
E07  24059024.685       46647.905          35.898  
E08  25712520.991       37896.040          30.277  
E27  23838048.860     -195593.420          38.396  
E30  23311885.829       82313.533          39.592  
E33  27583797.638       10162.773          33.609  
> 2019  9 12 10 42 12.0002386  0 19
G12  22232698.036     -618141.452          44.086  
G13  24214467.071       53529.832          30.955  
G15  21392255.955      223795.855          41.029  
G20  20505959.117     -287294.595          35.362  
G21  23414334.801      257904.373          34.171  
G24  20088398.301       72356.258          44.377  
G32  24999274.560      -67077.307          33.889  
J01  38065859.258     -188200.865          38.934  
J02  37238716.878       17038.001          42.036  
E07  24059089.442       46991.070          36.028  
E08  25712838.184       39559.695          30.561  
E27  23837664.833     -197597.582          38.340  
E30  23312040.822       83116.571          39.563  
E33  27584082.740       11651.888          32.332  
> 2019  9 12 10 42 13.0002386  0 19
G12  22232070.561     -621503.496          45.567  
G13  24214876.593       55686.715          32.153  
G15  21392491.585      225055.119          39.545  
G20  20505667.419     -288820.973          35.394  
G21  23414617.198      259358.616          33.424  
G24  20088481.032       72803.621          43.861  
G32  24998695.073      -69997.643          34.269  
J01  38065662.594     -189235.101          38.932  
J02  37238737.556       17142.916          41.706  
E07  24059157.201       47335.158          35.736  
E08  25713156.249       41223.766          29.633  
E27  23837287.699     -199601.577          39.710  
E30  23312191.906       83919.694          39.006  
E33  27584368.138       13144.489          31.967  
> 2019  9 12 10 42 14.0002386  0 19
G12  22231443.993     -624865.751          45.432  
G13  24215279.815       57843.352          34.087  
G15  21392738.017      226314.644          39.084  
G20  20505375.424     -290346.869          33.448  
G21  23414889.107      260811.131          33.598  
G24  20088569.470       73251.318          43.811  
G32  24998132.949      -72914.653          34.500  
J01  38065464.726     -190269.704          38.169  
J02  37238759.142       17247.551          41.504  
E07  24059223.757       47678.395          35.111  
E08  25713477.630       42887.045          26.979  
E27  23836901.858     -201605.428          40.318  
E30  23312348.103       84723.212          40.341  
E33  27584655.037       14637.917          30.732  
> 2019  9 12 10 42 15.0002386  0 19
G12  22230799.138     -628227.611          44.713  
G13  24215710.922       60000.402          32.970  
G15  21392978.446      227574.601          40.339  
G20  20505082.226     -291872.299          34.234  
G21  23415168.520      262265.538          33.854  
G24  20088651.626       73699.475          44.091  
G32  24997582.831      -75831.267          35.236  
J01  38065268.376     -191304.280          38.262  
J02  37238773.539       17352.082          41.878  
E07  24059287.310       48022.100          35.131  
E08  25713796.306       44550.768          24.806  
E27  23836522.629     -203609.016          39.766  
E30  23312499.204       85527.142          39.302  
E33  27584939.842       16132.807          31.149  
> 2019  9 12 10 42 16.0002386  0 19
G12  22230143.499     -631589.168          43.645  
G13  24216107.234       62161.073          34.013  
G15  21393214.391      228834.671          40.526  
G20  20504794.734     -293397.060          33.511  
G21  23415446.729      263719.962          33.501  
G24  20088735.858       74148.056          43.643  
G32  24997037.512      -78755.159          34.683  
J01  38065073.195     -192338.872          37.909  
J02  37238799.016       17456.768          41.733  
E07  24059351.754       48365.184          35.453  
E08  25714077.812       46215.368          25.897  
E27  23836142.494     -205612.285          40.219  
E30  23312651.492       86331.373          39.336  
E33  27585223.147       17631.261          29.442  
> 2019  9 12 10 42 17.0002386  0 19
G12  22229506.740     -634950.410          43.362  
G13  24216516.163       64321.431          34.320  
G15  21393455.431      230088.308          40.016  
G20  20504511.429     -294921.529          33.821  
G21  23415724.938      265173.980          32.418  
G24  20088823.702       74596.852          44.057  
G32  24996473.904      -81671.287          36.321  
J01  38064875.345     -193373.399          38.197  
J02  37238817.007       17561.288          40.793  
E07  24059419.810       48709.748          36.668  
E08  25714403.992       47878.518          26.306  
E27  23835761.451     -207615.307          41.285  
E30  23312803.484       87135.877          39.749  
E33  27585507.952       19130.023          28.201  
> 2019  9 12 10 42 18.0002386  0 19
G12  22228878.968     -638311.665          44.743  
G13  24216930.780       66477.398          35.340  
G15  21393694.952      231347.445          39.277  
G20  20504217.323     -296441.924          32.772  
G21  23415998.348      266627.958          33.490  
G24  20088909.749       75045.884          44.105  
G32  24995917.487      -84589.174          35.365  
J01  38064676.273     -194408.360          38.534  
J02  37238837.686       17665.734          41.187  
E07  24059484.864       49053.667          35.205  
E08  25714728.374       49548.561          28.535  
E27  23835378.017     -209618.163          40.026  
E30  23312957.883       87940.392          40.504  
E33  27585795.147       20622.760          29.198  
> 2019  9 12 10 42 19.0002386  0 19
G12  22228239.523     -641672.225          44.200  
G13  24217339.098       68633.568          34.241  
G15  21393938.086      232605.876          37.029  
G20  20503925.940     -297965.201          32.016  
G21  23416277.761      268081.884          31.592  
G24  20088995.186       75495.286          43.831  
G32  24995371.871      -87507.449          34.998  
J01  38064481.406     -195443.428          39.425  
J02  37238855.677       17770.423          40.622  
E07  24059548.732       49397.928          35.309  
E08  25715041.047       51215.622          28.322  
E27  23834999.086     -211620.637          40.187  
E30  23313110.468       88745.232          39.689  
E33  27586088.957       22114.111          27.788  
> 2019  9 12 10 42 20.0002386  0 19
G12  22227581.475     -645032.990          43.867  
G13  24217745.304       70793.833          34.099  
G15  21394175.217      233866.587          37.248  
G20  20503636.929     -299488.226          32.103  
G21  23416556.563      269536.493          32.175  
G24  20089078.825       75945.245          43.407  
G32  24994808.264      -90423.017          34.256  
J01  38064280.851     -196478.509          38.109  
J02  37238875.465       17874.936          40.063  
E07  24059615.287       49741.296          34.192  
E08  25715359.426       52876.564          28.496  
E27  23834617.135     -213622.617          40.080  
E30  23313260.662       89550.532          40.252  
E33  27586375.856       23610.638          27.974  
> 2019  9 12 10 42 21.0002386  0 19
G12  22226960.003     -648393.608          44.114  
G13  24218156.920       72950.889          31.908  
G15  21394416.554      235128.121          40.082  
G20  20503341.340     -301010.904          33.344  
G21  23416829.973      270990.957          33.769  
G24  20089165.762       76395.630          43.707  
G32  24994248.251      -93345.856          34.767  
J01  38064085.391     -197513.859          38.466  
J02  37238895.551       17979.179          41.831  
E07  24059681.825       50086.049          35.590  
E08  25715680.214       54540.595          27.322  
E27  23834237.000     -215624.437          39.930  
E30  23313419.564       90356.547          39.906  
E33  27586655.565       25110.683          28.021  
> 2019  9 12 10 42 22.0002386  0 19
G12  22226327.729     -651754.955          44.179  
G13  24218577.225       75109.191          35.939  
G15  21394650.997      236387.613          38.837  
G20  20503057.425     -302534.047          34.026  
G21  23417103.383      272445.715          32.490  
G24  20089253.309       76845.468          43.982  
G32  24993702.932      -96261.111          32.990  
J01  38063887.819     -198550.366          38.809  
J02  37238917.433       18082.457          42.541  
E07  24059747.193       50428.782          34.604  
E08  25715993.794       56201.060          28.199  
E27  23833853.270     -217627.124          39.548  
E30  23313568.554       91162.081          39.713  
E33  27586931.977       26606.091          30.821  
> 2019  9 12 10 42 23.0002386  0 19
G12  22225673.590     -655115.464          44.542  
G13  24218979.261       77266.668          36.728  
G15  21394894.428      237647.425          41.324  
G20  20502766.041     -304056.983          33.017  
G21  23417379.498      273899.386          31.402  
G24  20089336.652       77295.813          43.220  
G32  24993164.191      -99181.460          32.433  
J01  38063689.358     -199586.599          38.085  
J02  37238934.831       18186.087          41.133  
E07  24059811.951       50772.929          37.572  
E08  25716308.579       57865.238          30.630  
E27  23833476.432     -219628.961          37.199  
E30  23313725.047       91968.297          39.338  
E33  27587219.172       28098.835          28.315  
> 2019  9 12 10 42 24.0002386  0 19
G12  22225030.236     -658474.734          44.897  
G13  24219377.370       79425.030          33.702  
G15  21395139.063      238908.572          38.917  
G20  20502474.937     -305578.107          32.955  
G21  23417659.801      275354.597          29.571  
G24  20089424.793       77747.614          44.279  
G32  24992602.678     -102099.592          32.720  
J01  38063494.492     -200621.838          39.954  
J02  37238953.415       18290.796          40.592  
E07  24059878.803       51118.259          35.321  
E08  25716620.065       59526.845          31.904  
E27  23833094.499     -221630.527          38.576  
E30  23313877.039       92775.516          40.259  
E33  27587498.882       29586.541          26.970  
> 2019  9 12 10 42 25.0002386  0 19
G12  22224391.680     -661832.234          44.270  
G13  24219794.396       81583.496          32.737  
G15  21395379.195      240171.418          40.380  
G20  20502187.427     -307096.540          34.038  
G21  23417943.105      276810.014          27.885  
G24  20089507.821       78201.632          43.161  
G32  24992048.372     -105011.731          34.419  
J01  38063297.828     -201655.450          38.918  
J02  37238978.299       18397.148          40.885  
E07  24059945.358       51465.088          35.880  
E08  25716942.336       61192.267          30.932  
E27  23832714.067     -223629.256          39.721  
E30  23314032.642       93584.964          40.197  
E33  27587796.565       31070.282          25.534  
> 2019  9 12 10 42 26.0002386  0 19
G12  22223751.623     -665188.079          43.978  
G13  24220210.793       83742.363          30.367  
G15  21395614.232      241435.289          38.793  
G20  20501896.340     -308613.508          34.277  
G21  23418219.813      278266.826          25.548  
G24  20089596.573       78656.759          44.153  
G32  24991481.170     -107928.237          32.383  
J01  38063099.366     -202688.122          38.770  
J02  37238996.291       18504.661          41.099  
E07  24060010.098       51814.319          35.520  
E08  25717255.026       62854.824          30.772  
E27  23832330.633     -225626.166          39.302  
E30  23314184.337       94394.955          41.167  
E33  27588077.182       32549.106          25.553  
> 2019  9 12 10 42 27.0002386  0 19
G12  22223125.649     -668543.861          45.075  
G13  24220622.408       85908.911          28.049  
G15  21395854.661      242699.753          39.670  
G20  20501613.332     -310129.928          35.404  
G21  23418507.916      279725.064          26.473  
G24  20089682.009       79112.269          43.650  
G32  24990932.535     -110837.854          30.711  
J01  38062904.500     -203720.808          38.299  
J02  37239015.172       18612.246          41.073  
E07  24060074.856       52164.671          36.495  
E08  25717570.997       64520.945          31.737  
E27  23831953.185     -227622.904          40.086  
E30  23314336.922       95205.331          40.420  
E33  27588355.984       34028.580          22.439  
> 2019  9 12 10 42 28.0002386  0 19
G12  22222487.390     -671899.445          44.770  
G13  24221041.528       88068.712          27.956  
G15  21396096.888      243964.172          39.457  
G20  20501321.931     -311645.708          33.760  
G21  23418781.919      281178.620          27.659  
G24  20089769.539       79568.345          43.917  
G32  24990380.917     -113753.681          32.307  
J01  38062709.930     -204753.704          38.772  
J02  37239034.960       18719.694          40.646  
E07  24060140.207       52512.739          36.395  
E08  25717891.784       66185.799          30.166  
E27  23831572.753     -229619.362          39.725  
E30  23314496.713       96016.323          39.863  
E33  27588646.775       35559.266          25.226  
> 2019  9 12 10 42 29.0002386  0 19
G12  22221828.156     -675255.087          44.178  
G13  24221454.941       90227.473          29.077  
G15  21396338.224      245228.919          38.884  
G20  20501033.531     -313161.611          33.974  
G21  23419057.720      282638.450          29.756  
G24  20089856.790       80024.567          43.605  
G32  24989855.386     -116672.286          35.214  
J01  38062514.173     -205786.904          38.314  
J02  37239057.733       18826.793          41.230  
E07  24060206.762       52859.719          35.604  
E08  25718212.258       67855.233          30.964  
E27  23831193.211     -231615.816          39.150  
E30  23314650.205       96828.011          38.997  
E33  27588928.578       37060.203          25.381  
> 2019  9 12 10 42 30.0002386  0 19
G12  22221197.383     -678610.678          44.088  
G13  24221862.665       92385.658          25.717  
G15  21396578.060      246493.308          38.792  
G20  20500746.929     -314677.768          32.494  
G21  23419333.241      284098.820          28.238  
G24  20089941.022       80481.062          44.023  
G32  24989313.661     -119591.954          37.181  
J01  38062313.321     -206820.552          38.491  
J02  37239075.427       18933.462          41.949  
E07  24060273.928       53208.198          35.998  
E08  25718526.431       69519.933          30.271  
E27  23830814.873     -233612.309          40.945  
E30  23314800.399       97639.947          39.951  
E33  27589224.482       38555.449          26.468  
> 2019  9 12 10 42 31.0002386  0 19
G12  22220569.332     -681966.114          44.662  
G13  24222273.670       94544.498          26.462  
G15  21396821.787      247758.362          39.881  
G20  20500457.936     -316193.301          32.826  
G21  23419617.436      285558.191          25.563  
G24  20090029.774       80937.631          44.076  
G32  24988762.950     -122510.888          36.677  
J01  38062116.046     -207854.448          38.214  
J02  37239099.107       19040.148          41.637  
E07  24060341.670       53556.851          35.965  
E08  25718851.407       71187.347          27.880  
E27  23830432.346     -235608.840          40.138  
E30  23314959.894       98452.101          39.749  
E33  27589505.988       40054.779          28.326  
> 2019  9 12 10 42 32.0002386  0 19
G12  22219937.669     -685321.531          44.901  
G13  24222692.790       96709.953          24.349  
G15  21397058.325      249023.614          38.236  
G20  20500173.724     -317708.218          33.478  
G21  23419893.551      287018.147          23.645  
G24  20090115.210       81394.688          44.181  
G32  24988179.851     -125431.465          33.309  
J01  38061922.384     -208888.398          39.262  
J02  37239119.507       19146.652          42.124  
E07  24060408.522       53905.892          35.139  
E08  25719165.005       72849.098          28.810  
E27  23830055.195     -237604.969          38.534  
E30  23315113.387       99264.525          39.318  
E33  27589779.695       41553.104          30.664  
> 2019  9 12 10 42 33.0002386  0 19
G12  22219290.109     -688676.747          43.853  
G13  24223111.001       98871.945          23.539  
G15  21397300.255      250288.319          40.650  
G20  20499883.230     -319222.535          33.071  
G21  23420163.069      288478.623          24.055  
G24  20090203.351       81852.221          43.844  
G32  24987623.433     -128348.663          31.995  
J01  38061724.219     -209921.871          38.817  
J02  37239138.981       19252.980          41.766  
E07  24060475.077       54254.671          35.807  
E08  25719476.788       74515.697          28.453  
E27  23829674.763     -239600.569          40.356  
E30  23315269.880      100077.650          39.618  
E33  27590066.001       43054.004          32.784  
> 2019  9 12 10 42 34.0002386  0 19
G12  22218658.446     -692031.584          44.807  
G13  24223524.711      101037.559          25.220  
G15  21397540.387      251553.570          40.461  
G20  20499592.126     -320738.005          34.218  
G21  23420451.469      289935.060          24.715  
G24  20090291.178       82309.914          43.785  
G32  24987071.814     -131267.684          30.451  
J01  38061529.056     -210956.237          39.135  
J02  37239157.880       19359.504          41.660  
E07  24060541.946       54603.164          36.955  
E08  25719790.665       76180.785          31.419  
E27  23829294.330     -241596.049          40.814  
E30  23315422.168      100890.653          40.686  
E33  27590348.712       44552.962          31.286  
> 2019  9 12 10 42 35.0002386  0 19
G12  22218003.103     -695385.994          44.301  
G13  24223927.323      103196.579          24.044  
G15  21397779.036      252818.987          38.055  
G20  20499303.726     -322251.670          33.721  
G21  23420728.177      291394.437          25.806  
G24  20090377.522       82768.034          44.239  
G32  24986516.304     -134188.171          29.100  
J01  38061329.687     -211990.516          39.288  
J02  37239178.262       19466.198          41.551  
E07  24060608.484       54952.235          34.755  
E08  25720118.345       77847.951          33.638  
E27  23828913.287     -243591.014          40.179  
E30  23315576.568      101703.682          41.534  
E33  27590638.298       46053.790          30.832  
> 2019  9 12 10 42 36.0002386  0 19
G12  22217370.236     -698740.267          43.028  
G13  24224346.442      105354.611          22.751  
G15  21398024.857      254084.266          39.752  
G20  20499015.326     -323764.583          34.218  
G21  23420999.179      292855.097          24.434  
G24  20090464.773       83226.074          44.410  
G32  24985962.888     -137104.823          28.214  
J01  38061131.837     -213025.137          38.418  
J02  37239201.645       19572.429          40.748  
E07  24060672.945       55299.916          35.441  
E08  25720433.112       79512.073          34.755  
E27  23828534.949     -245585.868          41.067  
E30  23315734.859      102516.677          41.301  
E33  27590929.106       47550.212          29.688  
> 2019  9 12 10 42 37.0002386  0 19
G12  22216746.670     -702094.286          45.512  
G13  24224750.257      107522.952          25.135  
G15  21398260.191      255349.161          40.658  
G20  20498724.832     -325277.046          34.005  
G21  23421282.483      294315.688          23.716  
G24  20090551.099       83684.640          42.761  
G32  24985403.765     -140024.532          28.314  
J01  38060937.860     -214059.684          37.632  
J02  37239218.432       19679.474          41.235  
E07  24060739.500       55648.468          37.258  
E08  25720747.006       81179.187          35.309  
E27  23828156.018     -247580.440          38.734  
E30  23315886.850      103329.987          39.898  
E33  27591212.114       49049.186          28.426  
> 2019  9 12 10 42 38.0002386  0 19
G12  22216095.829     -705447.777          45.392  
G13  24225164.875      109683.516          26.544  
G15  21398504.529      256613.991          38.663  
G20  20498437.933     -326789.143          34.744  
G21  23421563.990      295777.445          22.460  
G24  20090642.242       84143.795          43.747  
G32  24984834.766     -142944.834          30.558  
J01  38060738.509     -215094.153          37.219  
J02  37239241.815       19786.114          42.388  
E07  24060805.758       55996.027          36.668  
E08  25721062.978       82846.989          34.975  
E27  23827776.476     -249574.432          39.232  
E30  23316042.436      104143.526          39.637  
E33  27591494.511       50552.316          29.423  
> 2019  9 12 10 42 39.0002386  0 19
G12  22215454.865     -708800.047          42.929  
G13  24225584.273      111849.355          26.274  
G15  21398743.457      257879.000          43.617  
G20  20498153.425     -328300.613          35.293  
G21  23421842.199      297242.466          23.647  
G24  20090727.382       84602.880          41.895  
G32  24984282.851     -145860.369          29.436  
J01  38060545.736     -216128.497          35.586  
J02  37239256.508       19892.351          40.399  
E07  24060871.406       56344.551          41.003  
E08  25721373.260       84513.142          33.669  
E27  23827396.637     -251568.192          39.401  
E30  23316196.836      104957.093          38.025  
E33  27591781.706       52054.838          28.483  
> 2019  9 12 10 42 40.0002386  0 19
G12  22214826.797     -712152.692          39.300  
G13  24225997.390      114009.691          25.381  
G15  21398984.201      259144.604          44.482  
G20  20497864.135     -329811.208          34.204  
G21  23422122.205      298700.078          24.047  
G24  20090814.319       85063.667          40.510  
G32  24983730.028     -148775.991          29.450  
J01  38060344.570     -217163.234          36.812  
J02  37239281.078       19999.145          38.992  
E07  24060938.869       56693.613          41.485  
E08  25721692.547       86179.714          34.492  
E27  23827016.798     -253561.457          41.173  
E30  23316348.827      105772.188          33.958  
E33  27592070.717       53555.586          27.503  
> 2019  9 12 10 42 41.0002386  0 19
G12  22214184.350     -715504.265          40.231  
G13  24226412.914      116169.373          24.064  
G15  21399226.724      260410.129          43.929  
G20  20497579.924     -331321.143          34.745  
G21  23422402.805      300159.003          23.852  
G24  20090902.460       85524.211          41.003  
G32  24983176.315     -151694.329          32.462  
J01  38060149.407     -218197.113          35.095  
J02  37239300.570       20106.073          38.806  
E07  24061005.720       57042.536          40.828  
E08  25722010.629       87845.831          34.993  
E27  23826638.163     -255554.303          40.994  
E30  23316506.821      106586.944          36.155  
E33  27592352.817       55057.548          27.165  
> 2019  9 12 10 42 42.0002386  0 19
G12  22213536.493     -718856.888          42.342  
G13  24226817.026      118331.095          26.198  
G15  21399466.559      261675.710          42.949  
G20  20497290.023     -332832.082          34.265  
G21  23422671.433      301627.724          23.970  
G24  20090989.397       85984.625          40.664  
G32  24982620.787     -154610.688          34.387  
J01  38059950.352     -219233.789          33.975  
J02  37239320.655       20212.407          39.642  
E07  24061070.478       57391.527          39.645  
E08  25722328.712       89511.988          34.984  
E27  23826262.530     -257547.086          39.073  
E30  23316660.610      107401.751          36.843  
E33  27592630.415       56560.900          26.951  
> 2019  9 12 10 42 43.0002386  0 19
G12  22212902.736     -722209.198          44.123  
G13  24227218.748      120489.829          25.626  
G15  21399707.303      262940.953          41.110  
G20  20497005.829     -334342.418          33.076  
G21  23422951.439      303090.784          24.387  
G24  20091079.946       86445.275          42.024  
G32  24982056.883     -157527.822          34.197  
J01  38059757.580     -220268.568          35.745  
J02  37239342.852       20319.050          41.081  
E07  24061136.719       57740.351          38.799  
E08  25722648.278       91178.152          32.154  
E27  23825878.189     -259539.407          37.333  
E30  23316816.807      108217.486          38.812  
E33  27592927.226       58060.161          23.990  
> 2019  9 12 10 42 44.0002386  0 19
G12  22212276.762     -725561.083          45.157  
G13  24227625.565      122649.628          25.550  
G15  21399948.936      264207.246          37.826  
G20  20496718.616     -335850.999          31.827  
G21  23423218.550      304550.202          22.882  
G24  20091165.382       86906.916          43.970  
G32  24981502.577     -160449.173          32.233  
J01  38059557.618     -221303.420          38.831  
J02  37239361.436       20425.726          41.775  
E07  24061202.978       58088.791          36.266  
E08  25722964.266       92844.992          32.216  
E27  23825500.461     -261531.262          39.698  
E30  23316972.096      109033.682          40.123  
E33  27593218.610       59561.999          25.283  
> 2019  9 12 10 42 45.0002386  0 19
G12  22211629.812     -728912.877          44.821  
G13  24228031.788      124809.787          28.807  
G15  21400187.271      265473.655          38.488  
G20  20496433.811     -337358.612          32.863  
G21  23423497.649      306004.028          23.344  
G24  20091253.226       87369.084          43.429  
G32  24980948.550     -163366.183          31.105  
J01  38059362.454     -222337.673          38.305  
J02  37239381.522       20532.486          39.592  
E07  24061269.830       58437.074          35.904  
E08  25723281.755       94511.267          32.040  
E27  23825121.512     -263523.690          38.593  
E30  23317126.793      109849.832          40.385  
E33  27593501.914       61065.215          25.434  
> 2019  9 12 10 42 46.0002386  0 19
G12  22210984.067     -732264.073          44.802  
G13  24228437.698      126974.843          28.971  
G15  21400432.185      266740.117          37.602  
G20  20496143.614     -338865.860          34.507  
G21  23423781.250      307465.089          23.609  
G24  20091340.163       87831.813          44.211  
G32  24980399.340     -166281.955          31.471  
J01  38059162.196     -223372.495          38.215  
J02  37239404.294       20639.470          40.915  
E07  24061338.793       58786.034          34.706  
E08  25723604.323       96181.098          31.101  
E27  23824742.877     -265514.648          39.306  
E30  23317285.380      110666.598          41.196  
E33  27593783.124       62564.988          23.705  
> 2019  9 12 10 42 47.0002386  0 19
G12  22210355.702     -735615.059          44.869  
G13  24228853.222      129132.684          29.481  
G15  21400674.725      268005.836          37.915  
G20  20495858.215     -340372.480          34.902  
G21  23424059.162      308930.601          23.676  
G24  20091431.603       88295.097          44.760  
G32  24979845.016     -169201.862          31.238  
J01  38058967.329     -224407.290          38.716  
J02  37239422.285       20746.450          41.639  
E07  24061404.144       59136.909          33.744  
E08  25723921.812       97851.928          31.367  
E27  23824363.335     -267505.359          39.071  
E30  23317436.778      111484.265          40.183  
E33  27594074.525       64068.038          20.767  
> 2019  9 12 10 42 48.0002386  0 19
G12  22209724.632     -738965.650          44.977  
G13  24229270.230      131296.561          27.960  
G15  21400913.357      269273.829          39.145  
G20  20495573.410     -341878.621          34.615  
G24  20091518.540       88758.806          44.752  
G32  24979287.098     -172127.774          29.609  
J01  38058770.369     -225442.074          39.053  
J02  37239442.371       20853.380          41.462  
E07  24061472.200       59487.222          33.833  
E08  25724244.379       99522.736          32.221  
E27  23823983.810     -269495.656          38.472  
E30  23317595.366      112302.098          40.453  
E33  27594388.402       65573.721          20.402  
> 2019  9 12 10 42 49.0002386  0 19
G12  22209087.281     -742316.040          44.871  
G13  24229686.348      133458.260          29.088  
G15  21401151.099      270541.297          37.385  
G20  20495283.510     -343384.452          35.129  
G24  20091605.773       89222.942          44.776  
G32  24978734.886     -175040.213          30.716  
J01  38058574.001     -226476.910          39.519  
J02  37239465.754       20960.432          40.945  
E07  24061537.847       59836.160          33.596  
E08  25724569.355      101193.687          32.024  
E27  23823608.160     -271485.531          39.114  
E30  23317748.858      113120.414          40.525  
E33  27594646.229       67079.164          17.872  
> 2019  9 12 10 42 50.0002386  0 19
G12  22208437.330     -745665.962          43.636  
G13  24230098.854      135618.890          27.842  
G15  21401393.622      271810.084          38.903  
G20  20494996.611     -344889.117          34.034  
G24  20091694.822       89687.496          44.772  
G32  24978171.872     -177955.745          33.391  
J01  38058377.634     -227511.865          38.430  
J02  37239484.949       21067.455          41.266  
E07  24061602.902       60186.572          35.144  
E08  25724886.844      102869.312          29.921  
E27  23823227.134     -273475.244          38.724  
E30  23317905.648      113939.355          40.552  
E33  27594974.206       68579.979          15.267  
> 2019  9 12 10 42 51.0002386  0 19
G12  22207801.758     -749015.451          44.040  
G13  24230499.371      137785.656          25.453  
G15  21401637.052      273077.426          39.316  
G20  20494707.618     -346393.498          34.396  
G24  20091783.556       90152.464          44.468  
G32  24977615.454     -180873.371          33.259  
J01  38058179.469     -228546.782          38.097  
J02  37239505.331       21174.808          41.031  
E07  24061670.661       60537.017          35.910  
E08  25725207.317      104551.988          29.743  
E27  23822850.297     -275464.110          39.654  
E30  23318060.344      114758.293          40.578  
> 2019  9 12 10 42 52.0002386  0 19
G12  22207171.892     -752364.591          43.256  
G13  24230912.191      139950.884          25.245  
G15  21401876.295      274345.438          42.511  
G20  20494421.609     -347897.181          33.991  
G24  20091872.884       90618.757          42.718  
G32  24977065.039     -183790.949          32.325  
J01  38057983.119     -229580.970          37.322  
J02  37239523.025       21282.770          40.549  
E07  24061736.902       60888.131          38.470  
E08  25725522.398      106237.825          31.783  
E27  23822474.349     -277452.553          41.123  
E30  23318217.135      115577.963          38.854  
> 2019  9 12 10 42 53.0002386  0 19
G12  22206537.839     -755714.096          44.773  
G13  24231319.915      142114.071          24.906  
G15  21402120.633      275613.418          38.811  
G20  20494142.807     -349401.234          33.116  
G24  20091958.931       91083.671          44.400  
G32  24976534.710     -186707.889          32.660  
J01  38057785.251     -230616.655          39.638  
J02  37239545.501       21389.420          41.630  
E07  24061803.771       61238.331          36.064  
E08  25725836.572      107923.381          29.911  
E27  23822094.510     -279441.412          40.487  
E30  23318371.831      116396.799          38.563  
> 2019  9 12 10 42 54.0002386  0 19
G12  22205888.184     -759063.361          44.916  
G13  24231723.731      144275.512          24.009  
G15  21402359.858      276880.838          37.038  
G20  20493847.811     -350904.806          31.809  
G21  23425992.227       10128.504          30.810  
G24  20092048.276       91548.939          44.375  
G32  24975982.183     -189628.445          31.146  
J01  38057587.087     -231652.600          39.749  
J02  37239565.587       21495.922          41.798  
E07  24061870.012       61588.930          34.840  
E08  25726162.158      109604.534          29.870  
E21  27346718.160      -13179.356          37.371  
E27  23821712.577     -281430.302          39.192  
E30  23318527.731      117215.962          39.556  
> 2019  9 12 10 42 55.0002386  0 19
G12  22205255.632     -762412.058          43.947  
G13  24232140.739      146437.325          23.115  
G15  21402602.084      278149.493          40.462  
G20  20493563.913     -352408.161          32.460  
G21  23426277.625       11588.380          34.580  
G24  20092137.603       92015.157          43.598  
G32  24975440.773     -192558.101          29.023  
J01  38057390.423     -232687.760          38.316  
J02  37239584.782       21602.982          40.363  
E07  24061936.567       61940.127          37.744  
E08  25726484.132      111279.514          32.663  
E21  27346058.018      -16643.450          37.740  
E27  23821335.740     -283418.295          39.085  
E30  23318684.521      118036.750          40.111  
> 2019  9 12 10 42 56.0002386  0 19
G12  22204620.060     -765758.525          43.627  
G13  24232567.641      148604.374          22.692  
G15  21402842.217      279420.653          39.402  
G20  20493278.201     -353908.025          32.595  
G21  23426557.335       13061.550          31.425  
G24  20092226.338       92484.084          44.900  
G32  24974887.357     -195488.702          25.932  
J01  38057194.352     -233721.228          38.839  
J02  37239609.055       21712.005          40.498  
E07  24062001.622       62292.746          35.803  
E08  25726805.513      112956.437          35.169  
E21  27345398.173      -20105.606          37.687  
E27  23820959.199     -285403.857          40.269  
E30  23318839.811      118859.615          39.956  
> 2019  9 12 10 42 57.0002386  0 19
G12  22203983.005     -769104.203          43.361  
G13  24232987.354      150768.389          24.434  
G15  21403086.258      280692.565          39.437  
G20  20492993.099     -355406.392          33.695  
G21  23426833.153       14529.367          31.879  
G24  20092315.980       92953.994          44.872  
G32  24974310.243     -198406.824          25.824  
J01  38057000.096     -234754.219          38.642  
J02  37239626.750       21821.514          41.215  
E07  24062069.974       62648.989          34.149  
E08  25727124.782      114633.859          31.840  
E21  27344746.128      -23567.225          39.810  
E27  23820580.268     -287388.589          38.377  
E30  23318999.602      119683.381          41.319  
> 2019  9 12 10 42 58.0002386  0 19
G12  22203346.543     -772449.504          43.813  
G13  24233396.579      152936.619          26.405  
G15  21403326.984      281964.283          39.462  
G20  20492706.793     -356904.516          33.835  
G21  23427111.955       15996.674          32.285  
G24  20092406.215       93424.534          43.678  
G32  24973744.542     -201322.776          27.811  
J01  38056801.932     -235786.981          37.924  
J02  37239648.336       21931.300          40.684  
E07  24062139.531       63002.440          36.531  
E08  25727447.070      116311.694          34.311  
E21  27344082.688      -27028.831          40.895  
E27  23820203.727     -289372.794          39.061  
E30  23319154.595      120507.600          40.072  
> 2019  9 12 10 42 59.0002386  0 19
G12  22202707.394     -775794.344          43.733  
G13  24233802.488      155105.391          25.750  
G15  21403569.524      283234.491          37.466  
G20  20492423.803     -358401.925          34.676  
G21  23427392.851       17464.398          29.596  
G24  20092495.560       93895.461          44.597  
G32  24973189.032     -204236.021          27.667  
J01  38056607.065     -236819.854          38.493  
J02  37239669.311       22041.141          41.388  
E07  24062207.883       63356.644          34.870  
E08  25727765.135      117990.247          36.175  
E21  27343423.454      -30489.767          39.286  
E27  23819821.480     -291356.341          36.710  
E30  23319307.180      121332.094          41.080  
> 2019  9 12 10 43  0.0002386  0 19
G12  22202067.634     -779137.668          44.404  
G13  24234220.107      157275.103          22.347  
G15  21403809.064      284508.274          38.353  
G20  20492141.389     -359897.558          35.307  
G21  23427675.266       18930.954          28.962  
G24  20092584.905       94368.150          44.654  
G32  24972648.494     -207147.543          26.335  
J01  38056408.900     -237851.473          38.864  
J02  37239692.694       22152.281          41.669  
E07  24062275.643       63711.000          33.965  
E08  25728085.626      119669.675          37.436  
E21  27342765.406      -33949.708          36.590  
E27  23819450.645     -293338.542          38.579  
E30  23319467.268      122158.349          40.243  
> 2019  9 12 10 43  1.0002386  0 19
G12  22201439.862     -782480.949          45.172  
G15  21404056.979      285781.152          38.898  
G20  20491857.194     -361393.112          34.016  
G21  23427949.269       20400.687          30.473  
G24  20092675.733       94840.796          44.542  
G32  24972101.971     -210071.107          24.287  
J01  38056213.737     -238883.043          38.139  
J02  37239713.093       22263.019          41.206  
E07  24062343.995       64067.958          33.941  
E08  25728406.692      121349.164          35.966  
E21  27342108.563      -37409.838          35.297  
E27  23819069.009     -295320.744          39.864  
E30  23319624.966      122984.409          40.270  
> 2019  9 12 10 43  2.0002386  0 19
G12  22200801.603     -785824.354          45.451  
G15  21404296.815      287055.724          38.888  
G20  20491568.795     -362888.442          33.803  
G21  23428232.573       21870.344          30.787  
G24  20092765.375       95313.349          44.769  
G32  24971560.560     -212989.354          23.551  
J01  38056014.979     -239915.563          38.193  
J02  37239733.178       22373.469          40.988  
E07  24062411.440       64421.761          33.980  
E08  25728727.183      123028.509          32.785  
E21  27341449.311      -40870.032          36.312  
E27  23818693.358     -297303.061          38.157  
E30  23319786.555      123810.336          39.471  
> 2019  9 12 10 43  3.0002386  0 19
G12  22200160.360     -789167.804          44.016  
G15  21404536.057      288327.825          38.459  
G20  20491288.474     -364383.537          33.458  
G21  23428511.690       23339.728          35.800  
G24  20092852.312       95786.479          44.084  
J01  38055822.207     -240948.497          38.954  
J02  37239754.764       22483.698          41.278  
E07  24062478.589       64776.211          35.903  
E08  25729026.978      124707.056          29.838  
E21  27340791.263      -44330.529          34.526  
E27  23818316.835     -299285.094          40.401  
E30  23319936.156      124636.124          39.542  
> 2019  9 12 10 43  4.0002386  0 19
G12  22199529.290     -792510.936          44.859  
G15  21404777.987      289599.812          39.441  
G20  20491002.779     -365878.418          32.474  
G21  23428790.492       24809.365          37.029  
G24  20092948.550       96259.357          43.397  
J01  38055621.651     -241981.569          37.313  
J02  37239774.239       22593.758          40.218  
E07  24062545.755       65130.530          37.103  
E08  25729356.438      126384.138          26.490  
E21  27340135.920      -47790.977          33.168  
E27  23817939.090     -301266.934          40.327  
E30  23320097.134      125462.217          39.960  
> 2019  9 12 10 43  5.0002386  0 19
G12  22198891.328     -795854.243          44.643  
G15  21405022.011      290872.990          37.833  
G20  20490717.678     -367372.879          32.236  
G21  23429072.592       26278.287          35.706  
G24  20093034.283       96732.692          44.185  
G25  24568184.398      -12497.255          35.826  
J01  38055425.581     -243014.944          38.475  
J02  37239798.530       22703.594          40.951  
E07  24062612.903       65485.767          35.860  
E08  25729665.534      128059.564          24.814  
E21  27339474.871      -51252.175          36.796  
E27  23817559.548     -303248.648          38.821  
E30  23320254.221      126288.855          39.895  
> 2019  9 12 10 43  6.0002386  0 19
G12  22198254.569     -799197.614          44.924  
G13  24236677.499       10490.259          26.094  
G15  21405267.553      292149.589          40.643  
G20  20490432.873     -368867.312          36.544  
G21  23429349.003       27746.345          32.178  
G24  20093124.221       97206.344          43.288  
G25  24567389.959      -16673.118          39.400  
J01  38055230.121     -244049.392          36.901  
J02  37239812.612       22813.005          40.176  
E07  24062680.366       65840.299          38.896  
E08  25729967.719      129732.199          30.644  
E21  27338812.339      -54714.494          37.036  
E27  23817188.713     -305232.010          36.150  
E30  23320412.826      127116.231          39.077  
> 2019  9 12 10 43  7.0002386  0 19
G12  22197616.921     -802540.401          43.821  
G13  24237124.486       12657.463          28.769  
G15  21405507.685      293422.184          42.904  
G20  20490149.569     -370361.127          35.797  
G21  23429629.010       29214.980          31.241  
G24  20093215.067       97680.216          41.783  
G25  24566594.299      -20848.970          40.411  
J01  38055032.253     -245083.012          35.301  
J02  37239837.496       22922.621          37.816  
E07  24062746.013       66195.530          41.171  
E08  25730267.514      131403.023          34.833  
E21  27338156.996      -58176.165          39.386  
E27  23816809.171     -307213.390          37.565  
E30  23320571.710      127943.800          37.563  
