     3.03           OBSERVATION DATA    M                   RINEX VERSION / TYPE
G = GPS  R = GLONASS  E = GALILEO  J = QZSS  C = BDS        COMMENT             
S = SBAS payload  M = Mixed                                 COMMENT             
GRitz Logger        Nexus 9             1548141610721       UTC PGM / RUN BY / DATE
                                                            MARKER NAME         
                                                            MARKER NUMBER       
                                                            OBSERVER / AGENCY   
                                                            REC # / TYPE / VERS 
                                                            ANT # / TYPE        
        0.0000        0.0000        0.0000                  APPROX POSITION XYZ
        0.0000        0.0000        0.0000                  ANTENNA: DELTA H/E/N
     0                                                      RCV CLOCK OFFS APPL 
G    4 L1C C1C D1C S1C                                      SYS / # / OBS TYPES 
J    4 L1C C1C D1C S1C                                      SYS / # / OBS TYPES 
E    4 L1C C1C D1C S1C                                      SYS / # / OBS TYPES 
  2019     1    22     7    15   22.0004621     GPS         TIME OF FIRST OBS   
 24 R01  1 R02 -4 R03  5 R04  6 R05  1 R06 -4 R07  5 R08  6 GLONASS SLOT / FRQ #
    R09 -2 R10 -7 R11  0 R12 -1 R13 -2 R14 -7 R15  0 R16 -1 GLONASS SLOT / FRQ #
    R17  4 R18 -3 R19  3 R20  2 R21  4 R22 -3 R23  3 R24  2 GLONASS SLOT / FRQ #
                                                            END OF HEADER       
> 2019  1 22  7 15 22.0004621  0  9
G03     -6512.249    24541201.580         313.559          35.026  
G14      8111.171    20378067.658        -389.251          35.921  
G26    -44316.484    21599107.049        2015.638          41.031  
G29      4328.507    21485977.366        -217.468          36.913  
G31    -21567.208    20866927.821         974.822          42.040  
G32     43862.438    20977363.269       -2026.987          37.569  
J01      5649.238    37243538.731        -294.926          26.156  
J02      -554.907    39036176.216          15.138          38.004  
J03     -1267.681    36940238.398          67.656          25.216  
> 2019  1 22  7 15 23.0004621  0  9
G03     -6826.480    24541139.222         314.206          34.850  
G14      8499.915    20378133.305        -388.722          35.852  
G26    -46332.628    21598735.002        2016.310          40.026  
G29      4545.265    21486008.846        -216.945          35.442  
G31    -22542.755    20866744.053         975.653          39.659  
G32     45888.683    20977758.394       -2026.270          35.683  
J01      5943.645    37243615.180        -294.166          25.310  
J02      -571.076    39036178.310          16.393          36.620  
J03     -1334.6791   36940227.614          67.154          23.221  
> 2019  1 22  7 15 24.0004621  0  9
G03     -7139.853    24541081.060         312.353          36.188  
G14      8889.441    20378208.856        -390.467          36.560  
G26    -48348.158    21598345.871        2014.949          41.771  
G29      4762.792    21486055.613        -218.151          38.409  
G31    -23517.953    20866563.277         974.844          40.720  
G32     47915.690    20978132.841       -2027.878          35.215  
J01      6238.338    37243662.243        -295.039          25.699  
J02      -587.199    39036171.120          15.653          36.623  
J03     -1399.1251   36940205.723          70.141          21.321  
> 2019  1 22  7 15 25.0004621  0  9
G03     -7451.466    24541008.214         311.270          32.502  
G14      9280.746    20378290.401        -392.183          36.244  
G26    -50362.088    21597966.634        2012.899          41.226  
G29      4982.232    21486118.565        -220.245          35.555  
G31    -24491.719    20866378.008         973.001          39.668  
G32     49944.153    20978519.869       -2028.811          32.491  
J01      6534.168    37243717.412        -296.406          26.706  
J02      -602.257    39036169.916          14.377          35.924  
J03     -1463.0861   36940205.129          67.102          19.540  
> 2019  1 22  7 15 26.0004621  0  9
G03     -7760.723    24540965.941         308.455          30.815  
G14      9674.565    20378366.545        -394.704          35.777  
G26    -52373.853    21597579.902        2010.959          40.486  
G29      5203.8481   21486126.662        -223.430          30.887  
G31    -25463.532    20866196.334         971.421          38.813  
G32     51975.382    20978921.896       -2032.052          29.955  
J01      6832.023    37243753.682        -298.636          26.273  
J02      -615.548    39036161.226          13.024          34.671  
J03     -1527.1911   36940205.426          66.477          18.256  
> 2019  1 22  7 15 27.0004621  0  8
G03     -8069.664    24540904.778         308.094          38.194  
G14     10070.454    20378433.702        -396.085          34.365  
G26    -54383.778    21597200.063        2009.816          42.057  
G29      5433.3111   21486189.020        -224.273          32.055  
G31    -26435.018    20866003.561         972.785          40.373  
G32     54009.420    20979288.534       -2034.098          31.967  
J01      7131.8171   37243796.854        -300.903          24.202  
J02      -628.200    39036164.524          13.933          35.126  
> 2019  1 22  7 15 28.0004621  0  8
G03     -8377.008    24540837.630         306.586          38.871  
G14     10467.330    20378524.243        -395.121          32.354  
G26    -56392.262    21596819.928        2009.550          41.649  
G29      5656.5491   21486231.284        -228.162          34.996  
G31    -27406.113    20865817.088         974.080          36.767  
G32     56043.678    20979686.364       -2034.545          30.085  
J01      7433.6011   37243886.487        -300.510          24.702  
J02      -640.770    39036165.719          13.653          34.381  
> 2019  1 22  7 15 29.0004621  0  8
G03     -8684.456    24540787.862         307.309          41.677  
G14     10866.0891   20378589.594        -397.873          31.188  
G26    -58400.302    21596434.697        2008.629          42.899  
G29      5881.848    21486276.559        -224.955          39.485  
G31    -28376.8361   20865636.618         971.942          39.089  
G32     58078.2581   20980077.292       -2036.158          32.540  
J01      7734.601    37243930.261        -299.391          28.261  
J02      -653.184    39036159.429          13.435          34.916  
> 2019  1 22  7 15 30.0004621  0  8
G03     -8991.116    24540725.207         305.672          38.437  
G14     11264.5231   20378669.638        -402.342          29.854  
G26    -60407.330    21596049.466        2005.818          41.192  
G29      6108.261    21486315.534        -228.522          38.718  
G31    -29347.5031   20865453.443         970.248          38.838  
G32     60115.8311   20980462.523       -2036.905          33.097  
J01      8038.0031   37243992.314        -305.295          26.528  
J02      -665.1361   39036163.023          10.616          33.611  
> 2019  1 22  7 15 31.0004621  0  8
G03     -9297.023    24540663.747         304.450          37.723  
G14     11663.6021   20378744.883        -400.210          27.788  
G26    -62413.3741   21595674.120        2007.540          41.587  
G29      6336.1651   21486360.503        -227.809          39.773  
G31    -30316.8731   20865273.566         970.184          38.662  
G32     62154.1501   20980838.768       -2040.477          33.969  
J01      8340.3701   37244051.680        -304.013          26.360  
J02      -676.5521   39036148.034          13.308          34.196  
> 2019  1 22  7 15 32.0004621  0  9
G03     -9602.410    24540613.386         305.187          36.439  
G14     12065.2251   20378829.429        -399.152          26.293  
G25     33166.5151   23139939.254       -3020.991          24.291  
G26    -64419.173    21595288.889        2006.381          40.578  
G29      6564.2571   21486396.774        -228.914          38.372  
G31    -31286.5641   20865085.296         969.424          39.720  
G32     64192.7701   20981239.590       -2039.180          33.295  
J01      8638.7291   37244116.734        -303.003          26.946  
J02      -688.3621   39036165.719          15.444          33.092  
> 2019  1 22  7 15 33.0004621  0  9
G03     -9906.500    24540551.324         302.757          37.873  
G14     12467.6941   20378908.872        -400.520          27.460  
G25     36184.8331   23140547.533       -3020.781          22.407  
G26    -66424.2181   21594909.653        2004.250          41.337  
G29      6792.390    21486449.840        -226.006          39.643  
G31    -32255.8171   20864903.622         969.258          40.304  
G32     66227.1681   20981621.820       -2039.619          34.602  
J01      8942.4501   37244182.984        -303.224          25.576  
J02      -700.4991   39036150.433          10.201          33.349  
> 2019  1 22  7 15 34.0004621  0  9
G03    -10209.952    24540487.770         302.329          36.716  
G14     12863.9711   20378973.926        -400.654          26.831  
G25     39206.9531   23141114.133       -3018.279          22.024  
G26    -68428.4581   21594527.720        2003.510          40.984  
G29      7022.8111   21486489.713        -230.406          39.840  
G31    -33223.9111   20864715.055         966.212          39.614  
G32     68267.7321   20982014.249       -2040.693          33.892  
J01      9245.3511   37244235.753        -302.003          25.653  
J02      -711.4951   39036143.540          10.526          34.157  
> 2019  1 22  7 15 35.0004621  0  9
G03    -10512.221    24540437.103         300.275          38.512  
G14     13263.2491   20379041.083        -403.780          28.247  
G25     42228.5881   23141693.934       -3015.904          21.528  
G26    -70431.729    21594143.082        2000.162          43.005  
G29      7254.2401   21486538.574        -231.112          40.392  
G31    -34191.4521   20864538.179         969.566          42.095  
G32     70308.9461   20982397.386       -2041.694          35.006  
J01      9550.3351   37244298.103        -305.630          25.768  
J02      -722.3331   39036145.032          10.565          35.658  
> 2019  1 22  7 15 36.0004621  0  8
G03    -10813.6081   24540379.849         302.048          37.959  
G14     13669.1431   20379132.514        -405.194          28.519  
G26    -72434.6401   21593764.447        2004.155          42.258  
G29      7484.996    21486576.947        -226.946          41.946  
G31    -35159.6601   20864347.509         968.200          43.107  
G32     72351.5131   20982793.715       -2041.722          36.281  
J01      9855.8451   37244360.461        -307.263          25.985  
J02      -734.1761   39036146.533          13.159          35.832  
> 2019  1 22  7 15 37.0004621  0  8
G03    -11114.5201   24540318.686         298.954          37.321  
G14     14077.3291   20379201.773        -405.340          27.699  
G26    -74436.6771   21593384.312        2002.014          41.151  
G29      7717.6371   21486627.012        -232.022          41.063  
G31    -36126.5111   20864165.539         966.055          42.679  
G32     74394.2371   20983174.750       -2043.461          36.985  
J01     10156.1071   37244409.331        -304.266          24.549  
J02      -744.9731   39036143.540          12.337          35.461  
> 2019  1 22  7 15 38.0004621  0  8
G03    -11414.483    24540267.723         299.923          37.439  
G14     14482.8351   20379281.818        -405.483          28.336  
G26    -76437.3821   21592999.971        2001.695          37.447  
G29      7951.064    21486662.087        -235.409          40.455  
G31    -37092.7371   20863974.267         966.075          41.106  
G32     76438.7021   20983559.684       -2043.356          34.712  
J01     10457.7561   37244479.184        -301.368          24.484  
J02      -755.6091   39036141.743          11.253          35.655  
> 2019  1 22  7 15 39.0004621  0  8
G03    -11713.5521   24540209.265         297.576          36.487  
G14     14890.1431   20379369.357        -407.071          29.500  
G26    -78438.7991   21592622.234        1999.975          41.629  
G29      8183.9211   21486712.753        -234.270          41.518  
G31    -38060.1421   20863799.189         965.904          42.326  
G32     78477.2751   20983957.209       -2045.252          35.280  
J01     10752.2561   37244574.811        -298.194          24.287  
J02      -767.5141   39036136.639          14.650          36.701  
> 2019  1 22  7 15 40.0004621  0  8
G03    -12012.922    24540151.400         298.957          40.741  
G14     15299.0871   20379440.405        -408.732          28.825  
G26    -80439.7741   21592242.998        2001.686          43.090  
G29      8418.5801   21486758.028        -234.631          42.047  
G31    -39026.4341   20863609.723         966.345          42.705  
G32     80522.3741   20984343.338       -2042.054          34.509  
J01     11048.5011   37244581.111        -301.736          23.350  
J02      -778.4491   39036135.740           9.539          37.521  
> 2019  1 22  7 15 41.0004621  0  8
G03    -12311.668    24540091.450         300.005          39.802  
G14     15707.8661   20379527.342        -408.219          29.080  
G26    -82440.2071   21591858.665        2001.027          41.879  
G29      8653.5361   21486800.292        -235.591          42.083  
G31    -39992.5111   20863429.846         966.779          41.914  
G32     82568.0801   20984731.867       -2044.769          35.269  
J01     11350.1531   37244646.767        -305.582          26.245  
J02      -789.9681   39036130.950           9.979          36.656  
> 2019  1 22  7 15 42.0004621  0  8
G03    -12609.323    24540038.985         297.926          39.077  
G14     16120.8601   20379583.401        -406.946          29.078  
G26    -84440.9721   21591479.428        2000.931          42.887  
G29      8887.9091   21486845.262        -234.491          40.464  
G31    -40959.2041   20863246.374         967.255          41.669  
G32     84613.1041   20985119.803       -2046.281          36.749  
J01     11657.2221   37244693.534        -308.488          23.858  
J02      -802.6871   39036136.045          14.975          36.643  
> 2019  1 22  7 15 43.0004621  0  8
G03    -12907.441    24539979.323         298.638          39.293  
G14     16520.8961   20379670.643        -407.460          28.685  
G26    -86441.2231   21591101.387        2000.101          43.059  
G29      9123.7041   21486886.933        -236.191          38.777  
G31    -41925.2311   20863063.200         966.866          40.710  
G32     86659.5951   20985517.921       -2045.713          38.056  
J01     11964.5881   37244790.365        -299.461          23.200  
J02      -814.3121   39036124.947          13.704          36.688  
> 2019  1 22  7 15 44.0004621  0  8
G03    -13205.643    24539926.257         298.783          38.148  
G14     16935.6151   20379745.295        -408.834          28.656  
G26    -88442.1111   21590714.960        2000.947          42.636  
G29      9359.6561   21486931.300        -234.949          40.610  
G31    -42891.9611   20862875.226         966.323          41.425  
G32     88706.7201   20985899.558       -2044.853          36.404  
J01     12257.6501   37244823.041        -297.436          25.470  
J02      -827.4851   39036125.252          12.476          37.943  
> 2019  1 22  7 15 45.0004621  0  8
G03    -13503.1971   24539869.003         297.596          37.540  
G14     17351.0351   20379820.837        -408.642          29.383  
G26    -90442.6791   21590337.818        1999.378          42.354  
G29      9595.5301   21486982.569        -234.652          39.390  
G31    -43858.9521   20862692.653         969.590          40.804  
G32     90757.7421   20986298.286       -2045.328          38.112  
J01     12551.3681   37244878.506        -301.956          24.234  
J02      -840.9941   39036126.448          16.481          37.180  
> 2019  1 22  7 15 46.0004621  0  8
G03    -13800.697    24539809.044         297.855          38.851  
G14     17767.4641   20379906.884        -410.537          29.516  
G26    -92442.5551   21589955.885        1999.741          41.965  
G29      9832.8331   21487022.442        -237.553          41.369  
G31    -44825.2861   20862509.478         966.688          42.024  
G32     92802.2941   20986686.213       -2043.554          38.086  
J01     12860.9671   37244958.847        -304.252          25.448  
J02      -853.9741   39036124.947          13.215          37.965  
> 2019  1 22  7 15 47.0004621  0  8
G03    -14097.568    24539756.580         297.236          40.164  
G14     18173.9701   20379984.529        -410.474          29.196  
G26    -94443.2681   21589574.842        2001.564          41.614  
G29     10069.1621   21487071.608        -236.381          40.295  
G31    -45793.1351   20862319.410         967.376          40.696  
G32     94845.3641   20987071.453       -2044.432          38.684  
J01     13160.9671   37244990.327        -301.711          25.063  
J02      -868.7791   39036117.156          12.947          37.481  
> 2019  1 22  7 15 48.0004621  0  8
G03    -14394.3351   24539703.217         296.266          37.642  
G14     18583.0661   20380072.967        -409.539          29.990  
G26    -96443.011    21589193.511        1998.573          42.077  
G29     10302.2971   21487113.882        -238.921          39.107  
G31    -46759.7031   20862144.036         969.180          41.114  
G32     96889.4771   20987479.169       -2042.587          41.251  
J01     13456.0131   37245026.606        -300.276          23.618  
J02      -882.6921   39036119.555          15.973          37.214  
> 2019  1 22  7 15 49.0004621  0  9
G03    -14692.0211   24539647.150         298.322          38.954  
G14     18992.4391   20380132.926        -408.894          29.523  
G22      2986.822    24661793.090        -593.524          29.034  
G26    -98443.265    21588812.773        2001.799          42.764  
G29     10539.2371   21487155.247        -237.004          38.737  
G31    -47727.3361   20861956.664         967.464          40.652  
G32     98932.411    20987861.102       -2041.771          42.463  
J01     13757.8141   37245140.826        -302.326          24.044  
J02      -898.2751   39036106.659          15.372          36.874  
> 2019  1 22  7 15 50.0004621  0  9
G03    -14987.7341   24539586.292         297.740          35.470  
G14     19409.5711   20380215.064        -410.456          28.832  
G22      3581.973    24661918.705        -593.967          31.265  
G26   -100443.8231   21588435.334        2000.273          42.758  
G29     10777.3401   21487205.914        -237.759          39.527  
G31    -48694.9161   20861769.597         969.011          41.636  
G32    100974.8261   20988250.835       -2042.745          42.702  
J01     14064.7191   37245189.992        -302.813          25.019  
J02      -913.3431   39036110.263          16.125          36.219  
> 2019  1 22  7 15 51.0004621  0  9
G03    -15284.292    24539529.334         297.176          39.551  
G14     19820.0341   20380294.515        -410.257          28.898  
G22      4176.897    24662036.224        -596.255          31.219  
G26   -102443.8191   21588054.300        2000.970          42.551  
G29     11015.6811   21487251.485        -238.640          40.493  
G31    -49662.4041   20861586.126         968.295          41.955  
G32    103020.3111   20988643.561       -2043.495          41.669  
J01     14375.5741   37245217.869        -301.529          25.041  
J02      -928.8411   39036111.763          16.310          36.049  
> 2019  1 22  7 15 52.0004621  0  9
G03    -15580.187    24539471.775         296.374          39.584  
G14     20230.9131   20380366.462        -410.574          29.020  
G22      4775.1441   24662154.946        -594.816          29.254  
G26   -104444.3091   21587674.164        1999.549          42.745  
G29     11253.0041   21487296.149        -236.425          39.745  
G31    -50631.1411   20861405.350         967.827          42.986  
G32    105064.1451   20989027.300       -2043.095          40.941  
J01     14678.4911   37245289.520        -301.250          24.900  
J02      -946.2901   39036102.462          18.158          36.188  
> 2019  1 22  7 15 53.0004621  0  9
G03    -15875.838    24539414.512         295.224          40.083  
G14     20637.2961   20380455.502        -411.541          28.828  
G22      5371.4311   24662256.271        -596.994          29.931  
G26   -106443.5411   21587291.324        2000.098          42.611  
G29     11491.9471   21487338.719        -237.883          40.525  
G31    -51598.5421   20861221.573         969.158          42.737  
G32    107109.1591   20989418.228       -2043.958          41.374  
J01     14980.4641   37245341.382        -304.421          25.030  
J02      -962.2491   39036094.671          17.419          35.948  
> 2019  1 22  7 15 54.0004621  0  9
G03    -16171.591    24539360.853         294.904          41.697  
G14     21047.3401   20380527.754        -411.080          29.544  
G22      5967.1431   24662371.992        -596.463          30.735  
G26   -108443.9351   21586912.087        2000.318          42.699  
G29     11730.1671   21487388.190        -239.828          41.011  
G31    -52567.6701   20861034.202         969.130          42.345  
G32    109155.3851   20989809.157       -2043.867          39.896  
J01     15285.5231   37245398.941        -300.721          25.397  
J02      -977.4761   39036100.368          17.975          34.737  
> 2019  1 22  7 15 55.0004621  0  9
G03    -16466.354    24539307.184         293.661          42.432  
G14     21455.2261   20380611.995        -410.302          29.714  
G22      6564.1351   24662482.914        -594.034          30.287  
G26   -110442.8121   21586533.452        1998.733          42.492  
G29     11969.7321   21487434.058        -238.189          40.279  
G31    -53535.1301   20860851.332         967.781          42.731  
G32    111197.1381   20990194.091       -2043.502          40.054  
J01     15588.1551   37245456.204        -299.942          24.730  
J02      -997.0121   39036088.677          15.511          34.736  
> 2019  1 22  7 15 56.0004621  0  9
G03    -16758.099    24539247.827         291.911          42.230  
G14     21866.7581   20380698.636        -413.402          29.215  
G22      7158.6651   24662607.326        -598.918          29.604  
G26   -112441.7221   21586155.411        1998.180          38.921  
G29     12207.6411   21487482.622        -238.307          36.904  
G31    -54502.368    20860667.258         968.025          43.917  
G32    113242.1681   20990584.417       -2046.282          38.668  
J01     15887.3041   37245510.762        -300.665          25.373  
J02     -1015.4601   39036097.070          17.585          36.474  
> 2019  1 22  7 15 57.0004621  0  9
G03    -17048.523    24539192.371         289.417          41.318  
G14     22277.0971   20380772.380        -414.606          29.189  
G22      7761.4601   24662718.553        -601.214          26.823  
G26   -114439.4331   21585771.375        1998.517          36.143  
G29     12447.2611   21487525.794        -238.794          39.422  
G31    -55468.0971   20860483.787         966.495          43.241  
G32    115285.4781   20990967.851       -2044.519          37.519  
J01     16180.3541   37245582.116        -298.416          27.002  
J02     -1033.0311   39036083.878          19.473          36.471  
> 2019  1 22  7 15 58.0004621  0  9
G03    -17338.327    24539138.406         289.784          39.281  
G14     22687.8351   20380850.924        -413.191          30.246  
G22      8360.3461   24662827.678        -598.366          28.023  
G26   -116440.9541   21585399.633        1997.663          34.457  
G29     12684.7091   21487566.566        -235.464          41.825  
G31    -56435.1491   20860297.611         966.772          43.026  
G32    117330.8121   20991355.787       -2046.613          37.343  
J01     16480.8721   37245630.087        -295.830          27.448  
J02     -1052.1801   39036087.176          19.840          37.328  
> 2019  1 22  7 15 59.0004621  0  9
G03    -17628.002    24539076.344         289.169          34.207  
G14     23101.8631   20380913.884        -410.180          31.071  
G22      8954.9561   24662949.995        -598.320          28.613  
G26   -118439.0271   21585015.903        2001.852          35.250  
G29     12922.6011   21487610.637        -237.594          45.446  
G31    -57401.5871   20860115.343         967.131          43.321  
G32    119378.9291   20991743.714       -2046.024          40.303  
J01     16778.1941   37245683.144        -294.225          30.126  
J02     -1071.0151   39036075.188          20.351          40.367  
> 2019  1 22  7 16  0.0004621  0  9
G03    -17916.8941   24539034.978         292.934          31.745  
G14     23516.6241   20381002.322        -410.704          30.647  
G22      9547.8111   24663057.018        -601.054          31.709  
G26   -120438.2071   21584632.766        1998.192          35.609  
G29     13160.2331   21487657.098        -239.141          46.401  
G31    -58368.2521   20859930.371         967.059          42.049  
G32    121423.7391   20992141.841       -2044.402          38.849  
J01     17072.9411   37245752.998        -296.050          28.187  
J02     -1090.8941   39036078.486          20.122          39.781  
> 2019  1 22  7 16  1.0004621  0  9
G03    -18205.361    24538978.614         287.524          31.153  
G14     23928.9521   20381076.974        -412.826          30.350  
G22     10149.4421   24663161.946        -602.365          36.043  
G26   -122439.8661   21584264.025        2002.640          33.556  
G29     13399.090    21487701.771        -237.813          46.412  
G31    -59330.0831   20859743.296         966.288          37.300  
G32    123469.5521   20992534.567       -2044.812          40.695  
J01     17363.1871   37245799.764        -294.556          28.141  
J02     -1105.8321   39036073.085          19.856          39.437  
> 2019  1 22  7 16  2.0004621  0 11
G03    -18494.3261   24538911.160         286.165          29.510  
G14     24337.0071   20381149.820        -412.753          30.175  
G16     -8925.7901   23593778.863        3192.673          27.386  
G22     10750.8611   24663281.558        -600.865          34.592  
G26   -124438.6641   21583871.596        1996.819          35.349  
G29     13637.2331   21487749.139        -238.304          44.673  
G31    -60295.3371   20859570.617         971.302          34.004  
G32    125513.3071   20992916.203       -2043.173          40.027  
J01     17657.0491   37245860.325        -294.630          28.330  
J02     -1126.8301   39036064.395          19.690          39.082  
J03      -192.9651   36939808.503          68.043          33.654  
> 2019  1 22  7 16  3.0004621  0 11
G03    -18784.6641   24538858.696         290.003          29.110  
G14     24754.2631   20381237.359        -412.463          30.134  
G16    -12117.9391   23593179.875        3187.684          29.060  
G22     11352.5511   24663422.765        -598.736          29.693  
G26   -126436.0881   21583495.352        1996.972          37.136  
G29     13876.0441   21487793.210        -239.305          44.445  
G31    -61261.1951   20859378.752         969.013          29.699  
G32    127557.8181   20993308.632       -2046.726          39.136  
J01     17959.1081   37245918.181        -296.799          30.919  
J02     -1152.9461   39036065.293          21.852          39.207  
J03      -257.7191   36939794.107          66.363          37.912  
> 2019  1 22  7 16  4.0004621  0 11
G03    -19073.7381   24538809.530         290.268          34.234  
G14     25168.7611   20381309.908        -413.763          34.222  
G16    -15303.4411   23592548.814        3183.879          28.224  
G22     11956.1261   24663514.205        -596.261          27.516  
G26   -128430.2081   21583111.019        1998.245          38.038  
G29     14116.1361   21487840.578        -240.896          41.966  
G31    -62228.3521   20859200.969         966.060          26.089  
G32    129603.4461   20993702.859       -2045.252          42.800  
J01     18250.8281   37245985.338        -292.615          30.618  
J02     -1174.0871   39036054.797          21.053          39.826  
J03      -324.8901   36939773.725          64.946          36.384  
> 2019  1 22  7 16  5.0004621  0 11
G03    -19362.887    24538757.965         290.526          35.873  
G14     25580.0991   20381392.352        -417.916          35.753  
G16    -18480.6361   23591936.643        3181.104          29.943  
G22     12555.8831   24663621.829        -599.567          25.295  
G26   -130427.9131   21582733.283        1997.901          39.147  
G29     14355.9271   21487895.433        -242.204          36.000  
G31    -63194.4311   20859007.307         972.441          23.634  
G32    131653.4741   20994089.590       -2046.804          38.294  
J01     18542.5711   37246024.008        -293.281          33.279  
J02     -1196.9571   39036052.398          22.825          40.199  
J03      -389.7851   36939771.326          66.803          36.739  
> 2019  1 22  7 16  6.0004621  0 11
G03    -19653.328    24538698.608         292.416          33.514  
G14     25990.8591   20381474.499        -414.181          36.902  
G16    -21655.5251   23591318.469        3181.935          31.645  
G22     13156.078    24663740.246        -598.307          29.224  
G26   -132425.5761   21582350.748        1998.938          42.400  
G29     14595.1151   21487942.208        -238.445          33.370  
G31    -64168.4001   20858854.713         970.983          21.992  
G32    133700.3481   20994481.121       -2046.509          40.516  
J01     18826.7221   37246096.557        -288.144          33.115  
J02     -1220.5301   39036050.906          24.173          40.357  
J03      -455.9751   36939762.033          66.238          35.905  
> 2019  1 22  7 16  7.0004621  0 11
G03    -19942.933    24538650.044         289.294          31.556  
G14     26406.6891   20381546.446        -414.732          35.292  
G16    -24834.0981   23590731.173        3182.595          31.545  
G22     13756.335    24663846.972        -600.826          34.562  
G26   -134423.5291   21581968.510        1998.963          42.246  
G29     14837.8291   21487973.383        -241.525          29.585  
G31    -65143.0711   20858629.265         968.161          21.871  
G32    135748.9721   20994869.048       -2047.201          41.190  
J01     19114.9501   37246137.635        -292.380          36.536  
J02     -1242.8301   39036047.904          21.086          38.595  
J03      -523.9831   36939730.553          71.025          32.895  
