     2.11           OBSERVATION DATA    G (GPS)             RINEX VERSION / TYPE
AndroidGNSSReceiver RITSUMEIKAN KUBOLAB 1547197734765       PGM / RUN BY / DATE
flounder                                                    MARKER NAME
GRitzLogger         KUBOLAB                                 OBSERVER / AGENCY
0                   Android Receiver                        REC # / TYPE / VERS
0                   Android Anttena                         ANT # / TYPE
        0.0000        0.0000        0.0000                  APPROX POSITION XYZ
        0.0000        0.0000        0.0000                  ANTENNA: DELTA H/E/N
1     0                                                     WAVELENGTH FACT L1/2
3         L1    C1    S1                                    # / TYPES OF OBSERV
1.000                                                       INTERVAL
  2019     1    11     9     4   13.9998822     GPS         TIME OF FIRST OBS
                                                            END OF HEADER
 19  1 11  9  4 13.9998822  0  8G 3G14G16G23G26G29G31G32
     84258.937    25084088.237          39.938  
   1084933.000    21527610.750          39.054  
   -116512.145    21723230.413          41.317  
    -73026.279    24733077.753          40.133  
   -364398.481    20669758.517          40.814  
     46491.929    22540127.090          35.548  
    -21450.275    20551650.784          36.088  
    795055.545    23143290.934          32.707  
 19  1 11  9  4 14.9998822  0  8G 3G14G16G23G26G29G31G32
     85726.034    25084370.651          41.364  
   1087442.607    21528094.906          40.393  
   -118505.976    21722860.469          40.318  
    -76195.197    24732474.865          38.686  
   -365057.377    20669639.507          40.133  
     48942.0791   22540612.154          32.809  
    -21445.001    20551644.799          34.514  
    798517.073    23143963.361          35.761  
 19  1 11  9  4 15.9998822  0  8G 3G14G16G23G26G29G31G32
     87193.660    25084638.372          41.304  
   1089951.996    21528573.374          38.146  
   -120499.180    21722474.348          37.041  
    -79363.409    24731871.088          40.429  
   -365715.506    20669507.601          43.768  
     51392.629    22541054.656          34.766  
    -21438.884    20551651.378          36.165  
    801978.334    23144627.708          37.144  
 19  1 11  9  4 16.9998822  0  8G 3G14G16G23G26G29G31G32
     88662.026    25084930.664          40.537  
   1092463.307    21529038.649          34.393  
   -122491.607    21722091.211          35.781  
    -82530.507    24731272.702          38.416  
   -366372.507    20669385.589          42.416  
     53844.870    22541519.931          36.728  
    -21431.488    20551651.692          35.713  
    805440.541    23145235.691          33.393  
 19  1 11  9  4 17.9998822  0  8G 3G14G16G23G26G29G31G32
     90132.375    25085211.263          42.318  
   1094976.102    21529530.606          34.676  
   -124482.042    21721723.360          38.270  
    -85695.848    24730660.810          39.433  
   -367027.891    20669262.669          41.195  
     56298.761    22541973.812          38.435  
    -21422.446    20551659.475          34.139  
    808904.441    23145964.779          31.119  
 19  1 11  9  4 18.9998822  0  8G 3G14G16G23G26G29G31G32
     91601.251    25085497.272          40.088  
   1097491.291    21530007.887          36.144  
   -126472.903    21721345.615          40.881  
    -88863.532    24730071.429          37.104  
   -367683.659    20669133.154          43.251  
     58752.8981   22542451.389          35.180  
    -21412.599    20551664.570          39.170  
    812372.9841   23146587.752          29.348  
 19  1 11  9  4 19.9998822  0  8G 3G14G16G23G26G29G31G32
     93068.579    25085775.184          37.858  
   1100007.4711   21530490.856          37.784  
   -128464.834    21720961.885          41.432  
    -92033.149    24729461.649          41.578  
   -368340.1241   20669013.236          42.989  
     61207.7401   22542922.964          35.177  
    -21402.3101   20551656.491          38.580  
    815843.0691   23147263.180          32.177  
 19  1 11  9  4 20.9998822  0  8G 3G14G16G23G26G29G31G32
     94535.513    25086053.690          36.348  
   1102525.0991   21530964.228          37.720  
   -130456.985    21720586.845          43.011  
    -95203.441    24728861.169          44.465  
   -368996.8611   20668888.519          43.313  
     63663.193    22543387.628          38.341  
    -21392.2041   20551663.069          37.111  
    819311.498    23147895.139          30.283  
 19  1 11  9  4 21.9998822  0  8G 3G14G16G23G26G29G31G32
     96004.3911   25086330.991          33.550  
   1105043.4911   21531448.978          36.622  
   -132448.7731   21720205.505          42.922  
    -98373.272    24728254.390          44.172  
   -369652.9121   20668757.817          42.848  
     66119.316    22543854.107          36.739  
    -21381.1371   20551662.773          36.669  
    822780.437    23148570.882          30.147  
 19  1 11  9  4 22.9998822  0  8G 3G14G16G23G26G29G31G32
     97472.5441   25086608.607          33.392  
   1107561.9431   21531937.950          34.748  
   -134439.991    21719832.577          43.927  
   -101542.531    24727655.097          45.499  
   -370309.5051   20668637.306          43.858  
     68575.927    22544325.089          35.945  
    -21370.8341   20551663.977          36.608  
    826249.9001   23149231.617          29.843  
 19  1 11  9  4 23.9998822  0  8G 3G14G16G23G26G29G31G32
     98941.0901   25086889.799          32.202  
   1110081.7921   21532401.725          35.141  
   -136430.008    21719447.939          43.847  
   -104711.164    24727048.318          46.555  
   -370964.752    20668515.591          43.944  
     71029.0591   22544799.665          32.789  
    -21359.7971   20551671.480          37.446  
    829725.3981   23149885.162          28.950  
 19  1 11  9  4 24.9998822  0  8G 3G14G16G23G26G29G31G32
    100410.705    25087161.726          31.754  
   1112602.0351   21532885.288          35.646  
   -138419.567    21719072.602          43.796  
   -107878.981    24726449.026          46.491  
   -371619.037    20668387.576          44.037  
     73486.7821   22545258.640          33.987  
    -21346.8901   20551672.667          36.542  
    833192.2371   23150561.498          29.303  
 19  1 11  9  4 25.9998822  0  8G 3G14G16G23G26G29G31G32
    101880.4961   25087446.514          35.295  
   1115122.6861   21533370.648          35.207  
   -140408.630    21718691.263          44.545  
   -111046.374    24725842.247          46.522  
   -372272.8181   20668266.454          43.216  
     75945.4451   22545724.526          36.297  
    -21333.9191   20551669.980          35.945  
    836662.3541   23151225.234          30.001  
 19  1 11  9  4 26.9998822  0  8G 3G14G16G23G26G29G31G32
    103351.711    25087733.430          36.921  
   1117645.5081   21533849.727          35.932  
   -142396.230    21718314.425          44.809  
   -114213.008    24725239.377          46.086  
   -372925.4481   20668136.345          44.075  
     78405.526    22546198.788          37.539  
    -21319.7321   20551672.667          36.778  
    840134.4481   23151869.200          32.168  
 19  1 11  9  4 27.9998822  0  8G 3G14G16G23G26G29G31G32
    104823.419    25088006.840          36.426  
   1120168.6071   21534321.301          34.253  
   -144383.436    21717936.680          44.724  
   -117378.751    24724640.380          46.651  
   -373577.0241   20668015.834          45.020  
     80866.7391   22546666.158          37.905  
    -21304.1821   20551678.373          36.960  
    843602.6261   23152532.936          31.119  
 19  1 11  9  4 28.9998822  0  8G 3G14G16G23G26G29G31G32
    106296.231    25088284.735          36.604  
   1122692.715    21534801.269          35.929  
   -146369.738    21717555.341          44.812  
   -120543.547    24724038.400          46.632  
   -374228.2741   20667894.415          43.914  
     83328.6981   22547127.541          36.666  
    -21288.0231   20551683.172          36.659  
    847072.2741   23153198.767          29.045  
 19  1 11  9  4 29.9998822  0  8G 3G14G16G23G26G29G31G32
    107768.9551   25088577.340          35.174  
   1125217.6971   21535293.523          36.465  
   -148355.248    21717178.207          44.223  
   -123708.118    24723432.529          46.811  
   -374878.4291   20667765.807          44.302  
     85791.323    22547602.711          37.937  
    -21272.1201   20551693.956          36.022  
    850543.6351   23153873.305          26.392  
 19  1 11  9  4 30.9998822  0  7G 3G14G16G23G26G29G31
    109242.1201   25088846.859          31.849  
   1127742.2541   21535761.799          36.779  
   -150340.9351   21716803.760          43.912  
   -126872.264    24722833.236          46.123  
   -375528.9341   20667644.388          44.865  
     88254.2381   22548067.393          36.822  
    -21255.9191   20551693.660          37.567  
 19  1 11  9  4 31.9998822  0  7G 3G14G16G23G26G29G31
    110720.9621   25089135.555          30.989  
   1130268.2701   21536252.255          36.286  
   -152326.4421   21716421.530          42.727  
   -130036.271    24722232.146          47.405  
   -376178.0081   20667520.579          42.954  
     90717.4881   22548541.969          36.933  
    -21237.5871   20551687.657          35.957  
 19  1 11  9  4 32.9998822  0  7G 3G14G16G23G26G29G31
    112195.163    25089407.465          34.892  
   1132792.6051   21536731.630          37.115  
   -154311.0881   21716050.085          43.690  
   -133199.866    24721631.370          47.092  
   -376827.2861   20667398.253          44.192  
     93182.2371   22549006.354          37.334  
    -21219.9971   20551696.661          36.354  
 19  1 11  9  4 33.9998822  0  7G 3G14G16G23G26G29G31
    113669.681    25089700.960          35.197  
   1135319.4011   21537205.002          36.750  
   -156295.7231   21715665.151          43.530  
   -136363.380    24721023.683          47.836  
   -377476.5031   20667271.442          43.216  
     95646.241    22549478.819          38.619  
    -21202.5151   20551700.849          36.793  
 19  1 11  9  4 34.9998822  0  7G 3G14G16G23G26G29G31
    115143.772    25089969.571          32.628  
   1137846.2571   21537685.860          37.275  
   -158279.9951   21715292.222          43.726  
   -139526.840    24720425.298          46.969  
   -378124.9271   20667147.633          43.588  
     98110.8821   22549943.797          38.119  
    -21182.3271   20551699.959          36.880  
 19  1 11  9  4 35.9998822  0  7G 3G14G16G23G26G29G31
    116618.0551   25090253.783          30.825  
   1140372.4891   21538173.035          37.355  
   -160265.0211   21714912.383          43.169  
   -142690.606    24719825.726          46.199  
   -378774.7971   20667024.120          43.895  
    100575.2451   22550416.262          36.612  
    -21165.7631   20551702.943          37.592  
 19  1 11  9  4 36.9998822  0  7G 3G14G16G23G26G29G31
    118092.2511   25090529.287          30.365  
   1142900.7181   21538644.313          36.619  
   -162249.6761   21714540.030          43.813  
   -145854.697    24719218.633          46.583  
   -379423.5791   20666902.405          44.024  
    103038.9771   22550889.634          38.363  
    -21147.3161   20551706.241          37.851  
 19  1 11  9  4 37.9998822  0  8G 3G14G16G21G23G26G29G31
    119565.3151   25090817.686          29.919  
   1145426.9951   21539132.675          37.686  
   -164234.8641   21714155.393          44.377  
    -11057.6531   23983759.383          32.202  
   -149019.243    24718616.059          45.703  
   -380073.9051   20666775.594          45.226  
    105500.4201   22551347.719          38.297  
    -21128.6851   20551709.853          39.122  
 19  1 11  9  4 38.9998822  0  8G 3G14G16G21G23G26G29G31
    121038.7611   25091098.286          29.916  
   1147953.3541   21539605.733          34.647  
   -166220.0561   21713781.557          44.503  
    -12895.316    23983396.331          34.323  
   -152183.744    24718018.878          46.910  
   -380722.4551   20666654.176          43.216  
    107964.3261   22551823.203          35.530  
    -21112.1281   20551711.651          36.774  
 19  1 11  9  4 39.9998822  0  8G 3G14G16G21G23G26G29G31
    122512.4251   25091372.307          29.376  
   1150479.8611   21540099.505          36.841  
   -168205.469    21713399.327          44.997  
    -14733.375    23983054.882          35.533  
   -155348.777    24717416.880          46.626  
   -381371.0201   20666529.163          44.191  
    110427.3411   22552285.773          35.415  
    -21092.7511   20551717.636          37.683  
 19  1 11  9  4 40.9998822  0  8G 3G14G16G21G23G26G29G31
    123985.2771   25091662.504          32.463  
   1153006.9261   21540570.468          37.280  
   -170191.332    21713020.692          43.893  
    -16571.6541   23982712.806          33.733  
   -158513.900    24716810.398          45.571  
   -382017.7051   20666409.541          44.512  
    112890.5071   22552756.458          36.876  
    -21076.0011   20551722.435          38.629  
 19  1 11  9  4 41.9998822  0  8G 3G14G16G21G23G26G29G31
    125458.2811   25091929.318          35.354  
   1155533.6521   21541060.628          38.280  
   -172177.255    21712645.041          44.892  
    -18409.773    23982351.865          34.187  
   -161679.353    24716210.826          45.807  
   -382668.0021   20666285.732          43.363  
    115354.6741   22553234.315          35.648  
    -21059.7461   20551723.639          37.752  
 19  1 11  9  4 42.9998822  0  8G 3G14G16G21G23G26G29G31
    126931.330    25092217.124          36.825  
   1158057.7371   21541534.000          36.918  
   -174162.753    21712268.204          44.537  
    -20248.073    23982014.291          32.695  
   -164844.717    24715609.142          44.925  
   -383316.919    20666160.108          43.733  
    117819.4761   22553698.089          33.552  
    -21045.9741   20551730.829          37.430  
 19  1 11  9  4 43.9998822  0  8G 3G14G16G21G23G26G29G31
    128404.287    25092496.223          36.714  
   1160584.4071   21542016.673          37.582  
   -176148.4381   21711889.272          44.752  
    -22091.7461   23981657.539          29.552  
   -168010.061    24715002.363          43.224  
   -383967.5121   20666033.000          44.753  
    120282.0831   22554172.665          33.215  
    -21031.1501   20551730.532          37.404  
 19  1 11  9  4 44.9998822  0  8G 3G14G16G21G23G26G29G31
    129876.869    25092771.727          36.251  
   1163111.1301   21542494.844          36.607  
   -178134.745    21711515.436          44.862  
    -23930.522    23981304.992          30.951  
   -171175.913    24714402.477          42.926  
   -384618.4871   20665908.895          43.839  
    122747.0061   22554635.550          34.843  
    -21014.3811   20551739.222          38.727  
 19  1 11  9  4 45.9998822  0  8G 3G14G16G21G23G26G29G31
    131349.889    25093060.127          37.377  
   1165638.1871   21542979.000          36.893  
   -180119.7511   21711132.596          44.327  
    -25769.616    23980963.526          32.911  
   -174341.837    24713798.700          43.835  
   -385269.0461   20665787.179          45.017  
    125210.7271   22555102.622          37.428  
    -20998.0031   20551734.720          39.195  
 19  1 11  9  4 46.9998822  0  8G 3G14G16G21G23G26G29G31
    132822.049    25093327.848          38.891  
   1168163.6631   21543454.780          34.447  
   -182106.3181   21710758.149          44.958  
    -27608.8561   23980598.084          32.810  
   -177508.450    24713196.702          43.571  
   -385919.7761   20665661.555          44.079  
    127674.9131   22555571.806          37.080  
    -20981.222    20551737.128          37.985  
 19  1 11  9  4 47.9998822  0  8G 3G14G16G21G23G26G29G31
    134293.8781   25093616.544          35.808  
   1170690.1361   21543939.844          36.558  
   -184092.979    21710380.719          44.643  
    -29448.649    23980258.119          32.424  
   -180675.119    24712595.629          42.765  
   -386572.064    20665542.545          44.612  
    130139.038    22556046.976          37.996  
    -20963.8331   20551743.724          38.563  
 19  1 11  9  4 48.9998822  0  8G 3G14G16G21G23G26G29G31
    135765.862    25093894.160          37.105  
   1173219.8441   21544421.313          36.169  
   -186079.8101   21709996.674          43.843  
    -31288.1461   23979901.663          32.581  
   -183842.057    24711991.241          43.652  
   -387222.6751   20665412.732          43.853  
    132602.4491   22556508.656          36.178  
    -20943.9491   20551747.022          37.886  
 19  1 11  9  4 49.9998822  0  8G 3G14G16G21G23G26G29G31
    137237.461    25094174.759          37.758  
   1175751.0161   21544895.278          36.147  
   -188066.561    21709624.636          44.851  
    -33127.1431   23979561.698          32.803  
   -187009.238    24711390.465          42.557  
   -387868.6421   20665288.923          44.275  
    135060.7861   22556993.720          32.429  
    -20927.880    20551747.022          37.931  
 19  1 11  9  4 50.9998822  0  8G 3G14G16G21G23G26G29G31
    138709.853    25094454.469          35.596  
   1178281.7491   21545382.436          37.792  
   -190052.762    21709243.296          44.176  
    -34967.319    23979200.443          32.317  
   -190175.305    24710785.169          40.984  
   -388518.5521   20665165.707          44.313  
    137517.9321   22557467.982          30.906  
    -20915.0821   20551753.322          37.766  
 19  1 11  9  4 51.9998822  0  8G 3G14G16G21G23G26G29G31
    140181.7531   25094735.382          36.201  
   1180811.1001   21545862.701          38.059  
   -192039.547    21708868.867          44.572  
    -36807.242    23978859.885          31.738  
   -193342.4531   24710183.486          40.200  
   -389169.9081   20665043.678          44.501  
    139981.9721   22557917.377          34.338  
    -20898.7071   20551757.510          37.663  
 19  1 11  9  4 52.9998822  0  8G 3G14G16G21G23G26G29G31
    141654.0761   25095023.171          36.666  
   1183339.4881   21546345.670          37.574  
   -194025.9741   21708484.229          44.095  
    -38647.235    23978504.633          31.035  
   -196508.8711   24709580.616          42.081  
   -389818.6061   20664921.963          43.949  
    142447.1511   22558389.842          34.039  
    -20883.0101   20551761.401          37.912  
 19  1 11  9  4 53.9998822  0  8G 3G14G16G21G23G26G29G31
    143126.710    25095295.395          38.753  
   1185871.7511   21546822.044          37.688  
   -196012.1441   21708110.690          44.712  
    -40488.1841   23978151.773          29.945  
   -199675.622    24708978.321          42.004  
   -390466.9081   20664793.354          43.745  
    144911.9631   22558865.029          35.559  
    -20862.6301   20551760.215          37.740  
 19  1 11  9  4 54.9998822  0  8G 3G14G16G21G23G26G29G31
    144599.091    25095572.400          41.612  
   1188401.8951   21547307.404          38.890  
   -197998.2861   21707734.742          44.473  
    -42329.0271   23977810.603          30.539  
   -202841.8761   24708373.340          39.846  
   -391117.8741   20664670.453          44.355  
    147377.2831   22559329.397          36.497  
    -20845.7861   20551766.811          38.232  
 19  1 11  9  4 55.9998822  0  8G 3G14G16G21G23G26G29G31
    146071.539    25095860.189          39.617  
   1190930.8841   21547789.467          38.409  
   -199985.0821   21707354.607          44.628  
    -44173.8941   23977445.161          30.747  
   -206008.2751   24707770.470          40.833  
   -391768.675    20664549.331          43.150  
    149842.5231   22559797.673          36.348  
    -20829.8341   20551770.109          38.291  
 19  1 11  9  4 56.9998822  0  8G 3G14G16G21G23G26G29G31
    147544.064    25096135.413          38.545  
   1193459.1211   21548262.245          37.608  
   -201970.8251   21706975.064          44.782  
    -46013.8021   23977117.481          29.747  
   -209174.905    24707169.676          43.166  
   -392418.9121   20664420.426          43.183  
    152308.1091   22560255.759          35.908  
    -20812.8081   20551768.905          38.304  
 19  1 11  9  4 57.9998822  0  8G 3G14G16G21G23G26G29G31
    149016.080    25096414.216          41.105  
   1195987.8811   21548749.717          37.521  
   -203957.2111   21706599.134          44.843  
    -47859.5841   23976746.035          28.129  
   -212341.450    24706570.994          41.274  
   -393070.6831   20664299.601          44.249  
    154773.9671   22560730.632          39.105  
    -20796.4561   20551773.407          39.046  
 19  1 11  9  4 58.9998822  0  8G 3G14G16G21G23G26G29G31
    150488.213    25096695.112          36.780  
   1198518.9701   21549229.371          38.265  
   -205943.818    21706221.686          44.193  
    -49704.4321   23976405.774          27.708  
   -215508.887    24705966.012          40.500  
   -393716.2611   20664178.182          43.483  
    157239.3851   22561201.299          37.536  
    -20779.8311   20551774.000          37.744  
 19  1 11  9  4 59.9998822  0  8G 3G14G16G21G23G26G29G31
    151960.674    25096974.228          38.416  
   1201051.0501   21549713.248          37.329  
   -207929.7351   21705843.662          44.190  
    -51545.450    23976048.725          29.233  
   -218675.3811   24705362.532          40.243  
   -394366.6611   20664051.371          43.407  
    159705.1241   22561665.684          36.359  
    -20763.3281   20551783.301          36.358  
 19  1 11  9  5  0.9998822  0  8G 3G14G16G21G23G26G29G31
    153432.927    25097259.626          38.108  
   1203578.3521   21550189.604          36.858  
   -209916.032    21705466.214          44.904  
    -53386.5901   23975694.677          27.993  
   -221842.3941   24704759.644          39.793  
   -395017.9681   20663929.953          44.258  
    162170.3241   22562143.855          35.748  
    -20747.6161   20551781.504          37.710  
 19  1 11  9  5  1.9998822  0  8G 3G14G16G21G23G26G29G31
    154905.296    25097530.035          35.308  
   1206100.1701   21550673.778          37.462  
   -211902.875    21705085.485          44.425  
    -55232.2121   23975362.198          26.198  
   -225013.9831   24704156.163          39.697  
   -395670.650    20663798.046          44.192  
    164635.5491   22562607.926          37.121  
    -20733.3431   20551791.992          38.097  
 19  1 11  9  5  2.9998822  0  8G 3G14G16G21G23G26G29G31
    156377.018    25097817.841          37.754  
   1208628.2191   21551154.340          37.616  
   -213889.747    21704708.944          44.567  
    -57075.0541   23975004.853          26.782  
   -228182.0981   24703559.575          38.762  
   -396321.9761   20663682.631          42.920  
    167099.9921   22563084.300          36.365  
    -20716.9341   20551788.693          36.762  
 19  1 11  9  5  3.9998822  0  2G 3G14
    157848.347    25098090.344          35.862  
   1211156.0121   21551631.917          38.902  
 19  1 11  9  5  4.9998822  0  2G 3G14
    159319.665    25098378.744          36.550  
   1213683.4601   21552112.182          37.027  
 19  1 11  9  5  5.9998822  0  2G 3G14
    160787.5681   25098664.456          33.465  
   1216212.0111   21552602.341          37.504  
 19  1 11  9  5  6.9998822  0  2G 3G14
    162258.6221   25098945.352          35.490  
   1218741.2321   21553077.214          37.919  
 19  1 11  9  5  7.9998822  0  2G 3G14
    163730.447    25099211.869          34.982  
   1221269.7231   21553554.181          37.306  
 19  1 11  9  5  8.9998822  0  2G 3G14
    165201.956    25099500.583          35.234  
   1223798.7661   21554033.852          35.478  
 19  1 11  9  5  9.9998822  0  2G 3G14
    166673.7201   25099785.371          35.048  
   1226329.3791   21554528.810          36.599  
 19  1 11  9  5 10.9998822  0  2G 3G14
    168145.355    25100053.092          37.482  
   1228857.8411   21554997.977          37.829  
 19  1 11  9  5 11.9998822  0  2G 3G14
    169617.100    25100336.990          42.190  
   1231388.0431   21555483.651          36.820  
 19  1 11  9  5 12.9998822  0  2G 3G14
    171089.033    25100617.607          41.661  
   1233919.1151   21555964.213          37.109  
 19  1 11  9  5 13.9998822  0  8G 3G14G16G21G23G26G29G31
    172560.869    25100895.205          41.284  
   1236448.5651   21556440.883          37.336  
   -235743.7721   21700551.116          44.195  
    -77349.7891   23971160.308          31.800  
   -263033.6961   24696920.971          37.424  
   -403476.4661   20662308.374          43.228  
    194221.9921   22568242.828          32.711  
    -20537.3801   20551820.470          38.868  
 19  1 11  9  5 14.9998822  0  8G 3G14G16G21G23G26G29G31
    174032.665    25101174.914          40.512  
   1238978.3891   21556926.243          36.814  
   -237730.4441   21700177.873          45.053  
    -79192.0621   23970822.437          29.869  
   -266205.7501   24696320.788          38.485  
   -404128.040    20662188.159          43.482  
    196689.141    22568706.009          34.687  
    -20521.5421   20551824.065          38.330  
 19  1 11  9  5 15.9998822  0  8G 3G14G16G21G23G26G29G31
    175504.446    25101453.420          37.772  
   1241507.6371   21557405.322          36.909  
   -239716.906    21699792.345          45.338  
    -81034.3121   23970466.592          29.151  
   -269378.7981   24695716.104          40.034  
   -404780.5761   20662067.945          43.013  
    199156.4311   22569178.474          36.818  
    -20504.3421   20551827.660          37.382  
 19  1 11  9  5 16.9998822  0  8G 3G14G16G21G23G26G29G31
    176977.0791   25101742.116          37.381  
   1244037.8411   21557893.684          37.108  
   -241703.017    21699416.712          44.360  
    -82876.462    23970092.756          30.539  
   -272547.172    24695113.530          40.664  
   -405432.3011   20661942.635          43.989  
    201624.5161   22569650.363          38.107  
    -20488.4711   20551829.457          38.594  
 19  1 11  9  5 17.9998822  0  8G 3G14G16G21G23G26G29G31
    178449.329    25102015.840          37.144  
   1246568.1311   21558372.448          34.655  
   -243689.043    21699041.968          45.324  
    -84718.669    23969760.277          30.135  
   -275715.0291   24694514.534          39.701  
   -406084.3831   20661814.916          44.076  
    204092.549    22570119.529          40.237  
    -20467.5741   20551836.053          38.651  
 19  1 11  9  5 18.9998822  0  9G 3G14G16G21G22G23G26G29G31
    179920.8691   25102304.240          34.982  
   1249098.1781   21558851.509          36.242  
   -245675.192    21698660.332          43.766  
    -86565.2321   23969413.419          28.252  
     10066.3371   25637194.230          29.304  
   -278883.1491   24693908.366          38.254  
   -406737.6251   20661692.608          43.899  
    206560.735    22570583.601          40.034  
    -20451.6411   20551836.053          39.158  
 19  1 11  9  5 19.9998822  0  9G 3G14G16G21G22G23G26G29G31
    181393.4101   25102579.744          34.059  
   1251627.8251   21559337.183          36.703  
   -247661.050    21698282.587          44.952  
    -88406.9971   23969045.568          28.850  
     11745.3401   25637542.902          26.292  
   -282051.274    24693299.475          36.671  
   -407388.9241   20661572.097          44.173  
    209028.904    22571053.989          39.837  
    -20431.3661   20551842.650          38.665  
 19  1 11  9  5 20.9998822  0  8G 3G14G16G21G23G26G29G31
    182865.7411   25102856.155          38.311  
   1254160.2221   21559816.244          36.709  
   -249646.7621   21697903.953          44.169  
    -90249.9431   23968692.725          28.768  
   -285218.8681   24692701.997          37.791  
   -408039.6321   20661445.583          44.225  
    211497.9791   22571530.345          38.463  
    -20415.3311   20551839.648          36.969  
 19  1 11  9  5 21.9998822  0  8G 3G14G16G21G23G26G29G31
    184337.791    25103149.651          38.760  
   1256691.7891   21560301.308          36.817  
   -251632.5551   21697525.318          44.243  
    -92092.2371   23968346.757          28.512  
   -288386.5561   24692099.110          36.681  
   -408688.3241   20661318.458          44.411  
    213966.5641   22571994.433          39.327  
    -20399.4061   20551852.544          36.823  
 19  1 11  9  5 22.9998822  0  8G 3G14G16G21G23G26G29G31
    185810.381    25103416.168          37.231  
   1259223.8011   21560774.976          35.894  
   -253618.2471   21697149.667          43.970  
    -93934.0931   23967979.203          28.117  
   -291554.6031   24691501.335          36.561  
   -409337.8471   20661194.945          44.798  
    216435.712    22572463.303          38.719  
    -20381.0401   20551848.652          36.527  
 19  1 11  9  5 23.9998822  0  8G 3G14G16G21G23G26G29G31
    187283.054    25103706.068          38.967  
   1261755.9311   21561256.759          37.401  
   -255603.657    21696770.439          44.637  
    -95778.8941   23967647.335          26.369  
   -294722.4731   24690891.258          36.937  
   -409988.7541   20661074.434          45.141  
    218905.3541   22572948.367          38.404  
    -20363.3481   20551852.840          37.388  
 19  1 11  9  5 24.9998822  0  8G 3G14G16G21G23G26G29G31
    188756.027    25103978.571          38.772  
   1264290.9071   21561737.321          36.967  
   -257588.9751   21696389.692          44.100  
    -97625.8821   23967311.278          26.457  
   -297890.4691   24690289.871          37.902  
   -410640.1551   20660947.030          42.905  
    221375.1691   22573402.858          37.898  
    -20346.8461   20551855.842          37.164  
 19  1 11  9  5 25.9998822  0  8G 3G14G16G21G23G26G29G31
    190229.337    25104257.984          36.872  
   1266826.7841   21562222.978          36.861  
   -259573.6961   21696015.856          44.405  
    -99467.1611   23966947.930          26.413  
   -301057.6271   24689684.279          37.447  
   -411290.8251   20660824.110          43.492  
    223844.6691   22573887.014          36.017  
    -20328.2611   20551860.937          38.147  
 19  1 11  9  5 26.9998822  0  8G 3G14G16G21G23G26G29G31
    191703.7191   25104546.383          34.166  
   1269360.1231   21562705.354          37.662  
   -261558.6761   21695642.317          44.065  
   -101308.9751   23966593.272          26.382  
   -304224.966    24689085.893          39.192  
   -411938.2231   20660704.489          42.847  
    226314.4081   22574345.100          35.777  
    -20311.7771   20551865.440          37.482  
 19  1 11  9  5 27.9998822  0  8G 3G14G16G21G23G26G29G31
    193177.538    25104824.889          31.672  
   1271892.2511   21563191.011          37.855  
   -263543.4811   21695260.681          44.604  
   -103153.3931   23966247.618          28.372  
   -307391.7861   24688483.616          38.380  
   -412588.6861   20660580.383          43.878  
    228784.828    22574820.880          32.834  
    -20298.2351   20551865.736          38.980  
 19  1 11  9  5 28.9998822  0  8G 3G14G16G21G23G26G29G31
    194652.062    25105099.503          30.625  
   1274424.5561   21563667.088          36.394  
   -265527.729    21694881.453          44.542  
   -104999.3241   23965890.255          28.471  
   -310558.644    24687879.228          38.365  
   -413237.5731   20660456.557          42.619  
    231255.6621   22575284.951          33.999  
    -20279.2811   20551867.237          37.012  
 19  1 11  9  5 29.9998822  0  8G 3G14G16G21G23G26G29G31
    196125.565    25105380.713          30.782  
   1276949.2081   21564154.246          36.813  
   -267511.7691   21694503.708          44.059  
   -106841.166    23965546.102          30.557  
   -313725.473    24687281.157          37.951  
   -413883.5131   20660329.449          42.889  
    233726.651    22575757.730          39.009  
    -20260.8651   20551877.131          38.423  
 19  1 11  9  5 30.9998822  0  8G 3G14G16G21G23G26G29G31
    197599.5941   25105664.000          35.384  
   1279483.3401   21564636.011          35.983  
   -269495.959    21694128.668          44.618  
   -108683.262    23965191.740          31.051  
   -316892.9121   24686671.376          36.988  
   -414533.7761   20660203.232          43.172  
    236197.553    22576230.194          37.355  
    -20242.8241   20551873.536          37.714  
 19  1 11  9  5 31.9998822  0  8G 3G14G16G21G23G26G29G31
    199073.087    25105943.710          38.357  
   1282016.7661   21565112.682          37.101  
   -271481.0491   21693745.827          43.370  
   -110524.920    23964837.379          32.127  
   -320059.1901   24686076.882          37.595  
   -415184.6891   20660082.424          43.853  
    238668.7951   22576696.377          33.892  
    -20228.6071   20551882.820          38.103  
 19  1 11  9  5 32.9998822  0  8G 3G14G16G21G23G26G29G31
    200546.519    25106223.716          42.101  
   1284551.5001   21565592.650          36.333  
   -273465.597    21693373.789          44.244  
   -112366.784    23964488.427          32.773  
   -323226.3981   24685465.898          36.244  
   -415835.0101   20659953.816          43.690  
    241140.5131   22577171.250          34.320  
    -20212.9241   20551878.632          37.894  
 19  1 11  9  5 33.9998822  0  8G 3G14G16G21G23G26G29G31
    202020.471    25106505.519          42.396  
   1287079.0461   21566081.012          34.762  
   -275449.577    21692994.246          44.751  
   -114208.4411   23964143.069          32.210  
   -326393.813    24684867.827          37.897  
   -416485.316    20659834.491          43.906  
    243612.014    22577644.028          37.065  
    -20194.4441   20551890.620          37.697  
 19  1 11  9  5 34.9998822  0  8G 3G14G16G21G23G26G29G31
    203494.418    25106784.932          38.145  
   1289615.0541   21566560.072          34.825  
   -277433.653    21692617.409          44.346  
   -116051.2911   23963801.307          30.134  
   -329560.804    24684268.237          39.001  
   -417135.732    20659705.883          43.642  
    246083.7441   22578110.490          38.220  
    -20176.7271   20551894.215          37.850  
 19  1 11  9  5 35.9998822  0  8G 3G14G16G21G23G26G29G31
    204968.478    25107062.234          40.115  
   1292148.8981   21567049.638          36.630  
   -279417.712    21692239.682          44.984  
   -117895.6831   23963458.934          28.952  
   -332727.8691   24683661.755          36.591  
   -417786.164    20659584.761          44.320  
    248556.0061   22578579.081          40.379  
    -20158.1511   20551891.213          38.484  
 19  1 11  9  5 36.9998822  0  7G 3G14G16G23G26G29G31
    206443.089    25107352.745          37.433  
   1294683.5731   21567532.608          35.444  
   -281401.040    21691860.436          44.334  
   -335894.5031   24683057.367          37.834  
   -418435.3601   20659463.046          44.798  
    251028.634    22579055.751          37.462  
    -20139.0341   20551894.215          37.952  
 19  1 11  9  5 37.9998822  0  7G 3G14G16G23G26G29G31
    207917.628    25107625.858          37.119  
   1297218.0251   21568014.374          35.443  
   -283384.374    21691486.600          44.758  
   -339060.943    24682453.589          36.842  
   -419085.066    20659341.941          45.259  
    253505.9701   22579521.026          34.690  
    -20119.8571   20551896.012          37.819  
 19  1 11  9  5 38.9998822  0  7G 3G14G16G23G26G29G31
    209392.570    25107901.956          35.693  
   1299752.1511   21568489.543          34.995  
   -285367.778    21691107.058          45.358  
   -342227.299    24681854.610          35.738  
   -419735.0811   20659215.724          45.345  
    255978.7001   22579998.586          36.801  
    -20100.8921   20551906.517          37.900  
 19  1 11  9  5 39.9998822  0  7G 3G14G16G23G26G29G31
    210868.7161   25108183.166          34.441  
   1302285.4531   21568974.903          34.423  
   -287351.131    21690730.220          44.950  
   -345391.849    24681258.912          36.570  
   -420385.004    20659089.803          44.982  
    258451.658    22580459.970          37.940  
    -20082.9541   20551913.707          37.212  
 19  1 11  9  5 40.9998822  0  7G 3G14G16G23G26G29G31
    212343.303    25108473.363          37.486  
   1304821.4361   21569461.171          35.033  
   -289334.346    21690356.681          45.057  
   -348550.4851   24680652.430          36.717  
   -421034.6761   20658964.196          45.772  
    260925.009    22580936.937          37.046  
    -20063.7911   20551914.911          36.579  
 19  1 11  9  5 41.9998822  0  7G 3G14G16G23G26G29G31
    213818.229    25108746.773          35.748  
   1307357.2881   21569937.841          36.092  
   -291317.3871   21689978.046          43.659  
   -351717.9421   24680049.560          36.427  
   -421680.8741   20658846.983          45.096  
    263398.5441   22581407.622          34.999  
    -20043.7411   20551911.909          38.362  
 19  1 11  9  5 42.9998822  0  7G 3G14G16G23G26G29G31
    215294.0631   25109035.766          32.180  
   1309896.9061   21570424.702          35.629  
   -293300.383    21689597.003          44.042  
   -354884.092    24679440.983          41.858  
   -422329.7691   20658717.764          45.113  
    265871.9941   22581878.882          35.419  
    -20024.1781   20551919.099          39.475  
 19  1 11  9  5 43.9998822  0  7G 3G14G16G23G26G29G31
    216769.269    25109320.274          33.334  
   1312436.5351   21570906.171          36.148  
   -295282.762    21689222.853          44.106  
   -358049.802    24678842.895          42.067  
   -422978.168    20658598.754          45.231  
    268345.8691   22582342.360          34.036  
    -20003.6561   20551922.100          38.471  
 19  1 11  9  5 44.9998822  0  7G 3G14G16G23G26G29G31
    218245.7531   25109583.790          34.604  
   1314971.4231   21571387.937          36.154  
   -297265.308    21688842.718          44.591  
   -361214.554    24678241.211          42.454  
   -423627.1441   20658470.128          42.022  
    270819.5731   22582821.438          36.170  
    -19982.8791   20551928.993          36.630  
 19  1 11  9  5 45.9998822  0  7G 3G14G16G23G26G29G31
    219723.133    25109864.704          34.228  
   1317504.170    21571861.902          41.904  
   -299247.296    21688468.585          45.589  
   -364376.587    24677642.826          38.205  
   -424275.062    20658351.415          42.693  
    273294.8091   22583289.418          34.533  
    -19962.550    20551929.901          38.421  
