     2.11           OBSERVATION DATA    G (GPS)             RINEX VERSION / TYPE
AndroidGNSSReceiver RITSUMEIKAN KUBOLAB 1547197568267       PGM / RUN BY / DATE
flounder                                                    MARKER NAME
GRitzLogger         KUBOLAB                                 OBSERVER / AGENCY
0                   Android Receiver                        REC # / TYPE / VERS
0                   Android Anttena                         ANT # / TYPE
        0.0000        0.0000        0.0000                  APPROX POSITION XYZ
        0.0000        0.0000        0.0000                  ANTENNA: DELTA H/E/N
1     0                                                     WAVELENGTH FACT L1/2
3         L1    C1    S1                                    # / TYPES OF OBSERV
1.000                                                       INTERVAL
  2019     1    11     9     1   26.9998728     GPS         TIME OF FIRST OBS
                                                            END OF HEADER
 19  1 11  9  1 26.9998728  0  8G 3G14G16G23G26G29G31G32
     17097.273    25035377.664          28.985  
    672074.741    21446208.084          34.422  
   -655106.809    21784527.776          34.748  
   -118609.204    24831466.024          27.002  
   -250583.165    20688542.612          26.790  
    261736.365    22460551.671          45.178  
    -18204.123    20549403.842          37.612  
    219774.754    23030959.293          33.881  
 19  1 11  9  1 27.9998728  0  8G 3G14G16G23G26G29G31G32
     18521.653    25035639.976          28.351  
    674522.096    21446665.577          34.875  
   -657143.273    21784147.640          33.626  
   -121807.982    24830877.830          23.526  
   -251280.919    20688422.694          25.463  
    264123.364    22461016.947          44.312  
    -18239.180    20549393.948          35.409  
    223216.456    23031620.936          33.591  
 19  1 11  9  1 28.9998728  0  8G 3G14G16G23G26G29G31G32
     19946.153    25035915.794          28.954  
    676969.648    21447138.652          35.044  
   -659179.539    21783766.911          34.555  
   -125006.729    24830257.265          24.506  
   -251978.582    20688295.587          25.898  
    266510.789    22461464.841          44.240  
    -18274.048    20549391.243          37.842  
    226658.186    23032283.782          35.767  
 19  1 11  9  1 29.9998728  0  7G 3G14G16G26G29G31G32
     21371.063    25036197.597          30.775  
    679417.767    21447602.130          34.846  
   -661215.467    21783387.666          35.213  
   -252675.568    20688168.776          28.704  
    268898.798    22461916.924          44.170  
    -18308.282    20549388.852          38.348  
    230100.221    23032929.528          34.639  
 19  1 11  9  1 30.9998728  0  7G 3G14G16G26G29G31G32
     22797.556    25036473.695          29.721  
    681867.773    21448088.694          35.026  
   -663249.362    21782990.743          34.510  
   -253370.919    20688055.454          34.032  
    271288.605    22462374.713          46.431  
    -18340.832    20549385.851          41.105  
    233543.921    23033608.865          34.716  
 19  1 11  9  1 31.9998728  0  7G 3G14G16G26G29G31G32
     24224.778    25036754.905          26.693  
    684318.229    21448545.279          35.274  
   -665282.482    21782623.503          32.298  
   -254065.682    20687916.638          36.944  
    273679.703    22462831.298          47.535  
    -18372.681    20549379.551          42.314  
    236987.716    23034261.206          37.168  
 19  1 11  9  1 32.9998728  0  7G 3G14G16G26G29G31G32
     25652.655    25037019.032          23.217  
    686769.946    21449011.148          31.994  
   -667315.170    21782257.153          29.719  
   -254759.744    20687789.827          35.984  
    276071.109    22463285.178          47.128  
    -18404.062    20549373.863          42.590  
    240432.573    23034919.254          38.586  
 19  1 11  9  1 33.9998728  0  7G 3G14G16G26G29G31G32
     27083.8551   25037405.467          21.856  
    689222.396    21449477.330          32.943  
   -669347.180    21781865.623          28.280  
   -255453.151    20687650.732          38.415  
    278463.6311   22463745.672          48.726  
    -18434.559    20549375.049          42.864  
    243877.848    23035572.503          39.519  
 19  1 11  9  1 34.9998728  0  6G14G16G26G29G31G32
    691676.164    21449939.901          33.931  
   -671377.478    21781462.401          28.183  
   -256145.209    20687523.013          38.448  
    280856.838    22464192.049          47.672  
    -18464.231    20549360.967          42.401  
    247324.198    23036235.035          39.309  
 19  1 11  9  1 35.9998728  0  6G14G16G26G29G31G32
    694130.900    21450408.788          36.514  
   -673407.803    21781065.775          27.743  
   -256836.574    20687376.728          34.236  
    283251.215    22464643.241          47.210  
    -18492.951    20549354.964          42.604  
    250771.238    23036882.892          38.788  
 19  1 11  9  1 36.9998728  0  6G14G16G26G29G31G32
    696586.902    21450881.864          34.852  
   -675436.486    21780693.736          25.277  
   -257526.422    20687247.509          34.582  
    285647.163    22465106.126          47.331  
    -18520.261    20549355.575          41.205  
    254219.247    23037525.950          35.536  
 19  1 11  9  1 37.9998728  0  7G14G16G23G26G29G31G32
    699042.135    21451338.745          36.933  
   -677465.516    21780306.393          27.105  
    -12820.822    24824785.156          27.741  
   -258214.485    20687123.403          36.700  
    288044.232    22465558.802          47.435  
    -18546.8311   20549345.977          41.009  
    257665.434    23038191.484          37.707  
 19  1 11  9  1 38.9998728  0  7G14G16G23G26G29G31G32
    701498.0201   21451805.521          37.016  
   -679490.0951   21779916.067          26.512  
    -16011.7601   24824190.958          27.587  
   -258901.6981   20686989.997          35.145  
    290441.795    22466015.701          45.190  
    -18572.462    20549340.288          41.324  
    261112.135    23038842.342          39.883  
 19  1 11  9  1 39.9998728  0  7G14G16G23G26G29G31G32
    703955.059    21452273.187          37.474  
   -681521.2831   21779533.244          26.871  
    -19196.7441   24823573.692          27.731  
   -259587.5051   20686856.275          37.486  
    292841.052    22466471.972          45.278  
    -18596.8161   20549336.676          41.558  
    264559.392    23039504.874          39.209  
 19  1 11  9  1 40.9998728  0  7G14G16G23G26G29G31G32
    706413.2121   21452751.654          35.270  
   -683549.3831   21779134.210          28.320  
    -22381.6381   24822997.486          28.028  
   -260271.7811   20686731.262          36.950  
    295241.469    22466930.058          45.361  
    -18619.4931   20549335.489          41.366  
    268007.303    23040157.216          38.644  
 19  1 11  9  1 41.9998728  0  7G14G16G23G26G29G31G32
    708871.3601   21453213.335          35.242  
   -685573.8111   21778781.349          25.906  
    -25572.5291   24822369.121          26.981  
   -260956.2981   20686611.048          37.372  
    297641.958    22467388.736          45.534  
    -18642.7071   20549326.782          41.179  
    271455.3551   23040811.372          39.040  
 19  1 11  9  1 42.9998728  0  7G14G16G23G26G29G31G32
    711330.7491   21453684.020          35.885  
   -687588.5421   21778404.826          23.550  
    -28755.7121   24821763.249          27.700  
   -261640.1181   20686467.746          35.472  
    300043.688    22467848.323          47.565  
    -18664.7231   20549324.391          41.230  
    274903.946    23041469.717          38.495  
 19  1 11  9  1 43.9998728  0  7G14G16G23G26G29G31G32
    713789.6101   21454154.390          36.399  
   -689617.7701   21777971.921          26.485  
    -31937.3561   24821148.967          28.200  
   -262323.4281   20686348.125          36.392  
    302445.805    22468296.514          47.150  
    -18686.5711   20549317.795          41.378  
    278351.9761   23042131.062          38.703  
 19  1 11  9  1 44.9998728  0  7G14G16G23G26G29G31G32
    716250.4301   21454612.772          35.109  
   -691638.0761   21777613.668          30.118  
    -35120.4101   24820568.869          29.106  
   -263010.8151   20686214.125          35.088  
    304848.581    22468760.289          46.289  
    -18707.6031   20549314.794          40.975  
    281801.4661   23042779.512          37.236  
 19  1 11  9  1 45.9998728  0  7G14G16G23G26G29G31G32
    718710.4301   21455082.550          37.626  
   -693653.4231   21777221.841          30.103  
    -38312.6651   24819943.506          29.293  
   -263694.2581   20686084.016          34.260  
    307251.291    22469212.982          44.909  
    -18729.7101   20549311.199          41.728  
    285249.4761   23043439.951          37.815  
 19  1 11  9  1 46.9998728  0  7G14G16G23G26G29G31G32
    721170.8571   21455558.923          37.255  
   -695676.4841   21776838.407          29.695  
    -41494.7511   24819346.918          28.703  
   -264377.2931   20685955.111          34.888  
    309654.072    22469673.459          44.795  
    -18751.1031   20549307.901          41.710  
    288698.3931   23044097.999          37.455  
 19  1 11  9  1 47.9998728  0  7G14G16G23G26G29G31G32
    723631.5461   21456020.307          36.661  
   -697696.9731   21776436.982          29.006  
    -44676.8451   24818727.243          28.975  
   -265062.2951   20685820.500          33.746  
    312056.930    22470132.748          43.651  
    -18772.3891   20549304.306          41.881  
    292147.1011   23044750.043          39.826  
 19  1 11  9  1 48.9998728  0  7G14G16G23G26G29G31G32
    726093.5451   21456497.274          36.136  
   -699717.2151   21776061.645          31.000  
    -47861.3801   24818127.060          28.727  
   -265745.4991   20685690.985          33.949  
    314460.0481   22470587.222          45.457  
    -18793.9481   20549296.506          41.436  
    295595.480    23045403.589          37.484  
 19  1 11  9  1 49.9998728  0  7G14G16G23G26G29G31G32
    728553.8211   21456956.546          35.490  
   -701737.7841   21775666.817          30.638  
    -51049.7571   24817531.676          28.183  
   -266428.5121   20685559.986          32.160  
    316863.1421   22471041.713          45.133  
    -18816.1371   20549293.818          40.652  
    299043.5721   23046069.734          38.033  
 19  1 11  9  1 50.9998728  0  2G14G16
    731014.8091   21457424.229          35.217  
   -703760.7951   21775303.765          29.265  
 19  1 11  9  1 51.9998728  0  2G14G16
    733475.7021   21457888.911          36.182  
   -705781.5521   21774912.828          31.228  
 19  1 11  9  1 52.9998728  0  1G14
    735937.5341   21458356.280          35.032  
 19  1 11  9  1 53.9998728  0  2G14G16
    738397.8141   21458833.544          34.804  
   -709830.3591   21774140.865          31.245  
 19  1 11  9  1 54.9998728  0  0
 19  1 11  9  1 55.9998728  0  1G14
    743320.6411   21459768.300          35.355  
 19  1 11  9  1 56.9998728  0  1G14
    745781.6731   21460241.672          37.202  
 19  1 11  9  1 57.9998728  0  2G14G16
    748243.3501   21460707.854          35.823  
   -717921.1041   21772593.938          32.478  
 19  1 11  9  1 58.9998728  0  1G14
    750704.1931   21461173.740          35.276  
 19  1 11  9  1 59.9998728  0  2G14G16
    753165.5841   21461644.408          36.248  
   -721972.0671   21771835.761          32.917  
 19  1 11  9  2  0.9998728  0  6G14G16G26G29G31G32
    755627.2561   21462113.888          35.902  
   -723996.7071   21771444.527          35.695  
   -273953.5301   20684135.368          33.218  
    343305.7101   22476076.729          45.082  
    -19076.0881   20549247.645          42.228  
    336956.9311   23053278.837          38.823  
 19  1 11  9  2  1.9998728  0  6G14G16G26G29G31G32
    758088.3281   21462579.163          36.230  
   -726018.5111   21771066.800          35.813  
   -274637.4761   20683998.959          33.113  
    345709.9381   22476532.110          45.251  
    -19098.0461   20549239.252          40.424  
    340400.8251   23053935.681          39.333  
 19  1 11  9  2  2.9998728  0  6G14G16G26G29G31G32
    760548.7661   21463036.342          35.654  
   -728040.8071   21770672.268          33.195  
   -275324.6611   20683873.649          32.648  
    348113.263    22476989.305          45.945  
    -19122.7611   20549241.346          39.502  
    343837.0381   23054592.525          39.618  
 19  1 11  9  2  3.9998728  0  6G14G16G26G29G31G32
    763009.7961   21463516.606          37.338  
   -730062.714    21770278.643          33.784  
   -276011.1021   20683747.729          32.083  
    350517.2121   22477447.374          45.565  
    -19150.2671   20549235.657          39.852  
    347279.1901   23055243.976          39.839  
 19  1 11  9  2  4.9998728  0  6G14G16G26G29G31G32
    765469.3591   21463986.087          37.058  
   -732092.9241   21769915.592          33.301  
   -276702.8491   20683618.824          31.962  
    352920.8771   22477908.164          45.506  
    -19176.7991   20549233.563          41.140  
    350723.7001   23055897.522          38.306  
 19  1 11  9  2  5.9998728  0  6G14G16G26G29G31G32
    767929.4951   21464454.364          36.812  
   -734119.6171   21769527.970          33.066  
   -277393.7961   20683488.418          31.799  
    355324.5071   22478365.342          45.990  
    -19200.2801   20549229.061          40.362  
    354168.0401   23056554.069          39.815  
 19  1 11  9  2  6.9998728  0  6G14G16G26G29G31G32
    770394.8491   21464925.031          36.038  
   -736148.3771   21769163.121          32.263  
   -278079.4751   20683363.405          33.204  
    357728.3421   22478822.835          45.711  
    -19229.4571   20549222.168          40.178  
    357612.1141   23057209.726          38.387  
 19  1 11  9  2  7.9998728  0  6G14G16G26G29G31G32
    772854.9571   21465382.227          36.989  
   -738173.2071   21768748.800          31.952  
   -278764.9211   20683228.201          34.293  
    360132.1441   22479276.418          45.549  
    -19254.2161   20549214.961          39.894  
    361055.5121   23057867.163          41.697  
 19  1 11  9  2  8.9998728  0  6G14G16G26G29G31G32
    775311.9471   21465858.583          36.026  
   -740197.3901   21768364.773          30.577  
   -279450.6811   20683089.384          34.154  
    362535.7481   22479733.003          47.000  
    -19276.4941   20549212.867          40.570  
    364499.4991   23058523.116          40.740  
 19  1 11  9  2  9.9998728  0  6G14G16G26G29G31G32
    777772.7111   21466321.171          37.890  
   -742225.4091   21767990.623          31.375  
   -280134.8791   20682955.087          33.415  
    364939.9951   22480196.481          45.920  
    -19301.3811   20549209.569          41.364  
    367943.0811   23059178.163          40.679  
 19  1 11  9  2 10.9998728  0  6G14G16G26G29G31G32
    780233.5141   21466794.543          37.097  
   -744253.8621   21767593.404          31.680  
   -280819.9711   20682828.870          35.148  
    367343.785    22480647.656          47.241  
    -19326.3201   20549199.081          41.127  
    371385.9021   23059828.410          38.177  
 19  1 11  9  2 11.9998728  0  6G14G16G26G29G31G32
    782695.5701   21467265.507          37.603  
   -746279.2041   21767208.469          30.959  
   -281508.2371   20682703.263          34.040  
    369748.6181   22481104.241          46.459  
    -19349.6971   20549198.174          41.077  
    374829.2191   23060488.552          38.876  
 19  1 11  9  2 12.9998728  0  6G14G16G26G29G31G32
    785155.7431   21467728.688          36.082  
   -748302.1311   21766825.629          33.169  
   -282196.1851   20682560.555          34.258  
    372152.624    22481562.327          44.610  
    -19374.5591   20549194.579          40.896  
    378271.5601   23061142.097          39.571  
 19  1 11  9  2 13.9998728  0  6G14G16G26G29G31G32
    787616.8841   21468199.372          38.987  
   -750326.3321   21766459.593          32.032  
   -282884.6051   20682443.936          34.872  
    374557.163    22482026.712          44.211  
    -19399.3141   20549184.981          40.434  
    381714.3571   23061796.550          40.655  
 19  1 11  9  2 14.9998728  0  6G14G16G26G29G31G32
    790076.6181   21468666.148          38.065  
   -752349.7191   21766055.464          33.795  
   -283567.5691   20682307.824          36.133  
    376961.7641   22482477.294          39.663  
    -19423.9421   20549183.795          41.981  
    385156.1791   23062453.691          42.483  
 19  1 11  9  2 15.9998728  0  6G14G16G26G29G31G32
    792537.3171   21469137.112          37.277  
   -754373.4721   21765677.422          33.464  
   -284255.0531   20682188.220          35.128  
    379367.9731   22482939.271          41.773  
    -19449.1341   20549181.090          40.196  
    388598.6221   23063103.938          40.285  
 19  1 11  9  2 16.9998728  0  6G14G16G26G29G31G32
    794998.6581   21469599.700          37.226  
   -756400.4731   21765274.811          31.771  
   -284939.1491   20682038.916          35.670  
    381771.1661   22483393.169          40.937  
    -19470.7361   20549181.387          41.317  
    392040.3361   23063767.378          41.484  
 19  1 11  9  2 17.9998728  0  6G14G16G26G29G31G32
    797459.9061   21470075.166          36.642  
   -758428.9031   21764906.070          29.906  
   -285625.4571   20681916.904          35.580  
    384175.1811   22483845.252          39.772  
    -19495.6081   20549166.397          41.177  
    395482.003    23064417.922          40.792  
 19  1 11  9  2 18.9998728  0  6G14G16G26G29G31G32
    799921.4981   21470538.347          37.099  
   -760458.8361   21764530.419          32.725  
   -286310.7101   20681788.593          35.870  
    386579.5391   22484319.217          37.955  
    -19520.7461   20549167.601          41.596  
    398923.4441   23065073.876          40.685  
 19  1 11  9  2 19.9998728  0  6G14G16G26G29G31G32
    802382.0101   21471002.122          37.036  
   -762487.6491   21764133.793          33.312  
   -286997.8071   20681654.575          37.854  
    388984.1001   22484769.206          39.033  
    -19546.1951   20549159.504          40.408  
    402364.7201   23065725.921          39.171  
 19  1 11  9  2 20.9998728  0  6G14G16G26G29G31G32
    804843.5811   21471473.400          38.280  
   -764512.6611   21763738.965          33.230  
   -287684.1241   20681527.468          35.660  
    391388.6561   22485222.493          40.475  
    -19570.5991   20549157.410          41.050  
    405806.0371   23066381.578          40.828  
 19  1 11  9  2 21.9998728  0  6G14G16G26G29G31G32
    807300.4931   21471946.772          38.180  
   -766534.2971   21763371.725          32.780  
   -288371.6501   20681389.559          35.919  
    393793.4031   22485683.580          41.321  
    -19596.6491   20549145.422          40.362  
    409246.784    23067034.216          40.112  
 19  1 11  9  2 22.9998728  0  6G14G16G26G29G31G32
    809762.5041   21472411.750          37.600  
   -768560.1071   21762973.302          32.663  
   -289052.2911   20681269.344          34.782  
    396197.8821   22486138.071          40.437  
    -19622.5521   20549152.611          40.798  
    412687.6371   23067694.968          38.693  
 19  1 11  9  2 23.9998728  0  6G14G16G26G29G31G32
    812223.4751   21472880.934          37.745  
   -770584.7661   21762589.868          32.298  
   -289735.7601   20681131.452          34.907  
    398601.8301   22486595.546          39.357  
    -19648.4121   20549141.827          42.319  
    416127.9661   23068346.716          38.378  
 19  1 11  9  2 24.9998728  0  6G14G16G26G29G31G32
    814685.5661   21473357.604          37.724  
   -772608.8771   21762224.111          31.726  
   -290421.5061   20681007.329          33.494  
    401007.7841   22487057.819          42.489  
    -19673.6341   20549133.119          40.783  
    419568.315    23069001.763          41.967  
 19  1 11  9  2 25.9998728  0  6G14G16G26G29G31G32
    817146.0951   21473814.189          37.202  
   -774635.6201   21761818.795          31.303  
   -291110.2301   20680882.019          33.128  
    403411.4501   22487514.404          42.493  
    -19699.7861   20549136.417          41.045  
    423008.188    23069658.606          41.256  
 19  1 11  9  2 26.9998728  0  6G14G16G26G29G31G32
    819606.7271   21474287.247          37.496  
   -776661.0301   21761431.470          34.951  
   -291796.5241   20680754.912          33.577  
    405817.0991   22487970.692          44.959  
    -19728.3561   20549128.321          41.066  
    426447.958    23070310.651          40.211  
 19  1 11  9  2 27.9998728  0  6G14G16G26G29G31G32
    822066.7881   21474753.727          35.982  
   -778693.6181   21761048.037          32.783  
   -292483.0781   20680609.813          35.296  
    408221.8731   22488429.075          45.407  
    -19757.4271   20549123.539          40.537  
    429886.9331   23070962.993          38.291  
 19  1 11  9  2 28.9998728  0  6G14G16G26G29G31G32
    824528.7271   21475224.097          37.154  
   -780718.0431   21760668.494          33.843  
   -293171.9171   20680474.591          34.916  
    410626.624    22488883.269          44.473  
    -19783.6331   20549119.927          41.104  
    433325.6881   23071619.836          40.633  
 19  1 11  9  2 29.9998728  0  6G14G16G26G29G31G32
    826991.3701   21475686.388          35.881  
   -782744.1801   21760277.260          32.381  
   -293858.1641   20680346.280          34.973  
    413031.434    22489344.949          43.393  
    -19813.4561   20549109.439          39.678  
    436763.7741   23072271.899          36.947  
 19  1 11  9  2 30.9998728  0  7G14G16G21G26G29G31G32
    829452.5521   21476154.665          37.450  
   -784771.2631   21759896.532          32.671  
     -9415.0621   24025954.864          35.007  
   -294543.8701   20680229.974          33.716  
    415436.3191   22489798.533          44.408  
    -19838.5161   20549109.439          40.547  
    440201.2441   23072926.945          40.862  
 19  1 11  9  2 31.9998728  0  7G14G16G21G26G29G31G32
    831915.8611   21476635.226          37.384  
   -786794.3401   21759513.395          31.894  
    -11293.9121   24025614.009          33.150  
   -295226.5281   20680086.673          33.214  
    417841.660    22490259.306          45.272  
    -19864.9121   20549105.548          40.336  
    443640.7121   23073581.677          39.493  
 19  1 11  9  2 32.9998728  0  7G14G16G21G26G29G31G32
    834373.6751   21477090.904          37.457  
   -788825.3621   21759131.462          32.216  
    -13175.7901   24025246.455          32.059  
   -295912.6621   20679956.861          33.089  
    420246.6791   22490717.688          42.930  
    -19892.2961   20549094.746          40.846  
    447080.024    23074236.427          40.796  
 19  1 11  9  2 33.9998728  0  7G14G16G21G26G29G31G32
    836836.3841   21477563.979          36.843  
   -790852.7911   21758737.837          32.920  
    -15051.2461   24024893.001          35.411  
   -296599.9771   20679829.753          34.131  
    422652.5931   22491174.884          45.967  
    -19922.2591   20549094.450          39.673  
    450518.7671   23074901.367          38.242  
 19  1 11  9  2 34.9998728  0  7G14G16G21G26G29G31G32
    839299.8621   21478036.165          37.399  
   -792876.1691   21758359.202          32.354  
    -16928.0661   24024535.655          34.472  
   -297286.6771   20679694.532          33.480  
    425058.8721   22491631.155          44.627  
    -19950.2781   20549085.463          39.265  
    453958.8541   23075542.925          39.189  
 19  1 11  9  2 35.9998728  0  7G14G16G21G26G29G31G32
    841762.4641   21478505.925          37.368  
   -794905.3091   21757961.372          31.741  
    -18804.8381   24024177.402          32.629  
   -297973.7141   20679564.423          34.189  
    427464.594    22492089.537          45.157  
    -19976.0271   20549082.165          40.412  
    457397.985    23076199.768          40.017  
 19  1 11  9  2 36.9998728  0  8G14G16G21G23G26G29G31G32
    844222.4271   21478973.015          36.754  
   -796934.5481   21757586.629          32.265  
    -20681.1041   24023826.042          33.066  
    -60667.8971   24789020.516          30.780  
   -298661.4571   20679438.519          35.989  
    429871.3971   22492550.031          45.249  
    -20001.3601   20549075.568          39.937  
    460837.2601   23076855.425          37.635  
 19  1 11  9  2 37.9998728  0  8G14G16G21G23G26G29G31G32
    846686.4271   21479446.683          36.667  
   -798959.3031   21757213.683          33.829  
    -22557.9671   24023471.698          35.217  
    -63860.7261   24788415.831          31.889  
   -299348.0151   20679311.709          33.751  
    432278.6571   22493003.004          43.048  
    -20025.8321   20549070.176          41.065  
    464276.4761   23077510.157          40.346  
 19  1 11  9  2 38.9998728  0  8G14G16G21G23G26G29G31G32
    849150.3031   21479916.461          36.930  
   -800984.5361   21756807.162          33.609  
    -24435.2141   24023104.441          38.200  
    -67046.2601   24787815.055          33.056  
   -300031.3821   20679175.300          35.118  
    434685.0701   22493465.295          42.595  
    -20051.8721   20549068.362          40.920  
    467714.6441   23078164.610          39.639  
 19  1 11  9  2 39.9998728  0  8G14G16G21G23G26G29G31G32
    851614.6801   21480384.127          36.678  
   -803008.1691   21756431.826          35.339  
    -26312.5751   24022750.393          36.451  
    -70234.3431   24787207.368          31.482  
   -300717.6611   20679055.086          34.564  
    437092.4091   22493926.679          41.487  
    -20080.2581   20549061.172          40.194  
    471153.621    23078816.655          41.272  
 19  1 11  9  2 40.9998728  0  8G14G16G21G23G26G29G31G32
    854074.5141   21480843.713          36.201  
   -805031.4731   21756048.985          33.038  
    -28189.6661   24022389.732          37.429  
    -73422.0521   24786595.494          30.118  
   -301403.4481   20678913.879          34.902  
    439500.3561   22494385.358          42.272  
    -20104.2801   20549059.968          40.870  
    474588.6751   23079473.813          40.701  
 19  1 11  9  2 41.9998728  0  8G14G16G21G23G26G29G31G32
    856538.6211   21481319.179          36.594  
   -807054.5461   21755663.754          34.448  
    -30065.9891   24022036.575          38.617  
    -76614.9491   24785995.904          30.282  
   -302088.7621   20678789.162          35.416  
    441907.9331   22494841.332          40.115  
    -20128.1171   20549055.780          40.878  
    478027.309    23080127.655          42.035  
 19  1 11  9  2 42.9998728  0  8G14G16G21G23G26G29G31G32
    859003.1341   21481781.767          35.974  
   -809078.4191   21755273.428          32.960  
    -31943.1701   24021678.025          37.111  
    -79808.3771   24785388.829          29.515  
   -302771.6301   20678648.566          36.717  
    444316.4751   22495295.526          39.179  
    -20157.8291   20549051.278          41.718  
    481465.767    23080784.499          40.688  
 19  1 11  9  2 43.9998728  0  8G14G16G21G23G26G29G31G32
    861469.8761   21482253.935          35.938  
   -811102.7541   21754877.099          32.711  
    -33821.1301   24021317.975          38.180  
    -82999.6321   24784759.853          28.865  
   -303457.6771   20678518.457          35.377  
    446723.4581   22495756.613          37.192  
    -20183.4051   20549048.590          41.008  
    484903.920    23081436.840          41.119  
 19  1 11  9  2 44.9998728  0  8G14G16G21G23G26G29G31G32
    863937.8371   21482719.210          37.174  
   -813129.4201   21754515.251          31.231  
    -35699.0671   24020960.926          39.387  
    -86188.7191   24784189.650          28.802  
   -304147.9361   20678388.941          34.732  
    449130.7861   22496215.292          41.550  
    -20209.0611   20549044.088          40.773  
    488342.120    23082093.387          40.791  
 19  1 11  9  2 45.9998728  0  8G14G16G21G23G26G29G31G32
    866401.7641   21483194.990          38.092  
   -815158.6321   21754128.816          29.035  
    -37577.841    24020604.470          39.211  
    -89377.6471   24783558.894          29.347  
   -304836.0651   20678257.628          37.776  
    451538.2661   22496668.282          45.572  
    -20234.7951   20549032.990          41.284  
    491779.397    23082742.151          40.618  
 19  1 11  9  2 46.9998728  0  8G14G16G21G23G26G29G31G32
    868867.1501   21483663.267          37.743  
   -817186.8531   21753728.892          31.738  
    -39455.3621   24020248.015          37.891  
    -92570.9521   24782958.415          29.180  
   -305522.5841   20678126.926          38.180  
    453947.2821   22497130.853          45.863  
    -20258.9871   20549036.288          41.722  
    495217.3471   23083395.086          39.995  
 19  1 11  9  2 47.9998728  0  8G14G16G21G23G26G29G31G32
    871332.8451   21484130.339          37.278  
   -819209.1041   21753336.175          31.566  
    -41331.6581   24019895.765          33.802  
    -95763.9261   24782357.918          28.365  
   -306203.5701   20677994.723          36.838  
    456356.5971   22497590.439          45.153  
    -20283.6391   20549028.505          40.882  
    498655.5671   23084053.727          39.452  
 19  1 11  9  2 48.9998728  0  8G14G16G21G23G26G29G31G32
    873800.8491   21484603.415          36.660  
   -821233.8281   21752957.243          33.447  
    -43209.9291   24019530.619          37.209  
    -98955.6721   24781745.450          29.345  
   -306891.0651   20677871.804          35.747  
    458765.2651   22498049.118          44.231  
    -20308.6391   20549025.207          42.269  
    502093.2631   23084708.180          40.616  
 19  1 11  9  2 49.9998728  0  8G14G16G21G23G26G29G31G32
    876267.3861   21485076.176          36.724  
   -823256.7801   21752593.284          32.527  
    -45087.3471   24019179.259          38.222  
   -102140.5131   24781154.551          29.338  
   -307576.2251   20677733.895          35.603  
    461174.7991   22498509.298          42.537  
    -20333.7841   20549018.297          41.474  
    505531.8671   23085358.724          38.903  
 19  1 11  9  2 50.9998728  0  8G14G16G21G23G26G29G31G32
    878733.2391   21485537.856          36.886  
   -825281.5301   21752192.470          31.775  
    -46965.7741   24018815.910          40.902  
   -105331.8541   24780551.070          29.470  
   -308263.5811   20677609.789          35.583  
    463584.087    22498962.585          44.376  
    -20358.5701   20549013.201          41.388  
    508968.9881   23086012.881          36.426  
 19  1 11  9  2 51.9998728  0  8G14G16G21G23G26G29G31G32
    881199.8671   21486008.541          37.589  
   -827305.4281   21751814.428          31.329  
    -48843.362    24018460.065          43.560  
   -108527.2211   24779935.008          28.660  
   -308948.8361   20677472.473          34.517  
    465993.331    22499419.466          45.047  
    -20382.0701   20549009.310          41.365  
    512408.1601   23086666.723          37.952  
 19  1 11  9  2 52.9998728  0  8G14G16G21G23G26G29G31G32
    883665.8371   21486474.724          37.161  
   -829330.9051   21751430.384          30.725  
    -50721.308    24018103.313          43.872  
   -111718.3121   24779323.726          27.894  
   -309634.0921   20677350.758          35.057  
    468402.711    22499882.647          45.290  
    -20406.8181   20549007.513          41.468  
    515845.6731   23087327.772          37.616  
 19  1 11  9  2 53.9998728  0  8G14G16G21G23G26G29G31G32
    886133.0121   21486941.796          35.520  
   -831355.9471   21751046.357          30.803  
    -52599.191    24017746.247          41.787  
   -114903.1411   24778720.542          28.687  
   -310318.7421   20677216.147          36.028  
    470812.984    22500344.031          45.908  
    -20429.7291   20548998.822          41.712  
    519284.1111   23087979.520          38.309  
 19  1 11  9  2 54.9998728  0  8G14G16G21G23G26G29G31G32
    888599.4661   21487416.372          37.477  
   -833377.9471   21750665.925          33.540  
    -54477.323    24017391.903          42.579  
   -118094.8811   24778142.539          28.342  
   -311004.3691   20677085.445          36.871  
    473223.1431   22500797.318          44.064  
    -20457.1311   20548995.228          42.241  
    522722.4301   23088627.674          39.087  
 19  1 11  9  2 55.9998728  0  8G14G16G21G23G26G29G31G32
    891067.6461   21487887.633          37.757  
   -835399.9731   21750265.093          33.658  
    -56355.251    24017034.854          43.440  
   -121288.0431   24777524.975          26.140  
   -311685.0401   20676947.832          36.490  
    475634.0511   22501250.308          45.054  
    -20480.1231   20548991.022          41.487  
    526160.6041   23089284.814          39.908  
 19  1 11  9  2 56.9998728  0  8G14G16G21G23G26G29G31G32
    893534.3791   21488354.112          38.243  
   -837424.8451   21749884.068          33.234  
    -58233.460    24016675.693          43.247  
   -124479.8881   24776894.813          25.055  
   -312370.2611   20676823.133          35.884  
    478044.209    22501716.473          46.209  
    -20508.4291   20548984.723          40.749  
    529597.9531   23089943.752          38.836  
 19  1 11  9  2 57.9998728  0  8G14G16G21G23G26G29G31G32
    896002.4751   21488820.295          37.367  
   -839455.3661   21749513.216          31.933  
    -60112.064    24016316.847          43.668  
   -127670.1761   24776280.827          25.807  
   -313054.7031   20676693.321          34.732  
    480455.5831   22502173.966          45.744  
    -20531.5901   20548983.833          42.409  
    533035.4611   23090591.608          39.598  
 19  1 11  9  2 58.9998728  0  8G14G16G21G23G26G29G31G32
    898470.0831   21489292.759          37.222  
   -841479.7961   21749136.378          30.589  
    -61990.618    24015957.093          42.516  
   -130863.0671   24775717.517          26.705  
   -313744.0161   20676568.011          34.302  
    482866.340    22502634.145          45.928  
    -20556.4271   20548980.535          40.682  
    536472.7081   23091245.765          38.697  
 19  1 11  9  2 59.9998728  0  8G14G16G21G23G26G29G31G32
    900937.9151   21489769.133          37.964  
   -843505.5611   21748746.348          29.636  
    -63869.321    24015606.937          43.226  
   -134061.3141   24775123.337          23.932  
   -314427.4051   20676437.588          33.511  
    485277.8801   22503092.824          44.951  
    -20580.7331   20548972.141          41.628  
    539909.6121   23091898.106          40.106  
 19  1 11  9  3  0.9998728  0  8G14G16G21G23G26G29G31G32
    903406.1561   21490227.515          36.606  
   -845530.6041   21748343.126          27.409  
    -65747.721    24015248.388          42.915  
   -137255.1851   24774468.587          24.128  
   -315111.5161   20676305.979          33.031  
    487689.6731   22503550.613          45.214  
    -20607.7111   20548969.436          41.407  
    543346.928    23092557.341          38.979  
 19  1 11  9  3  1.9998728  0  7G14G21G23G26G29G31G32
    905873.9441   21490703.889          36.263  
    -67626.329    24014886.226          44.049  
   -140446.4101   24773871.702          26.281  
   -315791.6061   20676179.168          34.226  
    490100.9251   22504006.291          45.500  
    -20631.7801   20548960.746          41.366  
    546783.831    23093210.293          41.092  
 19  1 11  9  3  2.9998728  0  7G14G21G23G26G29G31G32
    908342.1081   21491170.961          37.366  
    -69505.238    24014531.585          41.830  
   -143639.9431   24773256.827          26.019  
   -316474.2021   20676052.060          32.861  
    492512.7571   22504467.081          43.569  
    -20655.1591   20548965.842          41.404  
    550221.2771   23093866.840          41.157  
 19  1 11  9  3  3.9998728  0  7G14G21G23G26G29G31G32
    910806.5001   21491639.534          35.752  
    -71384.048    24014174.833          43.213  
   -146825.7381   24772665.037          25.290  
   -317159.1911   20675915.949          34.887  
    494924.9901   22504926.650          43.993  
    -20678.8701   20548957.151          41.783  
    553658.095    23094514.993          41.581  
 19  1 11  9  3  4.9998728  0  7G14G21G23G26G29G31G32
    913273.6151   21492113.517          38.343  
    -73263.293    24013811.781          42.143  
   -150015.6991   24772069.339          24.535  
   -317847.5591   20675779.540          35.248  
    497336.848    22505390.128          44.721  
    -20699.0641   20548948.147          40.715  
    557094.478    23095175.135          41.527  
 19  1 11  9  3  5.9998728  0  7G14G21G23G26G29G31G32
    915740.5971   21492580.293          35.996  
    -75142.195    24013452.621          42.213  
   -153211.3381   24771436.490          24.957  
   -318532.2921   20675656.935          33.797  
    499749.479    22505842.228          44.864  
    -20721.9361   20548946.646          40.627  
    560531.280    23095823.585          40.696  
 19  1 11  9  3  6.9998728  0  8G14G16G21G23G26G29G31G32
    918209.3651   21493057.260          36.204  
     -7709.6961   21746046.416          31.099  
    -77021.110    24013101.575          42.215  
   -156404.9491   24770826.413          25.511  
   -319216.7621   20675524.122          34.333  
    502161.5341   22506298.813          42.760  
    -20745.3181   20548943.052          40.683  
    563967.886    23096480.132          42.183  
 19  1 11  9  3  7.9998728  0  8G14G16G21G23G26G29G31G32
    920677.8501   21493524.332          35.787  
     -9730.5131   21745648.900          32.220  
    -78900.381    24012739.727          41.704  
   -159597.9071   24770266.104          24.813  
   -319901.5521   20675394.623          34.355  
    504573.7711   22506759.290          43.560  
    -20769.0661   20548933.157          41.460  
    567404.151    23097132.788          40.054  
 19  1 11  9  3  8.9998728  0  8G14G16G21G23G26G29G31G32
    923147.0881   21493986.920          35.349  
    -11753.6771   21745271.155          31.407  
    -80779.599    24012382.067          41.464  
   -162789.0441   24769640.723          25.577  
   -320586.4251   20675277.096          34.139  
    506986.781    22507223.064          42.017  
    -20794.8331   20548930.173          41.082  
    570841.2351   23097788.724          39.610  
 19  1 11  9  3  9.9998728  0  8G14G16G21G23G26G29G31G32
    925611.3261   21494463.294          35.066  
    -13771.8371   21744888.018          32.026  
    -82658.9361   24012024.722          41.229  
   -165986.7571   24769024.346          25.280  
   -321270.9681   20675136.186          32.734  
    509399.0821   22507685.041          40.345  
    -20818.3901   20548931.063          42.151  
    574276.6991   23098445.271          39.354  
 19  1 11  9  3 10.9998728  0  8G14G16G21G23G26G29G31G32
    928080.9941   21494933.368          35.700  
    -15793.1661   21744498.582          31.437  
    -84538.006    24011668.563          42.005  
   -169177.9961   24768445.453          25.274  
   -321959.6171   20675002.186          35.012  
    511812.7161   22508138.939          42.656  
    -20843.6691   20548922.373          41.877  
    577716.7851   23099095.222          38.878  
 19  1 11  9  3 11.9998728  0  7G14G16G21G26G29G31G32
    930549.7961   21495401.644          36.171  
    -17814.8191   21744105.568          32.038  
    -86417.206    24011313.015          41.017  
   -322643.4821   20674871.169          34.397  
    514226.1461   22508602.120          44.080  
    -20868.5031   20548916.981          40.745  
    581153.5731   23099746.970          39.683  
 19  1 11  9  3 12.9998728  0  7G14G16G21G26G29G31G32
    933018.9981   21495868.420          36.235  
    -19836.1331   21743734.122          30.677  
    -88296.501    24010953.558          40.627  
   -323329.4641   20674747.971          34.215  
    516639.886    22509059.001          45.048  
    -20892.4751   20548916.074          41.486  
    584589.4101   23100408.909          39.904  
 19  1 11  9  3 13.9998728  0  7G14G16G21G26G29G31G32
    935489.0641   21496339.087          36.783  
    -21857.7891   21743342.889          33.630  
    -90175.7281   24010592.007          40.743  
   -324012.3761   20674611.562          33.617  
    519054.0371   22509522.183          44.035  
    -20914.7151   20548914.869          40.580  
    588025.9181   23101058.860          39.675  
 19  1 11  9  3 14.9998728  0  7G14G16G21G26G29G31G32
    937960.460    21496810.662          41.872  
    -23879.3321   21742990.342          29.588  
    -92051.7611   24010239.146          40.542  
   -324699.0321   20674480.250          34.724  
    521468.134    22509978.157          46.128  
    -20938.0451   20548907.977          41.655  
    591464.322    23101717.501          38.409  
 19  1 11  9  3 15.9998728  0  7G14G16G21G26G29G31G32
    940434.593    21497281.329          44.120  
       -14.0171   21742564.033          37.455  
    -93925.455    24009882.393          40.692  
   -325385.7041   20674350.734          32.169  
    523882.578    22510437.446          38.651  
    -20960.835    20548903.178          38.499  
    594905.499    23102361.763          39.720  
