     2.11           OBSERVATION DATA    G (GPS)             RINEX VERSION / TYPE
AndroidGNSSReceiver RITSUMEIKAN KUBOLAB 1547197845624       PGM / RUN BY / DATE
flounder                                                    MARKER NAME
GRitzLogger         KUBOLAB                                 OBSERVER / AGENCY
0                   Android Receiver                        REC # / TYPE / VERS
0                   Android Anttena                         ANT # / TYPE
        0.0000        0.0000        0.0000                  APPROX POSITION XYZ
        0.0000        0.0000        0.0000                  ANTENNA: DELTA H/E/N
1     0                                                     WAVELENGTH FACT L1/2
3         L1    C1    S1                                    # / TYPES OF OBSERV
1.000                                                       INTERVAL
  2019     1    11     9     6    3.9998892     GPS         TIME OF FIRST OBS
                                                            END OF HEADER
 19  1 11  9  6  3.9998892  0  8G 3G14G16G21G26G29G31G32
      4487.052    25117018.351          31.582  
   1363191.366    21582629.856          41.329  
   -334800.929    21683788.227          34.725  
    -18448.884    23955683.814          41.550  
   -435848.453    20658224.011          37.720  
    317928.344    22593830.414          29.071  
    -19531.575    20554082.699          41.011  
     62361.024    23217957.537          41.351  
 19  1 11  9  6  4.9998892  0  8G 3G14G16G21G26G29G31G32
      5974.404    25117306.140          29.203  
   1365734.526    21583118.218          34.439  
   -336772.972    21683407.777          34.657  
    -20289.666    23955336.363          38.635  
   -436487.440    20658090.604          33.749  
    320413.0651   22594329.857          24.757  
    -19503.537    20554081.495          38.487  
     65827.421    23218622.774          41.973  
 19  1 11  9  6  5.9998892  0  7G 3G14G16G21G26G31G32
      7455.2911   25117606.842          27.101  
   1368275.8861   21583606.876          38.376  
   -338745.066    21683018.358          38.336  
    -22132.300    23954980.501          38.631  
   -437126.606    20657981.470          34.315  
    -19476.364    20554095.595          40.202  
     69291.898    23219274.522          40.694  
 19  1 11  9  6  6.9998892  0  7G 3G14G16G21G26G31G32
      8943.1661   25117873.656          28.157  
   1370819.289    21584081.749          37.752  
   -340716.8001   21682671.186          33.736  
    -23974.064    23954635.440          40.543  
   -437762.7931   20657843.264          32.852  
    -19448.990    20554102.784          43.269  
     72758.424    23219939.166          40.235  
 19  1 11  9  6  7.9998892  0  7G 3G14G16G21G26G31G32
     10433.5561   25118188.126          25.899  
   1373364.665    21584567.109          35.554  
   -342686.9041   21682271.873          33.305  
    -25814.012    23954280.189          42.932  
   -438393.6711   20657753.623          34.448  
    -19419.570    20554103.988          41.192  
     76226.058    23220599.308          41.459  
 19  1 11  9  6  8.9998892  0  7G 3G14G16G21G26G31G32
     11924.6141   25118469.633          25.446  
   1375910.240    21585058.176          36.516  
   -344655.979    21681900.428          31.780  
    -27652.433    23953930.033          42.137  
   -439029.6741   20657594.145          32.081  
    -19388.830    20554106.082          40.477  
     79694.299    23221260.950          41.210  
 19  1 11  9  6  9.9998892  0  7G 3G14G16G21G26G31G32
     13409.8031   25118714.564          22.588  
   1378457.4581   21585542.925          38.450  
   -346624.153    21681521.496          30.830  
    -29490.795    23953582.581          41.594  
   -439665.371    20657483.214          38.059  
    -19357.598    20554117.181          39.938  
     83163.207    23221920.499          43.104  
 19  1 11  9  6 10.9998892  0  7G 3G14G16G21G26G31G32
     14896.9121   25119023.049          23.622  
   1381005.290    21586024.708          38.453  
   -348592.542    21681165.041          33.501  
    -31328.899    23953234.223          40.086  
   -440300.829    20657374.098          39.633  
    -19326.331    20554129.466          42.338  
     86632.984    23222581.530          42.506  
 19  1 11  9  6 11.9998892  0  6G14G16G21G26G31G32
   1383553.424    21586511.569          39.355  
   -350560.017    21680771.416          32.506  
    -33166.228    23952882.566          39.937  
   -440935.868    20657245.786          40.210  
    -19294.187    20554126.761          41.954  
     90102.667    23223238.688          43.294  
 19  1 11  9  6 12.9998892  0  7G14G16G21G26G29G31G32
   1386102.825    21586993.632          38.996  
   -352527.257    21680421.853          31.861  
    -35002.630    23952536.598          39.628  
   -441569.843    20657129.166          37.382  
     12454.616    22598112.349          42.198  
    -19261.040    20554132.764          43.574  
     93573.395    23223902.721          40.975  
 19  1 11  9  6 13.9998892  0  7G14G16G21G26G29G31G32
   1388652.711    21587469.691          38.856  
   -354493.1451   21680023.726          34.110  
    -36838.714    23952179.846          38.702  
   -442203.192    20657017.939          35.714  
     14945.884    22598587.221          40.893  
    -19227.420    20554138.156          42.703  
     97044.444    23224559.862          39.357  
 19  1 11  9  6 14.9998892  0  7G14G16G21G26G29G31G32
   1391203.376    21587970.652          40.155  
   -356458.052    21679641.794          34.580  
    -38674.102    23951845.569          38.499  
   -442836.089    20656896.520          37.799  
     17437.898    22599064.188          40.556  
    -19193.102    20554146.846          42.481  
    100516.052    23225214.611          36.631  
 19  1 11  9  6 15.9998892  0  7G14G16G21G26G29G31G32
   1393755.317    21588459.921          36.877  
   -358422.281    21679280.836          39.927  
    -40508.299    23951489.131          39.288  
   -443467.797    20656766.708          37.609  
     19931.049    22599535.170          39.524  
    -19157.672    20554157.944          42.782  
    103988.668    23225881.349          37.435  
 19  1 11  9  6 16.9998892  0  7G14G16G21G26G29G31G32
   1396308.322    21588944.985          39.011  
   -360385.494    21678914.189          39.002  
    -42341.536    23951133.566          39.161  
   -444098.622    20656644.399          39.335  
     22425.736    22600012.136          39.439  
    -19121.168    20554162.743          43.221  
    107461.960    23226544.196          38.662  
 19  1 11  9  6 17.9998892  0  7G14G16G21G26G29G31G32
   1398861.961    21589420.154          39.557  
   -362347.606    21678546.042          32.960  
    -44173.933    23950788.208          41.555  
   -444728.433    20656527.483          36.461  
     24921.760    22600483.711          44.873  
    -19083.508    20554163.947          39.796  
    110935.651    23227207.932          40.133  
 19  1 11  9  6 18.9998892  0  7G14G16G21G26G29G31G32
   1401416.768    21589909.109          37.919  
   -364309.1251   21678139.836          29.532  
    -46006.221    23950440.443          40.873  
   -445357.498    20656413.550          39.269  
     27417.995    22600960.678          45.393  
    -19045.493    20554180.734          38.657  
    114410.082    23227855.492          38.835  
 19  1 11  9  6 19.9998892  0  7G14G16G21G26G29G31G32
   1403972.491    21590398.379          37.812  
   -366270.091    21677802.558          29.835  
    -47836.921    23950089.693          41.793  
   -445986.120    20656285.239          38.004  
     29915.343    22601430.455          46.586  
    -19006.472    20554187.924          40.588  
    117885.650    23228519.822          38.800  
 19  1 11  9  6 20.9998892  0  7G14G16G21G26G29G31G32
   1406529.108    21590881.942          37.123  
   -368230.277    21677405.635          33.726  
    -49667.812    23949745.523          42.215  
   -446613.868    20656169.527          36.807  
     32413.076    22601907.719          46.182  
    -18966.910    20554195.427          41.578  
    121361.526    23229192.860          37.919  
 19  1 11  9  6 21.9998892  0  7G14G16G21G26G29G31G32
   1409086.444    21591372.101          37.235  
   -370189.589    21677037.488          36.037  
    -51497.580    23949393.569          42.546  
   -447240.896    20656049.312          37.553  
     34912.162    22602384.389          46.165  
    -18926.512    20554201.116          42.766  
    124837.904    23229850.611          36.218  
 19  1 11  9  6 22.9998892  0  7G14G16G21G26G29G31G32
   1411644.601    21591854.756          36.710  
   -372148.205    21676671.749          34.532  
    -53326.854    23949046.711          42.593  
   -447867.255    20655935.990          37.272  
     37411.909    22602859.262          46.181  
    -18885.409    20554213.105          43.058  
    128314.819    23230511.049          38.102  
 19  1 11  9  6 23.9998892  0  7G14G16G21G26G29G31G32
   1414203.501    21592342.525          36.912  
   -374106.169    21676320.982          32.496  
    -55155.591    23948700.150          42.481  
   -448493.078    20655817.277          37.379  
     39912.356    22603330.836          45.674  
    -18843.741    20554217.607          43.562  
    131792.253    23231167.893          37.612  
 19  1 11  9  6 24.9998892  0  8G14G16G21G23G26G29G31G32
   1416762.754    21592824.290          38.596  
   -376063.846    21675922.873          32.623  
    -56984.097    23948353.292          42.462  
    -25171.876    24656307.788          27.105  
   -449118.491    20655685.353          36.834  
     42413.292    22603809.600          45.582  
    -18801.647    20554226.297          44.397  
    135269.863    23231834.631          37.850  
 19  1 11  9  6 25.9998892  0  8G14G16G21G23G26G29G31G32
   1419322.456    21593313.856          38.633  
   -378021.315    21675555.616          34.613  
    -58812.722    23948002.543          40.949  
    -28310.6981   24655707.902          23.106  
   -449743.765    20655562.748          34.250  
     44914.296    22604284.176          45.031  
    -18759.472    20554234.987          42.926  
    138747.561    23232493.272          35.805  
 19  1 11  9  6 26.9998892  0  7G14G16G21G26G29G31G32
   1421882.127    21593801.921          38.988  
   -379978.792    21675196.473          33.626  
    -60641.304    23947656.278          41.915  
   -450369.004    20655438.624          32.367  
     47415.580    22604763.848          46.219  
    -18717.230    20554240.083          42.643  
    142225.000    23233150.115          35.453  
 19  1 11  9  6 27.9998892  0  7G14G16G21G26G29G31G32
   1424441.892    21594285.484          36.665  
   -381935.456    21674803.738          30.693  
    -62469.951    23947304.028          42.279  
   -450993.891    20655346.592          36.879  
     49917.341    22605237.220          47.330  
    -18674.701    20554241.287          39.448  
    145702.210    23233825.857          40.646  
 19  1 11  9  6 28.9998892  0  7G14G16G21G26G29G31G32
   1427000.866    21594779.238          33.471  
   -383891.7281   21674467.368          27.898  
    -64300.734    23946954.465          39.253  
   -451617.352    20655219.484          38.904  
     52419.418    22605715.688          43.708  
    -18631.669    20554257.480          39.866  
    149177.765    23234481.794          41.551  
 19  1 11  9  6 29.9998892  0  7G14G16G21G26G29G31G32
   1429559.816    21595264.302          37.655  
   -385846.3991   21674067.147          27.940  
    -66132.525    23946613.889          40.129  
   -452239.243    20655096.862          37.954  
     54922.804    22606187.856          41.406  
    -18587.998    20554262.576          40.935  
    152652.226    23235142.232          41.957  
 19  1 11  9  6 30.9998892  0  7G14G16G21G26G29G31G32
   1432118.651    21595748.162          38.659  
   -387806.5741   21673720.882          29.061  
    -67964.311    23946261.936          41.728  
   -452860.8831   20654982.650          39.114  
     57426.0791   22606669.325          41.979  
    -18544.3021   20554269.469          40.119  
    156126.830    23235796.982          41.210  
 19  1 11  9  6 31.9998892  0  7G14G16G21G26G29G31G32
   1434678.384    21596231.428          37.687  
   -389762.893    21673356.941          27.533  
    -69795.786    23945912.076          40.607  
   -453481.5081   20654863.029          39.953  
     59930.729    22607145.384          43.373  
    -18499.4611   20554278.159          39.700  
    159601.490    23236465.517          42.462  
 19  1 11  9  6 32.9998892  0  7G14G16G21G26G29G31G32
   1437238.3281   21596727.590          37.816  
   -391712.5871   21672958.814          25.711  
    -71626.561    23945558.029          39.572  
   -454101.870    20654744.315          39.556  
     62435.7641   22607618.459          43.331  
    -18454.5971   20554285.959          40.388  
    163076.842    23237126.269          40.580  
 19  1 11  9  6 33.9998892  0  7G14G16G21G26G29G31G32
   1439799.5871   21597207.855          38.667  
   -393662.5851   21672580.772          26.565  
    -73457.082    23945218.361          39.231  
   -454717.1021   20654630.086          37.833  
     64941.6911   22608096.630          44.616  
    -18408.3471   20554296.743          41.895  
    166552.443    23237782.816          39.345  
 19  1 11  9  6 34.9998892  0  7G14G16G21G26G29G31G32
   1442359.5271   21597695.623          38.049  
   -395613.9591   21672217.424          27.444  
    -75287.776    23944867.611          41.527  
   -455332.3731   20654509.575          37.001  
     67447.7011   22608571.206          42.678  
    -18364.8061   20554312.047          40.797  
    170027.804    23238446.553          40.615  
 19  1 11  9  6 35.9998892  0  7G14G16G21G26G29G31G32
   1444920.5141   21598188.784          39.111  
   -397571.3711   21671861.579          25.851  
    -77118.734    23944522.254          39.330  
   -455952.9371   20654400.144          35.638  
     69953.3891   22609052.379          43.276  
    -18321.6621   20554317.736          40.483  
    173503.102    23239112.383          40.057  
 19  1 11  9  6 36.9998892  0  8G14G16G21G23G26G29G31G32
   1447482.5601   21598672.050          38.608  
   -399522.3641   21671465.546          26.803  
    -78948.3311   23944170.894          36.515  
    -27629.6561   24649173.930          27.596  
   -456568.9611   20654274.538          35.516  
     72460.2661   22609527.548          43.678  
    -18275.8731   20554320.127          41.030  
    176978.715    23239766.243          40.033  
 19  1 11  9  6 37.9998892  0  8G14G16G21G23G26G29G31G32
   1450043.9781   21599161.599          37.797  
   -401476.1251   21671103.105          26.898  
    -80779.1441   23943820.424          37.137  
    -30763.3251   24648568.652          27.604  
   -457185.0121   20654152.229          36.394  
     74966.7911   22610003.922          43.759  
    -18235.3911   20554328.520          40.733  
    180453.9641   23240430.276          40.341  
 19  1 11  9  6 38.9998892  0  8G14G16G21G23G26G29G31G32
   1452606.5701   21599643.364          37.454  
   -403431.8591   21670729.252          27.058  
    -82609.304    23943478.068          37.242  
    -33895.0731   24647984.052          28.425  
   -457799.0551   20654040.391          36.655  
     77473.5911   22610481.778          45.277  
    -18188.6641   20554340.823          41.258  
    183929.283    23241093.716          40.000  
 19  1 11  9  6 39.9998892  0  8G14G16G21G23G26G29G31G32
   1455166.5891   21600134.728          37.120  
   -405383.0951   21670352.414          26.605  
    -84439.663    23943123.706          38.351  
    -37026.6181   24647373.364          27.212  
   -458418.0891   20653922.584          38.090  
     79980.6081   22610957.855          45.087  
    -18142.4781   20554348.920          41.575  
    187404.676    23241754.765          42.148  
 19  1 11  9  6 40.9998892  0  8G14G16G21G23G26G29G31G32
   1457722.9861   21600616.197          37.024  
   -407341.9111   21670006.464          28.018  
    -86270.7821   23942777.756          37.497  
    -40160.9901   24646807.366          28.698  
   -459036.5961   20653802.666          36.449  
     82487.1631   22611438.713          44.500  
    -18096.9031   20554360.908          40.392  
    190879.803    23242417.298          40.285  
 19  1 11  9  6 41.9998892  0  8G14G16G21G23G26G29G31G32
   1460285.6121   21601115.360          37.817  
   -409299.4901   21669618.231          27.846  
    -88101.4381   23942426.989          37.865  
    -43290.3091   24646195.788          29.709  
   -459656.0501   20653682.155          37.209  
     84994.7091   22611912.696          44.626  
    -18052.6821   20554370.191          40.485  
    194354.908    23243075.642          41.651  
 19  1 11  9  6 42.9998892  0  8G14G16G21G23G26G29G31G32
   1462847.2561   21601601.314          37.786  
   -411249.9481   21669253.679          27.252  
    -89932.4611   23942081.632          40.978  
    -46421.6221   24645606.093          29.122  
   -460276.0381   20653567.019          36.318  
     87501.5021   22612389.663          43.272  
    -18008.4541   20554375.304          40.599  
    197829.400    23243735.190          40.657  
 19  1 11  9  6 43.9998892  0  8G14G16G21G23G26G29G31G32
   1465409.2801   21602083.690          38.956  
   -413198.6671   21668869.949          26.964  
    -91763.132    23941729.975          42.327  
    -49552.3591   24645011.006          27.581  
   -460890.5601   20653455.198          37.335  
     90009.1981   22612866.630          42.273  
    -17960.8971   20554385.181          40.947  
    201304.099    23244402.225          41.097  
 19  1 11  9  6 44.9998892  0  8G14G16G21G23G26G29G31G32
   1467970.5661   21602576.240          37.540  
   -415148.5931   21668498.800          27.831  
    -93594.187    23941387.008          41.819  
    -52688.0981   24644408.729          27.390  
   -461514.0601   20653333.186          37.074  
     92516.2051   22613346.301          43.272  
    -17917.6631   20554397.187          41.271  
    204778.627    23245063.274          40.082  
 19  1 11  9  6 45.9998892  0  8G14G16G21G23G26G29G31G32
   1470533.2101   21603058.599          38.528  
   -417100.5101   21668119.572          28.275  
    -95425.598    23941036.259          41.137  
    -55829.4271   24643808.843          28.403  
   -462134.3031   20653211.767          36.265  
     95023.8001   22613819.970          44.151  
    -17872.1621   20554405.284          42.334  
    208252.651    23245723.119          40.250  
 19  1 11  9  6 46.9998892  0  8G14G16G21G23G26G29G31G32
   1473096.4311   21603549.665          37.502  
   -419049.4821   21667768.508          27.480  
    -97256.518    23940689.104          40.673  
    -58961.9501   24643213.459          30.212  
   -462753.4571   20653098.759          36.283  
     97531.5761   22614300.846          42.898  
    -17826.6971   20554412.770          40.998  
    211726.943    23246385.355          40.767  
 19  1 11  9  6 47.9998892  0  8G14G16G21G23G26G29G31G32
   1475658.1231   21604037.731          39.126  
   -421001.0751   21667390.467          28.484  
    -99087.989    23940342.246          41.332  
    -62100.1481   24642608.477          30.023  
   -463373.7471   20652977.934          34.931  
    100038.9661   22614774.514          39.074  
    -17781.9921   20554418.162          40.845  
    215200.718    23247044.293          41.295  
 19  1 11  9  6 48.9998892  0  8G14G16G21G23G26G29G31G32
   1478220.4691   21604523.091          38.828  
   -422958.8441   21667018.428          27.250  
   -100918.866    23939995.981          37.014  
    -65234.1381   24642028.066          28.658  
   -463991.2611   20652859.517          34.556  
    102547.5361   22615249.684          39.516  
    -17731.2241   20554432.262          41.280  
    218674.830    23247707.732          41.658  
 19  1 11  9  6 49.9998892  0  8G14G16G21G23G26G29G31G32
   1480782.2981   21605020.143          37.203  
   -424918.3801   21666647.594          29.048  
   -102750.8631   23939636.524          36.433  
    -68367.2771   24641438.388          28.922  
   -464612.7491   20652744.101          35.304  
    105052.8211   22615729.059          43.175  
    -17687.7791   20554436.450          40.837  
    222148.5711   23248365.484          42.133  
 19  1 11  9  6 50.9998892  0  8G14G16G21G23G26G29G31G32
   1483344.8961   21605505.521          39.504  
   -426870.6501   21666273.444          27.508  
   -104586.4851   23939304.063          33.900  
    -71500.3111   24640834.907          28.728  
   -465236.9921   20652625.981          34.286  
    107560.5381   22616210.214          45.638  
    -17642.3711   20554444.547          39.669  
    225621.785    23249027.126          41.846  
 19  1 11  9  6 51.9998892  0  8G14G16G21G23G26G29G31G32
   1485906.8651   21605985.489          37.962  
   -428823.4551   21665911.299          25.636  
   -106418.3641   23938951.795          33.434  
    -74640.9811   24640212.824          29.580  
   -465855.1591   20652501.857          35.139  
    110067.8551   22616686.884          44.543  
    -17597.2721   20554461.037          39.741  
    229094.412    23249688.472          42.115  
 19  1 11  9  6 52.9998892  0  8G14G16G21G23G26G29G31G32
   1488470.1941   21606484.042          37.988  
   -430776.6381   21665529.960          28.868  
   -108250.886    23938595.043          36.259  
    -77775.1741   24639645.326          28.691  
   -466479.7261   20652393.631          36.338  
    112575.594    22617160.553          45.296  
    -17545.2181   20554464.929          40.597  
    232566.762    23250351.615          41.920  
 19  1 11  9  6 53.9998892  0  8G14G16G21G23G26G29G31G32
   1491032.7851   21606963.399          39.294  
   -432730.3921   21665158.514          27.558  
   -110083.582    23938248.482          36.458  
    -80913.7581   24639055.037          29.019  
   -467101.6301   20652271.026          36.178  
    115083.0481   22617639.631          44.159  
    -17503.5621   20554474.230          40.920  
    236039.179    23251008.755          42.943  
 19  1 11  9  6 54.9998892  0  8G14G16G21G23G26G29G31G32
   1493595.0911   21607448.463          39.616  
   -434688.9071   21664795.759          27.532  
   -111916.1291   23937894.731          32.945  
    -84044.8961   24638451.242          28.869  
   -467721.7321   20652152.905          35.785  
    117590.2771   22618120.192          44.230  
    -17458.9861   20554483.513          41.699  
    239510.827    23251674.289          43.553  
 19  1 11  9  6 55.9998892  0  8G14G16G21G23G26G29G31G32
   1496158.5701   21607938.029          39.381  
   -436640.7721   21664405.729          27.782  
   -113748.1681   23937550.874          33.656  
    -87177.7631   24637851.670          29.201  
   -468342.3161   20652042.882          35.119  
    120098.5091   22618597.159          44.805  
    -17412.7031   20554487.422          40.884  
    242982.972    23252333.541          42.485  
 19  1 11  9  6 56.9998892  0  8G14G16G21G23G26G29G31G32
   1498721.3351   21608423.092          38.929  
   -438593.2361   21664046.883          29.470  
   -115577.8881   23937205.203          32.738  
    -90310.8321   24637246.078          29.545  
   -468963.6181   20651913.366          35.982  
    122606.1421   22619068.437          44.817  
    -17367.8411   20554500.614          40.954  
    246454.860    23252990.385          42.515  
 19  1 11  9  6 57.9998892  0  8G14G16G21G23G26G29G31G32
   1501285.5151   21608913.548          39.835  
   -440537.5001   21663676.048          29.486  
   -117403.7111   23936855.658          34.592  
       -52.9441   24636659.384          30.903  
   -469584.0391   20651804.547          37.282  
    125114.7371   22619551.407          45.013  
    -17324.9211   20554506.303          41.144  
    249927.461    23253652.027          43.799  
 19  1 11  9  6 58.9998892  0  8G14G16G21G23G26G29G31G32
   1503848.9591   21609404.318          38.209  
   -442489.8891   21663296.210          27.936  
   -119236.5291   23936499.499          37.677  
     -3185.4351   24636056.200          30.929  
   -470202.3171   20651677.143          37.391  
    127623.0101   22620026.576          44.954  
    -17279.3791   20554519.199          41.725  
    253399.493    23254311.872          43.224  
 19  1 11  9  6 59.9998892  0  8G14G16G21G23G26G29G31G32
   1506413.3031   21609893.273          39.332  
   -444442.0281   21662923.263          27.422  
   -121068.654    23936154.438          38.470  
     -6317.2701   24635468.616          30.849  
   -470822.2181   20651567.119          38.036  
    130132.1521   22620503.543          45.271  
    -17232.4221   20554524.888          40.984  
    256871.740    23254974.405          42.526  
 19  1 11  9  7  0.9998892  0  8G14G16G21G23G26G29G31G32
   1508977.2311   21610381.338          38.755  
   -446400.2511   21662563.806          28.451  
   -122901.0381   23935807.877          36.736  
     -9448.1151   24634856.445          30.512  
   -471441.3251   20651439.994          36.536  
    132640.8991   22620979.009          44.654  
    -17183.5271   20554530.594          40.876  
    260343.532    23255636.658          42.604  
 19  1 11  9  7  1.9998892  0  8G14G16G21G23G26G29G31G32
   1511541.9401   21610865.198          38.922  
   -448355.4381   21662180.373          28.865  
   -124732.867    23935458.925          37.644  
    -12581.2871   24634267.046          32.489  
   -472061.4361   20651327.580          38.228  
    135149.9351   22621460.182          44.289  
    -17137.1631   20554544.676          41.031  
    263815.595    23256295.299          42.868  
 19  1 11  9  7  2.9998892  0  8G14G16G21G23G26G29G31G32
   1514106.6281   21611360.156          38.574  
   -450312.9271   21661806.833          30.181  
   -126564.6511   23935111.159          35.317  
    -15709.6781   24633672.256          32.293  
   -472679.8881   20651202.863          36.027  
    137658.920    22621933.257          44.699  
    -17090.9381   20554554.274          41.241  
    267287.118    23256956.330          42.153  
 19  1 11  9  7  3.9998892  0  8G14G16G21G23G26G29G31G32
   1516671.3651   21611848.221          37.506  
   -452264.2581   21661443.188          29.703  
   -128396.857    23934758.002          37.550  
    -18841.1561   24633085.265          33.023  
   -473300.6841   20651092.839          35.626  
    140167.976    22622417.413          40.734  
    -17044.6801   20554557.868          41.393  
    270758.377    23257617.676          42.120  
 19  1 11  9  7  4.9998892  0  8G14G16G21G23G26G29G31G32
   1519235.8331   21612332.081          40.608  
   -454216.9871   21661072.040          29.950  
   -130229.330    23934413.552          37.675  
    -21983.1701   24632483.878          32.000  
   -473920.3651   20650967.826          37.693  
    142677.6351   22622884.503          39.105  
    -16998.4331   20554568.967          42.075  
    274229.613    23258275.427          43.174  
 19  1 11  9  7  5.9998892  0  8G14G16G21G23G26G29G31G32
   1521800.562    21612815.958          40.074  
   -456168.0441   21660703.002          29.578  
   -132062.148    23934060.395          41.144  
    -25116.9991   24631877.396          31.631  
   -474541.6901   20650854.801          37.844  
    145186.9881   22623373.755          39.803  
    -16952.1101   20554576.750          41.094  
    277700.745    23258939.757          43.520  
 19  1 11  9  7  6.9998892  0  8G14G16G21G23G26G29G31G32
   1524365.258    21613308.508          39.561  
   -458119.3931   21660344.453          29.218  
   -133895.330    23933712.926          40.087  
    -28253.0561   24631289.498          30.877  
   -475161.8931   20650739.682          38.713  
    147696.9191   22623848.628          38.425  
    -16906.2361   20554585.143          41.735  
    281171.733    23259601.714          42.429  
 19  1 11  9  7  7.9998892  0  8G14G16G21G23G26G29G31G32
   1526930.153    21613798.964          39.900  
   -460069.3361   21659945.419          28.966  
   -135728.201    23933360.676          39.851  
    -31387.4641   24630690.520          30.725  
   -475781.7871   20650617.670          38.720  
    150205.9101   22624329.189          38.736  
    -16860.0571   20554595.037          41.004  
    284642.449    23260254.648          42.638  
 19  1 11  9  7  8.9998892  0  8G14G16G21G23G26G29G31G32
   1529494.974    21614285.231          40.415  
   -462019.1861   21659583.571          27.926  
   -137561.436    23933018.303          41.230  
    -34524.4471   24630101.121          30.445  
   -476402.4371   20650506.442          38.849  
    152715.2301   22624801.078          38.158  
    -16814.4381   20554604.042          42.174  
    288112.972    23260920.793          42.865  
 19  1 11  9  7  9.9998892  0  8G14G16G21G23G26G29G31G32
   1532060.404    21614773.296          40.766  
   -463970.4241   21659220.833          27.082  
   -139393.977    23932667.850          42.309  
    -37659.3041   24629509.035          29.830  
   -477022.5401   20650378.131          38.241  
    155225.331    22625276.247          41.290  
    -16769.8821   20554616.327          40.560  
    291583.962    23261581.842          44.629  
 19  1 11  9  7 10.9998892  0  8G14G16G21G23G26G29G31G32
   1534626.7941   21615254.765          40.494  
   -465922.5151   21658843.996          28.273  
   -141226.074    23932320.695          39.700  
    -40796.6211   24628934.330          31.730  
   -477642.4691   20650262.419          37.367  
    157734.4101   22625760.700          38.676  
    -16723.4491   20554622.626          41.795  
    295054.9681   23262234.480          40.667  
 19  1 11  9  7 11.9998892  0  8G14G16G21G23G26G29G31G32
   1537192.609    21615749.130          40.869  
   -467876.4501   21658468.345          28.932  
   -143058.414    23931971.132          39.935  
    -43930.3871   24628334.758          31.305  
   -478262.6641   20650142.797          39.371  
    160245.0031   22626231.088          38.302  
    -16677.0391   20554627.425          42.035  
    298525.958    23262900.625          42.504  
 19  1 11  9  7 12.9998892  0  8G14G16G21G23G26G29G31G32
   1539759.1731   21616238.085          41.121  
   -469823.5521   21658104.700          28.994  
   -144890.650    23931623.681          41.364  
    -47066.9791   24627731.277          31.139  
   -478880.9701   20650030.680          38.136  
    162756.5301   22626706.555          38.047  
    -16629.3691   20554643.008          41.244  
    301997.071    23263559.563          43.994  
 19  1 11  9  7 13.9998892  0  8G14G16G21G23G26G29G31G32
   1542325.7171   21616728.541          40.070  
   -471769.0141   21657730.864          29.810  
   -146722.813    23931270.227          39.298  
    -50199.3601   24627116.994          32.288  
   -479500.6861   20649907.760          38.580  
    165266.8541   22627188.913          40.710  
    -16582.1571   20554649.901          41.333  
    305468.391    23264222.112          42.745  
 19  1 11  9  7 14.9998892  0  8G14G16G21G23G26G29G31G32
   1544893.4581   21617210.917          39.211  
   -473726.4061   21657373.798          27.221  
   -148554.166    23930927.854          37.373  
    -53334.5101   24626527.910          31.727  
   -480119.5521   20649790.547          39.090  
    167779.2761   22627670.679          42.459  
    -16533.7631   20554653.810          41.975  
    308940.058    23264877.752          43.068  
 19  1 11  9  7 15.9998892  0  8G14G16G21G23G26G29G31G32
   1547460.9141   21617693.573          38.507  
   -475681.2241   21656977.782          29.079  
   -150385.8761   23930573.510          37.147  
    -56466.6441   24625925.319          31.203  
   -480738.2901   20649674.224          37.969  
    170291.3021   22628144.959          45.486  
    -16485.7001   20554668.800          41.103  
    312411.480    23265541.489          41.924  
 19  1 11  9  7 16.9998892  0  8G14G16G21G23G26G29G31G32
   1550028.527    21618190.625          38.721  
   -477628.8031   21656607.838          28.480  
   -152217.146    23930229.042          37.289  
    -59599.1561   24625338.328          31.121  
   -481357.7441   20649558.198          36.374  
    172802.899    22628628.225          45.352  
    -16438.7481   20554673.284          40.807  
    315883.103    23266205.539          42.125  
 19  1 11  9  7 17.9998892  0  8G14G16G21G23G26G29G31G32
   1552596.8401   21618680.191          38.014  
   -479581.5481   21656312.842          25.886  
   -154048.450    23929882.184          38.784  
    -62731.9841   24624730.345          31.024  
   -481976.1611   20649439.187          38.214  
    175315.946    22629099.189          44.368  
    -16389.9721   20554688.274          41.375  
    319354.624    23266861.179          41.964  
 19  1 11  9  7 18.9998892  0  7G14G21G23G26G29G31G32
   1555164.7161   21619162.864          39.221  
   -155880.250    23929529.620          39.989  
    -65863.0791   24624165.534          30.798  
   -482593.7991   20649326.162          38.660  
    177829.0361   22629583.956          43.539  
    -16341.7381   20554690.682          42.562  
    322825.704    23267528.824          41.039  
 19  1 11  9  7 19.9998892  0  7G14G21G23G26G29G31G32
   1557733.3211   21619655.414          39.450  
   -157711.021    23929183.670          39.368  
    -68995.8191   24623588.438          30.977  
   -483212.2631   20649204.447          38.391  
    180341.4991   22630059.125          41.403  
    -16294.7421   20554703.264          40.421  
    326297.3461   23268185.057          42.289  
 19  1 11  9  7 20.9998892  0  7G14G21G23G26G29G31G32
   1560302.5041   21620142.886          37.707  
   -159541.956    23928829.901          39.437  
    -72128.1681   24622955.571          30.642  
   -483829.8421   20649084.825          37.033  
    182855.0931   22630533.998          43.548  
    -16248.0481   20554717.957          41.325  
    329768.833    23268841.011          42.925  
 19  1 11  9  7 21.9998892  0  7G14G21G23G26G29G31G32
   1562871.2151   21620632.137          39.087  
   -161373.4991   23928486.045          38.091  
    -75259.5141   24622354.498          31.918  
   -484447.3941   20648974.505          36.278  
    185368.765    22631013.076          44.626  
    -16199.9241   20554723.960          40.238  
    333240.330    23269508.045          42.255  
 19  1 11  9  7 22.9998892  0  7G14G21G23G26G29G31G32
   1565440.4491   21621123.204          38.549  
   -163204.4281   23928129.589          36.273  
    -78390.9821   24621745.311          31.901  
   -485065.4991   20648854.587          37.585  
    187882.9481   22631493.638          43.746  
    -16152.6941   20554731.742          40.195  
    336712.140    23270167.890          42.861  
 19  1 11  9  7 23.9998892  0  7G14G21G23G26G29G31G32
   1568010.2821   21621611.269          39.514  
   -165031.5001   23927787.530          38.269  
    -81524.7391   24621152.318          31.769  
   -485681.8681   20648735.873          36.294  
    190397.302    22631969.715          46.133  
    -16104.0241   20554741.933          40.644  
    340183.677    23270828.032          42.192  
 19  1 11  9  7 24.9998892  0  7G14G21G23G26G29G31G32
   1570580.4331   21622099.334          38.553  
   -166861.7111   23927441.562          38.370  
    -84655.4231   24620567.736          31.027  
   -486295.0701   20648617.456          37.276  
    192912.186    22632450.573          43.820  
    -16051.8911   20554754.829          40.625  
    343655.564    23271487.580          42.526  
 19  1 11  9  7 25.9998892  0  7G14G21G23G26G29G31G32
   1573151.276    21622588.586          39.109  
   -168691.853    23927085.717          36.828  
    -87785.5811   24619967.849          31.979  
   -486907.5531   20648499.039          37.250  
    195427.727    22632926.946          44.890  
    -16001.3231   20554760.535          40.752  
    347128.6641   23272146.815          39.859  
 19  1 11  9  7 26.9998892  0  7G14G21G23G26G29G31G32
   1575721.929    21623077.855          39.670  
   -170521.9551   23926744.251          39.332  
    -90915.7131   24619403.038          31.958  
   -487524.1531   20648383.309          37.298  
    197943.186    22633406.304          44.111  
    -15952.0551   20554766.521          40.278  
    350600.614    23272810.569          42.427  
 19  1 11  9  7 27.9998892  0  7G14G21G23G26G29G31G32
   1578293.5461   21623564.716          39.703  
   -172351.4671   23926395.893          36.657  
    -94046.5981   24618814.844          32.872  
   -488139.8401   20648265.189          37.374  
    200459.6441   22633886.586          42.681  
    -15900.8051   20554782.715          41.731  
    354072.700    23273470.414          42.845  
 19  1 11  9  7 28.9998892  0  7G14G21G23G26G29G31G32
   1580865.3091   21624056.079          39.901  
   -174181.6901   23926047.237          37.904  
    -97182.3461   24618193.372          30.947  
   -488761.9351   20648155.479          35.519  
    202975.841    22634366.555          41.769  
    -15850.5271   20554788.717          41.108  
    357544.670    23274129.055          41.944  
 19  1 11  9  7 29.9998892  0  7G14G21G23G26G29G31G32
   1583437.1671   21624551.020          39.068  
   -176011.3061   23925696.174          39.830  
   -100312.0721   24617591.391          31.406  
   -489377.1381   20648031.652          36.904  
    205492.5751   22634842.317          42.954  
    -15797.1791   20554798.001          40.891  
    361017.6901   23274794.885          41.724  
 19  1 11  9  7 30.9998892  0  7G14G21G23G26G29G31G32
   1586009.5021   21625034.600          39.246  
   -177841.6091   23925347.815          39.444  
   -103441.0601   24616993.599          30.986  
   -489993.3581   20647911.735          36.315  
    208006.4311   22635326.177          40.926  
    -15746.3751   20554805.190          40.633  
    364489.730    23275447.838          41.903  
 19  1 11  9  7 31.9998892  0  7G14G21G23G26G29G31G32
   1588582.1431   21625525.946          39.482  
   -179670.978    23925002.458          42.405  
   -106570.4241   24616388.024          31.240  
   -490608.4441   20647788.222          36.622  
    210523.1491   22635812.741          38.104  
    -15694.7301   20554819.587          40.978  
    367962.151    23276112.778          41.978  
 19  1 11  9  7 32.9998892  0  7G14G21G23G26G29G31G32
   1591157.2811   21626011.621          37.901  
   -181499.2531   23924656.507          41.359  
   -109705.7961   24615810.021          31.295  
   -491221.5081   20647681.496          35.900  
    213040.7921   22636284.927          38.339  
    -15641.7081   20554829.184          41.576  
    371434.6901   23276771.419          41.755  
 19  1 11  9  7 33.9998892  0  7G14G21G23G26G29G31G32
   1593731.9431   21626506.282          39.212  
   -183328.8611   23924303.350          41.229  
   -112836.2831   24615204.743          31.016  
   -491833.0871   20647560.985          35.663  
    215558.6241   22636770.880          40.145  
    -15585.2791   20554840.265          41.903  
    374907.2531   23277435.452          43.304  
 19  1 11  9  7 34.9998892  0  7G14G21G23G26G29G31G32
   1596306.5111   21626997.331          38.530  
   -185156.9361   23923959.772          39.928  
   -115969.4111   24614621.347          31.638  
   -492447.2171   20647442.271          37.775  
    218077.075    22637234.062          39.772  
    -15532.0491   20554846.862          41.231  
    378380.432    23278093.500          42.035  
 19  1 11  9  7 35.9998892  0  7G14G21G23G26G29G31G32
   1598880.0651   21627487.787          39.140  
   -186985.915    23923615.026          40.338  
   -119099.4721   24614012.771          31.745  
   -493062.3661   20647334.935          38.505  
    220595.681    22637722.127          43.636  
    -15475.9581   20554857.663          41.417  
    381853.268    23278758.144          41.865  
 19  1 11  9  7 36.9998892  0  7G14G16G21G26G29G31G32
   1601454.8671   21627968.366          38.460  
       -13.4601   21649201.163          33.041  
   -188814.4031   23923262.758          40.464  
   -493675.5711   20647210.236          40.155  
    223114.4331   22638198.500          43.353  
    -15423.4251   20554867.854          41.388  
    385326.313    23279415.895          42.615  
 19  1 11  9  7 37.9998892  0  7G14G16G21G26G29G31G32
   1604028.7971   21628460.026          38.972  
     -1956.9581   21648836.017          32.373  
   -190643.328    23922914.103          42.846  
   -494288.2781   20647092.709          38.821  
    225633.9661   22638679.969          45.880  
    -15372.5191   20554878.045          41.843  
    388798.894    23280077.834          41.216  
 19  1 11  9  7 38.9998892  0  7G14G16G21G26G29G31G32
   1606604.0101   21628955.577          39.691  
     -3901.7171   21648466.665          32.234  
   -192471.801    23922563.354          43.325  
   -494898.3491   20646973.384          40.786  
    228154.1801   22639164.125          43.400  
    -15319.4011   20554888.236          42.297  
    392271.823    23280740.681          44.673  
 19  1 11  9  7 39.9998892  0  7G14G16G21G26G29G31G32
   1609178.8341   21629444.235          39.619  
     -5846.8871   21648096.424          31.411  
   -194300.313    23922218.293          42.024  
   -495510.9301   20646860.970          39.223  
    230674.3901   22639637.497          44.018  
    -15266.4711   20554893.942          42.008  
    395744.565    23281396.913          41.526  
 19  1 11  9  7 40.9998892  0  7G14G16G21G26G29G31G32
   1611755.0431   21629927.205          39.366  
     -7794.4741   21647719.290          31.634  
   -196128.145    23921866.636          41.594  
   -496123.7911   20646741.959          39.144  
    233191.4801   22640118.373          42.137  
    -15212.3581   20554909.822          42.540  
    399217.849    23282060.057          42.353  
 19  1 11  9  7 41.9998892  0  7G14G16G21G26G29G31G32
   1614330.2941   21630424.868          39.093  
     -9747.2681   21647349.939          30.370  
   -197956.573    23921524.263          42.802  
   -496736.7331   20646628.323          38.476  
    235711.9421   22640598.341          44.149  
    -15159.4621   20554918.215          41.928  
    402690.617    23282725.294          41.811  
 19  1 11  9  7 42.9998892  0  8G14G16G21G23G26G29G31G32
   1616905.7571   21630915.917          39.528  
    -11686.5131   21647003.377          32.498  
   -199784.239    23921169.605          42.560  
   -140995.9581   24609849.253          33.014  
   -497348.5931   20646510.814          39.455  
    238233.8111   22641074.401          44.504  
    -15104.3681   20554927.813          42.774  
    406164.341    23283386.343          41.572  
 19  1 11  9  7 43.9998892  0  8G14G16G21G23G26G29G31G32
   1619482.1481   21631409.078          38.430  
    -13631.2761   21646632.543          30.534  
   -201612.037    23920826.656          42.988  
   -144122.2521   24609253.259          31.222  
   -497961.3111   20646392.396          40.255  
    240755.2031   22641554.369          43.952  
    -15053.3961   20554942.506          42.201  
    409637.385    23284043.187          41.934  
 19  1 11  9  7 44.9998892  0  8G14G16G21G23G26G29G31G32
   1622058.8671   21631899.533          39.362  
    -15576.2061   21646247.015          33.899  
   -203439.582    23920476.499          42.578  
   -147248.296    24608658.468          31.862  
   -498572.0971   20646276.667          39.811  
    243277.7751   22642038.543          43.939  
    -14998.2551   20554950.900          41.762  
    413110.877    23284703.032          40.792  
 19  1 11  9  7 45.9998892  0  8G14G16G21G23G26G29G31G32
   1624635.7281   21632385.801          38.067  
    -17518.0281   21645866.269          32.536  
   -205266.823    23920132.625          40.499  
   -150374.2371   24608062.194          32.294  
   -499184.2351   20646158.564          41.389  
    245799.833    22642516.103          42.955  
    -14943.5941   20554959.887          41.922  
    416584.389    23285363.767          40.050  
 19  1 11  9  7 46.9998892  0  8G14G16G21G23G26G29G31G32
   1627214.3441   21632872.662          38.075  
    -19470.4251   21645510.127          32.557  
   -207094.425    23919786.675          42.408  
   -153499.6091   24607468.293          31.045  
   -499795.5561   20646047.633          40.978  
    248322.5791   22642997.275          44.965  
    -14885.7471   20554972.782          41.331  
    420057.938    23286030.208          41.220  
 19  1 11  9  7 47.9998892  0  8G14G16G21G23G26G29G31G32
   1629792.2891   21633369.121          39.172  
    -21412.9381   21645148.576          31.678  
   -208921.654    23919432.017          41.301  
   -156624.7401   24606869.908          32.050  
   -500407.1571   20645928.622          40.734  
    250845.8951   22643472.445          44.418  
    -14829.6471   20554981.769          42.107  
    423531.455    23286687.662          41.095  
 19  1 11  9  7 48.9998892  0  8G14G16G21G23G26G29G31G32
   1632370.2591   21633856.279          39.161  
    -23354.1041   21644764.235          32.772  
   -210748.930    23919088.160          42.311  
   -159749.190    24606277.822          31.536  
   -501014.9591   20645808.093          39.880  
    253369.4221   22643960.213          45.400  
    -14774.0311   20554991.367          42.015  
    427004.672    23287344.803          42.155  
 19  1 11  9  7 49.9998892  0  8G14G16G21G23G26G29G31G32
   1634949.3321   21634347.049          39.371  
    -25296.2301   21644408.373          33.869  
   -212575.796    23918741.302          43.076  
   -162873.8981   24605693.222          31.190  
   -501628.9871   20645695.976          39.111  
    255893.4481   22644439.571          45.428  
    -14720.6851   20555004.856          41.749  
    430478.230    23288010.947          42.475  
 19  1 11  9  7 50.9998892  0  8G14G16G21G23G26G29G31G32
   1637527.0951   21634839.302          39.057  
    -27239.9271   21644028.238          32.922  
   -214403.246    23918391.739          43.581  
   -165997.7881   24605098.432          31.709  
   -502240.2661   20645581.153          39.284  
    258416.7061   22644914.147          44.546  
    -14666.3511   20555017.752          41.233  
    433951.340    23288667.791          41.797  
 19  1 11  9  7 51.9998892  0  8G14G16G21G23G26G29G31G32
   1640106.0221   21635330.962          39.102  
    -29180.1491   21643663.999          32.454  
   -216230.892    23918046.975          44.203  
   -169120.0421   24604487.168          31.009  
   -502851.3401   20645459.735          37.916  
    260940.5411   22645394.708          45.223  
    -14610.9521   20555021.346          41.883  
    437424.275    23289335.122          41.091  
 19  1 11  9  7 52.9998892  0  8G14G16G21G23G26G29G31G32
   1642684.7661   21635821.418          38.975  
    -31121.422    21643299.743          32.228  
   -218058.263    23917694.725          43.131  
   -172243.9401   24603901.975          31.659  
   -503462.6821   20645348.524          39.169  
    263464.4861   22645875.881          44.348  
    -14554.8471   20555038.430          42.078  
    440897.3321   23289994.967          40.666  
 19  1 11  9  7 53.9998892  0  8G14G16G21G23G26G29G31G32
   1645263.4771   21636311.594          40.195  
    -33063.9141   21642929.205          31.363  
   -219885.670    23917347.553          42.530  
   -175364.3001   24603313.780          31.841  
   -504074.0061   20645227.996          39.440  
    265988.8151   22646358.239          44.092  
    -14498.6611   20555049.232          41.850  
    444369.9641   23290651.811          42.384  
 19  1 11  9  7 54.9998892  0  8G14G16G21G23G26G29G31G32
   1647843.3181   21636799.345          39.817  
    -35006.5781   21642550.867          31.349  
   -221712.417    23917002.789          43.482  
   -178486.7651   24602701.295          31.897  
   -504684.9031   20645110.783          39.070  
    268513.4291   22646840.319          44.129  
    -14441.7531   20555053.734          41.823  
    447843.5041   23291314.657          40.191  
 19  1 11  9  7 55.9998892  0  8G14G16G21G23G26G29G31G32
   1650422.3721   21637294.007          39.424  
    -36953.9491   21642179.125          31.709  
   -223539.787    23916650.243          43.456  
   -181614.2651   24602117.899          31.855  
   -505293.2561   20644993.866          37.901  
    271037.9981   22647315.489          45.582  
    -14381.6051   20555065.722          41.978  
    451316.2001   23291974.503          40.811  
 19  1 11  9  7 56.9998892  0  8G14G16G21G23G26G29G31G32
   1652995.8921   21637782.368          39.177  
    -38893.1101   21641815.480          31.814  
   -225367.042    23916306.386          44.375  
   -184742.1521   24601531.502          32.153  
   -505900.8811   20644879.044          37.734  
    273563.3001   22647801.442          46.732  
    -14324.6911   20555075.006          41.929  
    454789.088    23292635.831          42.231  
 19  1 11  9  7 57.9998892  0  8G14G16G21G23G26G29G31G32
   1655576.5831   21638275.232          39.149  
    -40832.6631   21641447.630          32.458  
   -227194.215    23915957.417          44.298  
   -187870.2881   24600929.819          32.466  
   -506510.5581   20644766.926          38.426  
    276088.5011   22648278.409          44.189  
    -14267.8251   20555087.011          41.801  
    458262.018    23293297.473          41.599  
 19  1 11  9  7 58.9998892  0  8G14G16G21G23G26G29G31G32
   1658157.4501   21638768.690          38.760  
    -42771.1141   21641092.675          33.117  
   -229021.055    23915611.466          43.684  
   -190997.9231   24600347.924          32.151  
   -507121.1951   20644647.305          38.769  
    278614.2531   22648761.989          43.137  
    -14211.146    20555101.687          42.481  
    461734.625    23293955.818          42.766  
 19  1 11  9  7 59.9998892  0  8G14G16G21G23G26G29G31G32
   1660737.5121   21639256.441          38.895  
    -44713.4321   21640705.646          32.225  
   -230847.627    23915263.404          43.939  
   -194126.7781   24599740.848          32.633  
   -507730.8231   20644531.278          38.977  
    281140.5111   22649237.752          41.224  
    -14152.9231   20555112.785          43.060  
    465208.044    23294618.664          42.841  
 19  1 11  9  8  0.9998892  0  9G14G16G21G22G23G26G29G31G32
   1663317.2901   21639744.209          38.162  
    -46657.6051   21640335.702          31.013  
   -232674.462    23914915.639          44.320  
      4731.9871   25691171.557          37.072  
   -197251.3621   24599172.739          34.093  
   -508339.0391   20644413.472          38.689  
    283665.9791   22649724.910          39.822  
    -14096.3611   20555118.788          42.141  
    468680.863    23295279.103          42.614  
 19  1 11  9  8  1.9998892  0  9G14G16G21G22G23G26G29G31G32
   1665903.7161   21640239.464          38.979  
    -48597.0501   21639962.162          31.938  
   -234501.108    23914568.781          44.324  
      6416.9421   25691503.443          35.177  
   -200375.0531   24598552.768          32.444  
   -508949.0341   20644294.147          36.877  
    286192.3151   22650203.692          42.033  
    -14038.9791   20555135.872          41.591  
    472153.952    23295937.447          42.596  
 19  1 11  9  8  2.9998892  0  9G14G16G21G22G23G26G29G31G32
   1668480.7391   21640733.218          37.901  
    -50537.9051   21639600.908          32.286  
   -236327.545    23914216.827          44.258  
      8101.3851   25691835.311          35.065  
   -203499.5071   24597957.680          31.877  
   -509559.0821   20644184.124          37.577  
    288718.810    22650680.362          45.126  
    -13982.0251   20555141.857          41.445  
    475626.867    23296602.091          42.396  
 19  1 11  9  8  3.9998892  0  9G14G16G21G22G23G26G29G31G32
   1671063.3061   21641224.284          39.200  
    -52479.7931   21639219.568          32.032  
   -238153.589    23913877.159          43.117  
      9783.3691   25692147.688          34.817  
   -206624.6191   24597358.405          31.933  
   -510168.0421   20644066.597          36.132  
    291245.817    22651164.815          46.175  
    -13923.8281   20555151.455          41.446  
    479100.194    23297264.641          42.521  
 19  1 11  9  8  4.9998892  0  9G14G16G21G22G23G26G29G31G32
   1673645.5051   21641717.445          40.133  
    -54420.484    21638863.427          30.967  
   -239979.625    23913526.409          43.812  
     11467.0461   25692477.165          32.589  
   -209751.3581   24596780.105          31.829  
   -510776.9711   20643956.573          36.252  
    293772.019    22651640.298          45.516  
    -13862.7751   20555168.242          42.072  
    482573.651    23297922.671          42.397  
 19  1 11  9  8  5.9998892  0  9G14G16G21G22G23G26G29G31G32
   1676229.102    21642203.416          37.715  
    -56361.219    21638487.776          32.070  
   -241803.248    23913176.253          45.147  
     13149.2201   25692787.151          33.188  
   -212879.557    24596176.921          31.642  
   -511388.714    20643834.264          33.817  
    296298.671    22652128.049          43.440  
    -13805.109    20555177.543          40.913  
    486048.976    23298590.020          42.471  
