     2.10           OBSERVATION DATA    M (MIXED)           RINEX VERSION / TYPE
Convert                                 27-Jul-2009 17:54   PGM / RUN BY / DATE 
Signal Strength values S1,S2 are in dBHz                    COMMENT             
                                                            MARKER NAME         
                                                            MARKER NUMBER       
                                                            OBSERVER / AGENCY   
                    NovAtel GPSCard                         REC # / TYPE / VERS 
                                                            ANT # / TYPE        
 -3761094.5791  3636607.0704  3636306.5035                  APPROX POSITION XYZ 
        0.0000        0.0000        0.0000                  ANTENNA: DELTA H/E/N
     1     1                                                WAVELENGTH FACT L1/2
     1     1     7   G02   G03   G04   G06   G07   G08   G11WAVELENGTH FACT L1/2
     1     1     7   G13   G16   G17   G18   G19   G20   G21WAVELENGTH FACT L1/2
     1     1     7   G22   G23   G25   G28   G31   G32   R02WAVELENGTH FACT L1/2
     1     1     7   R03   R07   R08   R09   R11   R13   R15WAVELENGTH FACT L1/2
     1     1     6   R17   R18   R19   R22   R23   R24      WAVELENGTH FACT L1/2
                                                            COMMENT             
                                                            COMMENT             
     8    C1    L1    D1    S1    P2    L2    D2    S2      # / TYPES OF OBSERV 
    30.000                                                  INTERVAL            
  2009    07    27    08    12    30.0000000    GPS         TIME OF FIRST OBS   
  2009    07    27    14    12     0.0000000    GPS         TIME OF LAST OBS    
    15                                                      LEAP SECONDS        
                                                            END OF HEADER       
 09 07 27 08 12 30.0000000  0 16G13G25G07G16G11G06G31G21G03G23G19R24            
                                R13R22R11R23                                    
  23187679.33848 121852098.67148     -1128.22748        45.705    23187679.75543
  94949679.03543      -879.13743        34.987  
  21859286.19049 114871345.31449      1988.80149        48.851    21859286.28346
  89510160.77446      1549.71546        41.681  
  23253442.32948 122197672.72648      3149.11748        46.835    23253441.78746
  95218970.65046      2453.85946        41.889  
  21534117.10549 105141374.42449     -1318.27049        49.871    21534116.20347
  81905963.35447     -1027.22747        43.545  
  25432359.68043 133647968.37243      3809.03143        35.608    25432362.80941
 104141284.89441      2968.09041        26.757  
  20516078.98049  99791561.63149     -1032.05949        50.646    20516079.41748
  77737289.77648      -804.20748        46.536  
  24616436.84148 121339045.68448     -3584.13348        46.423    24616437.50745
  94527519.89545     -2792.83645        39.740  
  24716173.01446 121863213.81046     -2371.85946        41.326    24716174.62142
  94935971.54142     -1848.20742        33.798  
  19897587.16749  96541374.84849      -134.78149        51.165    19897587.10548
  75204679.85348      -105.02348        45.982  
  23443804.51948 115176839.91048     -2602.92648        46.746    23443803.51844
  89725796.04444     -2028.25844        38.284  
  20785063.80149 109226296.88449      1328.82849        49.938    20785061.54048
  85111411.13548      1035.44548        46.830  
  22217438.22507 118806668.14807      2996.80507        45.177    22217442.20005
  92405237.06205      2330.84805        38.947  
  19583218.39209 104573321.34309      1650.85209        49.318    19583223.70408
  81334866.58408      1283.99608        46.202  
  21496566.13808 114750122.87608     -3248.14108        47.531    21496572.66207
  89250123.02007     -2526.33607        45.059  
  24493846.32305 130887639.40005     -4214.13305        39.181    24493853.23801
 101801505.45801     -3277.66401        29.867  
  19432019.23008 103948230.73508       -94.96508        47.574    19432021.11906
  80848646.99006       -73.86306        41.833  
 09 07 27 08 13  0.0000000  0 16G13G25G07G16G11G06G31G21G03G23G19R24            
                                R13R22R11R23                                    
  23194167.71048 121886194.10048     -1144.95748        47.008    23194168.18644
  94976246.84444      -892.18044        37.073  
  21847970.84049 114811882.16749      1975.05949        49.022    21847970.80146
  89463825.85146      1539.00446        41.522  
  23235488.65948 122103325.77348      3140.51248        47.324    23235488.14146
  95145453.56946      2447.14846        41.466  
  21541660.78849 105181015.66549     -1324.78949        50.146    21541659.68147
  81936852.62247     -1032.30947        43.494  
  25410610.45346 133533676.24746      3810.58246        41.466    25410614.20642
 104052226.28342      2969.28942        34.288  
  20521998.91449  99822670.58549     -1042.13349        50.825    20521999.11748
  77761530.50948      -812.05548        46.222  
  24636906.56548 121446615.29748     -3587.47348        46.227    24636907.05445
  94611340.33345     -2795.43845        39.440  
  24729744.73146 121934532.17946     -2382.25046        41.619    24729745.91342
  94991544.27542     -1856.30142        34.336  
  19898394.08849  96545615.38949      -148.18049        51.203    19898394.08548
  75207984.16648      -115.46948        46.219  
  23458683.47848 115255028.02748     -2609.77048        47.594    23458682.21244
  89786721.80244     -2033.59044        38.035  
  20777516.55549 109186636.49649      1314.89549        49.836    20777514.38848
  85080506.96648      1024.59448        46.520  
  22200659.52708 118716943.95208      2984.45308        45.873    22200663.25205
  92335451.60905      2321.24205        39.932  
  19574003.51809 104524115.57609      1629.09009        49.215    19574009.00208
  81296595.43508      1267.07008        46.118  
  21514832.72709 114847631.40009     -3252.55909        47.821    21514839.15507
  89325962.94707     -2529.77307        44.736  
  24517515.82303 131014120.82603     -4218.11703        34.502    24517522.72101
 101899879.73601     -3280.76201        25.595  
  19432601.50008 103951346.31008      -113.05908        47.560    19432603.40406
  80851070.22806       -87.93806        41.576  
 09 07 27 08 13 30.0000000  0 15G13G25G07G16G11G06G31G21G03G23G19R24            
                                R13R22R23                                       
  23200751.09249 121920787.78949     -1161.26649        47.861    23200751.42544
  95003202.95244      -904.88344        37.101  
  21836733.79249 114752830.79549      1961.56249        48.959    21836733.36146
  89417811.78946      1528.48846        41.758  
  23217583.89848 122009234.75348      3132.22348        47.536    23217583.19146
  95072135.91446      2440.69146        41.444  
  21549241.38949 105220851.06049     -1330.95749        50.198    21549240.10946
  81967893.17846     -1037.11346        42.835  
  25388851.77545 133419333.93045      3811.14545        39.721    25388855.40141
 103963128.49441      2969.71941        30.665  
  20527976.31549  99854081.44949     -1051.89849        50.764    20527976.37248
  77786006.51048      -819.66448        46.564  
  24657395.58448 121554285.31248     -3590.33248        46.974    24657396.12845
  94695238.98845     -2797.66445        39.422  
  24743377.38545 122006169.11445     -2393.15645        40.661    24743377.76742
  95047365.28842     -1864.80142        33.662  
  19899277.62549  96550258.35849      -161.33249        51.129    19899277.56248
  75211602.06848      -125.71948        45.987  
  23473600.68348 115333417.30348     -2616.14148        47.351    23473599.53845
  89847804.29345     -2038.55545        39.554  
  20770048.52649 109147391.85249      1301.31249        49.861    20770046.41148
  85049926.73548      1014.00848        46.669  
  22183949.55807 118627587.76407      2972.68007        45.103    22183953.48005
  92265952.39005      2312.12505        40.598  
  19564911.64909 104475566.12809      1607.50809        49.497    19564917.21508
  81258834.74208      1250.28108        46.259  
  21533124.26908 114945273.07208     -3256.75808        47.100    21533130.23907
  89401906.45607     -2533.03907        44.524  
  19433284.62608 103955000.35508      -130.55508        47.262    19433286.61806
  80853912.27406      -101.54306        41.772  
 09 07 27 08 14  0.0000000  0 15G13G25G07G16G11G06G31G21G03G23G19R24            
                                R13R22R23                                       
  23207428.51648 121955876.58448     -1178.39148        46.868    23207429.03343
  95030544.83343      -918.23043        36.441  
  21825575.09549 114694191.89549      1946.96549        48.633    21825574.49346
  89372119.14246      1517.11746        41.326  
  23199728.14648 121915401.37048      3122.87148        47.592    23199727.13546
  94999019.01846      2433.40246        41.422  
  21556858.56149 105260879.70449     -1338.03949        49.790    21556857.21446
  81999084.32046     -1042.63346        42.839  
  25367083.51245 133304922.70655      3813.54345        38.986    25367087.60643
 103873979.98153      2971.60543        35.530  
  20534010.47749  99885791.29549     -1062.51649        50.623    20534010.59848
  77810715.47648      -827.93448        46.466  
  24677903.19948 121662052.59648     -3594.40248        46.791    24677903.61645
  94779213.44445     -2800.84045        40.487  
  24757070.17846 122078121.20246     -2404.25046        41.534    24757069.66143
  95103431.82943     -1873.44143        35.135  
  19900237.35949  96555301.18549      -175.31649        51.049    19900237.06648
  75215531.54848      -136.61348        45.880  
  23488555.22548 115412003.28148     -2623.39848        46.810    23488554.31645
  89909040.06545     -2044.21145        38.964  
  20762659.44049 109108561.41549      1286.73449        49.993    20762657.23048
  85019669.26948      1002.64848        46.788  
  22167307.87107 118538599.32907      2959.71507        44.766    22167312.15705
  92196739.22505      2302.00005        39.944  
  19555943.24409 104427674.84609      1584.77709        49.687    19555948.61608
  81221585.96008      1232.60508        46.067  
  21551439.98108 115043043.77508     -3261.66808        47.515    21551445.60707
  89477950.29707     -2536.85507        44.365  
  19434067.69408 103959189.39208      -149.16008        47.343    19434069.98706
  80857170.42506      -116.01206        41.919  
 09 07 27 08 14 30.0000000  0 15G13G25G07G16G11G06G31G21G03G23G19R24            
                                R13R22R23                                       
  23214199.92948 121991459.37248     -1194.64148        46.951    23214200.11744
  95058271.66344      -930.89544        38.169  
  21814495.46149 114635968.89849      1933.30549        48.815    21814494.98246
  89326750.55546      1506.46946        42.076  
  23181921.99648 121821829.57848      3114.32848        47.278    23181920.83646
  94926105.97446      2426.75046        41.518  
  21564512.60949 105301103.15649     -1344.28949        49.755    21564511.53846
  82030427.25746     -1047.50046        42.666  
  25345306.49444 133190484.08344      3815.28544        38.024    25345310.32243
 103784807.13243      2972.95343        34.860  
  20540101.43249  99917799.71749     -1072.13349        50.860    20540101.56248
  77835657.10448      -835.43448        46.595  
  24698428.96448 121769916.02948     -3597.33648        47.064    24698429.44045
  94863262.81845     -2803.12145        40.695  
  24770822.70746 122150387.62546     -2414.41446        42.299    24770821.37441
  95159743.27941     -1881.36741        29.284  
  19901273.26749  96560744.30349      -188.38749        51.316    19901272.85848
  75219772.94248      -146.79748        46.414  
  23503546.58648 115490783.77748     -2629.55148        46.397    23503545.18144
  89970427.40944     -2049.00444        37.438  
  20755349.40449 109070146.08649      1273.26649        50.269    20755347.00748
  84989735.25048       992.15248        46.996  
  22150735.24106 118449980.47606      2947.57406        42.955    22150739.91305
  92127813.50605      2292.63305        39.912  
  19547098.87109 104380445.59209      1562.99609        49.633    19547103.98508
  81184852.09308      1215.66008        46.017  
  21569779.52808 115140941.87308     -3265.74608        47.376    21569784.89407
  89554093.23507     -2540.02707        43.838  
  19434950.78409 103963912.89609      -166.67609        47.805    19434953.03506
  80860844.27606      -129.63706        41.882  
 09 07 27 08 15  0.0000000  0 15G13G25G07G16G11G06G31G21G03G23G19R24            
                                R13R22R23                                       
  23221064.39048 122027531.54048     -1210.75848        46.679    23221063.96144
  95086379.85744      -943.45344        37.683  
  21803494.86649 114578161.37749      1919.78149        48.843    21803494.70746
  89281705.74446      1495.93446        42.332  
  23164165.72748 121728519.82148      3105.83648        47.586    23164164.55546
  94853397.10646      2420.13346        41.362  
  21572203.44449 105341518.93349     -1350.56649        49.827    21572202.41146
  82061920.05446     -1052.39146        43.194  
  25323520.70045 133075998.73945      3816.57445        39.734    25323523.29941
 103695598.00141      2973.96141        26.584  
  20546248.36549  99950102.63049     -1081.74249        50.816    20546248.53448
  77860828.20748      -842.91848        46.569  
  24718972.13648 121877870.94448     -3600.22348        46.931    24718972.82746
  94947383.48046     -2805.37146        41.224  
  24784634.34847 122222964.20847     -2424.36747        43.401    24784632.03142
  95216296.44942     -1889.12142        33.352  
  19902384.51049  96566583.99049      -201.34849        51.231    19902384.27248
  75224323.35148      -156.89848        46.468  
  23518573.96148 115569752.92348     -2635.56648        45.875    23518572.35844
  90031961.77644     -2053.69144        37.276  
  20748117.87449 109032143.88349      1259.71549        49.989    20748115.46848
  84960123.16048       981.59848        46.823  
  22134231.92507 118361730.40807      2935.25007        45.493    22134236.99805
  92059174.61005      2282.97305        39.874  
  19538378.52809 104333879.43309      1541.03109        49.674    19538383.60008
  81148633.96908      1198.57408        45.904  
  21588141.69108 115238961.76808     -3269.45708        47.160    21588147.16407
  89630330.90707     -2542.91407        43.463  
  19435933.07208 103969166.49008      -184.09408        47.592    19435934.88606
  80864930.40906      -143.18406        41.736  
 09 07 27 08 15 30.0000000  0 15G13G25G07G16G11G06G31G21G03G23G19R24            
                                R13R22R23                                       
  23228022.02848 122064093.91448     -1226.71548        47.121    23228021.52344
  95114870.01244      -955.88744        37.817  
  21792574.58049 114520774.58249      1905.94949        49.241    21792574.52946
  89236988.74146      1485.15246        42.309  
  23146460.37248 121635477.63348      3097.12148        46.920    23146459.29546
  94780896.71446      2413.34046        41.415  
  21579931.55249 105382130.43049     -1356.68849        49.972    21579930.49446
  82093565.35946     -1057.16446        43.213  
  25301726.97146 132961471.94846      3818.66446        41.325    25301729.25442
 103606356.45242      2975.59042        32.334  
  20552451.60449  99982701.52649     -1091.19549        50.821    20552451.89948
  77886229.94848      -850.28148        46.493  
  24739533.14848 121985918.38148     -3602.96948        46.777    24739533.86244
  95031576.09644     -2807.50844        38.103  
  24798504.98846 122295852.08446     -2434.65246        43.212    24798502.07441
  95273092.15141     -1897.14141        31.277  
  19903571.49449  96572822.00749      -214.31249        51.414    19903571.50948
  75229184.14648      -167.00048        46.813  
  23533636.97148 115648910.74048     -2641.34848        46.547    23533635.80244
  90093643.13544     -2058.19544        38.257  
  20740965.25949 108994557.42349      1246.21949        50.054    20740963.20948
  84930835.03548       971.07848        47.113  
  22117798.88508 118273853.16408      2923.25008        45.743    22117803.60605
  91990825.66505      2273.63705        40.139  
  19529783.36809 104287982.45909      1518.98809        49.258    19529788.33608
  81112936.32608      1181.43008        45.598  
  21606527.00908 115337104.07008     -3273.24608        47.278    21606532.66707
  89706663.78807     -2545.86307        43.701  
  19437014.51808 103974951.20608      -201.46108        47.353    19437016.18706
  80869429.64206      -156.69106        41.554  
 09 07 27 08 16  0.0000000  0 15G13G25G07G16G11G06G31G21G03G23G19R24            
                                R13R22R23                                       
  23235072.12148 122101142.54648     -1242.91848        46.829    23235071.75043
  95143739.05043      -968.51243        35.911  
  21781734.67649 114463808.84249      1891.65649        49.632    21781734.32746
  89192599.85846      1474.02046        41.955  
  23128805.87748 121542703.91648      3087.80148        47.161    23128805.27045
  94708605.53745      2406.07845        41.076  
  21587696.78949 105422936.34049     -1363.56649        50.132    21587695.68146
  82125362.15446     -1062.52346        43.081  
  25279925.24645 132846903.80345      3819.46945        39.603    25279927.29541
 103517082.75741      2976.21941        27.831  
  20558710.66249 100015593.24149     -1101.27049        50.891    20558710.97348
  77911859.84648      -858.13748        46.210  
  24760111.00848 122094054.82848     -3606.21948        46.576    24760111.46645
  95115838.33645     -2810.03945        39.717  
  24812433.61147 122369046.92147     -2445.15247        43.483    24812430.25341
  95330127.06941     -1905.31241        31.050  
  19904833.91949  96579455.79049      -227.84449        51.361    19904833.93448
  75234353.34148      -177.53948        46.086  
  23548735.43648 115728252.10748     -2647.81648        47.103    23548734.09744
  90155467.52944     -2063.23844        37.518  
  20733891.57249 108957384.44049      1232.18049        50.287    20733889.42348
  84901869.09048       960.13748        46.672  
  22101435.11007 118186347.80607      2910.37907        44.861    22101439.59205
  91922765.98105      2263.62905        39.066  
  19521313.81809 104242755.69909      1496.22309        49.604    19521318.67108
  81077759.95208      1163.73008        45.781  
  21624934.59609 115435363.89409     -3277.44909        47.912    21624940.85207
  89783088.06107     -2549.13307        44.483  
  19438194.51108 103981263.66608      -219.44508        47.544    19438196.04606
  80874339.34106      -170.68006        41.851  
 09 07 27 08 16 30.0000000  0 15G13G25G07G16G11G06G31G21G03G23G19R24            
                                R13R22R23                                       
  23242214.69448 122138677.64348     -1259.39148        46.739    23242214.34944
  95172987.18144      -981.34444        36.708  
  21770975.60149 114407268.25049      1877.24649        49.512    21770975.02946
  89148542.24946      1462.78946        42.621  
  23111203.21048 121450203.48548      3078.52748        46.445    23111203.17646
  94636527.27846      2398.84846        41.992  
  21595499.39449 105463939.36449     -1370.43449        49.599    21595498.27346
  82157312.55246     -1067.87546        43.201  
  25258116.53745 132732298.76145      3820.55145        40.662    25258118.89241
 103427780.26541      2977.05941        32.179  
  20565025.52849 100048777.98649     -1111.17249        50.939    20565025.77948
  77937718.08248      -865.85248        46.442  
  24780705.38848 122202279.76548     -3609.23048        46.063    24780705.98545
  95200169.39945     -2812.39145        39.472  
  24826420.28246 122442549.00146     -2455.46946        42.513    24826417.16443
  95387401.32943     -1913.35943        35.215  
  19906171.78049  96586485.88949      -241.18049        51.429    19906171.64248
  75239831.34848      -187.93848        46.286  
  23563868.62148 115807775.82248     -2654.06648        47.346    23563866.73244
  90217433.99044     -2068.10944        38.689  
  20726897.00549 108920626.94149      1218.14149        50.065    20726894.56748
  84873226.89048       949.19548        46.720  
  22085141.41708 118099217.79308      2897.64808        45.598    22085145.01204
  91854998.20504      2253.72704        38.327  
  19512970.74109 104198204.28209      1473.45709        49.787    19512975.76308
  81043108.85108      1146.02308        45.933  
  21643364.00808 115533740.66508     -3281.44108        47.643    21643370.68807
  89859603.30107     -2552.23407        44.413  
  19439473.04109 103988103.72509      -237.03109        47.814    19439474.95106
  80879659.38806      -184.35906        41.901  
 09 07 27 08 17  0.0000000  0 15G13G25G07G16G11G06G31G21G03G23G19R24            
                                R13R22R23                                       
  23249449.06847 122176696.36047     -1275.06647        45.506    23249449.49444
  95202612.13444      -993.55944        37.236  
  21760297.39449 114351154.94349      1863.32449        49.119    21760296.93346
  89104817.59246      1451.93846        42.521  
  23093653.18248 121357979.41348      3069.60948        46.303    23093653.54246
  94564664.37346      2391.90246        42.479  
  21603339.32249 105505139.95849     -1376.53149        49.264    21603338.51146
  82189416.89846     -1072.62546        43.306  
  25236301.20645 132617659.16645      3821.87145        39.797    25236303.48141
 103338450.86341      2978.09041        28.198  
  20571395.88349 100082254.42949     -1120.61749        50.726    20571396.01448
  77963803.62248      -873.21148        46.563  
  24801316.24148 122310591.43848     -3611.86348        45.663    24801316.97344
  95284568.07544     -2814.44144        37.827  
  24840464.98946 122516356.50846     -2464.97346        42.659    24840462.90242
  95444913.56142     -1920.81642        33.008  
  19907584.72049  96593911.44749      -253.98049        51.236    19907584.49448
  75245617.49848      -197.90648        46.371  
  23579035.80749 115887478.53049     -2659.48449        47.899    23579033.72544
  90279539.94644     -2072.32844        38.716  
  20719981.13949 108884284.94949      1204.71549        49.635    20719978.73348
  84844908.46648       938.73848        47.119  
  22068918.05507 118012463.91507      2885.41007        44.606    22068921.16805
  91787522.98005      2244.20305        39.305  
  19504754.78109 104154331.46709      1451.08209        49.562    19504759.91408
  81008985.54408      1128.61708        45.861  
  21661814.53408 115632231.56508     -3284.65208        46.745    21661821.33307
  89936207.30107     -2554.73407        44.038  
  19440850.00908 103995469.35508      -254.09408        47.705    19440852.20306
  80885388.22606      -197.62906        42.033  
 09 07 27 08 17 30.0000000  0 16G13G25G07G16G11G06G31G21G03G23G19R24            
                                R13R07R22R23                                    
  23256774.81748 122215194.66448     -1291.47748        46.116    23256775.34643
  95232610.78743     -1006.34443        35.982  
  21749700.66149 114295468.84749      1848.72749        49.792    21749700.07046
  89061425.83746      1440.56646        42.555  
  23076155.97248 121266032.14648      3060.05548        46.104    23076156.42746
  94493017.18146      2384.45746        42.090  
  21611216.35149 105546535.85849     -1383.47749        49.562    21611215.80346
  82221673.41846     -1078.03946        43.231  
  25214479.17045 132502984.92745      3822.54745        40.166    25214481.18842
 103249094.41242      2978.60942        32.493  
  20577821.03249 100116018.76949     -1130.49649        50.919    20577820.99148
  77990113.50248      -880.90648        46.547  
  24821942.78948 122418985.27148     -3614.78548        45.601    24821943.61044
  95369030.71044     -2816.72344        38.432  
  24854567.19146 122590465.42146     -2475.54346        42.686    24854565.70341
  95502660.75041     -1928.99641        30.277  
  19909072.42849  96601728.84449      -267.43849        51.456    19909071.86548
  75251708.97548      -208.39548        46.353  
  23594235.94648 115967355.02848     -2665.75448        47.502    23594234.18645
  90341781.32645     -2077.21545        39.501  
  20713143.83449 108848355.73349      1190.52349        49.701    20713141.68848
  84816911.69548       927.68048        47.310  
  22052764.38907 117926085.06107      2872.87107        44.051    22052768.49105
  91720339.49905      2234.45705        40.539  
  19496665.97609 104111137.72709      1428.22309        49.823    19496671.30208
  80975390.40908      1110.83608        45.815  
  24625675.39446 131823170.22756      2410.53946        42.522  

  21680285.58708 115730831.69908     -3288.68808        47.352    21680292.10207
  90012896.25307     -2557.87107        44.033  
  19442324.22708 104003356.60908      -271.86708        47.278    19442326.83406
  80891522.76806      -211.45306        41.861  
 09 07 27 08 18  0.0000000  0 16G13G25G07G16G11G06G31G21G03G23G19R24            
                                R13R07R22R23                                    
  23264191.41648 122254169.23648     -1307.13748        46.966    23264191.47142
  95262980.56242     -1018.55142        33.971  
  21739185.77249 114240211.23749      1834.80549        50.153    21739184.69846
  89018367.95146      1429.71546        42.271  
  23058711.87948 121174363.76448      3051.06648        47.280    23058712.41545
  94421587.30345      2377.45345        41.088  
  21619130.80149 105588126.62949     -1389.56649        49.993    21619130.30446
  82254081.79646     -1082.78146        42.446  
  25192650.62845 132388277.26545      3823.87545        41.016    25192652.99441
 103159711.93041      2979.64141        31.794  
  20584300.69549 100150068.74549     -1139.74249        51.170    20584300.42048
  78016645.95448      -888.10948        46.283  
  24842584.55548 122527458.44748     -3617.05148        47.507    24842585.29745
  95453555.15645     -2818.48445        41.093  
  24868726.13346 122664872.88746     -2485.07846        42.689    24868725.43143
  95560640.52543     -1936.43043        35.074  
  19910634.47149  96609936.62749      -280.13349        51.609    19910633.69148
  75258104.65748      -218.28548        46.231  
  23609468.23949 116047401.46749     -2671.00449        48.151    23609466.36345
  90404155.13345     -2081.30545        39.299  
  20706385.03649 108812838.48449      1176.98049        49.801    20706382.93948
  84789235.93548       917.12948        46.962  
  22036680.85607 117840081.58607      2860.56207        45.141    22036685.62505
  91653447.98205      2224.88305        40.341  
  19488704.78109 104068625.28209      1405.70309        49.660    19488710.34608
  80942325.18008      1093.31608        45.963  
  24612193.07104 131750994.20604      2400.58604        37.237    24612193.09501
 102473095.09911      1867.11701        31.545  
  21698776.74108 115829537.50808     -3292.01608        47.592    21698782.73907
  90089667.41907     -2560.46107        44.149  
  19443895.51908 104011763.00908      -288.93808        47.502    19443898.18306
  80898061.08606      -224.73406        42.002  
 09 07 27 08 18 30.0000000  0 16G13G25G07G16G11G06G31G21G03G23G19R24            
                                R13R07R22R23                                    
  23271698.20248 122293617.71148     -1322.88348        46.615    23271697.94643
  95293719.59043     -1030.81643        34.950  
  21728752.81249 114185384.11649      1820.07049        50.198    21728751.44946
  88975645.51846      1418.23446        42.458  
  23041321.54048 121082976.65948      3041.30148        47.063    23041321.98745
  94350376.60345      2369.84045        41.095  
  21627082.70849 105629912.71949     -1396.36349        50.068    21627081.86446
  82286642.37646     -1088.07846        43.089  
  25170816.23845 132273538.36245      3824.71545        40.946    25170819.68943
 103070305.16843      2980.15643        34.941  
  20590834.33249 100184402.66549     -1149.47749        51.146    20590833.96548
  78043399.65348      -895.69948        46.408  
  24863241.11148 122636009.21948     -3620.01248        46.421    24863241.79445
  95538140.20045     -2820.78945        39.809  
  24882941.71746 122739576.71446     -2495.31246        42.825    24882941.13243
  95618851.14543     -1944.41043        34.750  
  19912270.31049  96618533.03449      -293.31649        51.325    19912269.58148
  75264803.15748      -228.56248        46.421  
  23624732.39249 116127614.11849     -2676.71949        48.387    23624730.29845
  90466658.48545     -2085.75445        38.907  
  20699704.69849 108777732.78549      1163.01649        50.020    20699702.65348
  84761880.85848       906.24648        46.739  
  22020668.30707 117754454.32907      2847.69907        45.036    22020673.10005
  91586849.04605      2214.87905        40.094  
  19480871.75909 104026796.91509      1382.66809        49.642    19480877.42908
  80909792.01108      1075.41008        45.850  
  24598768.97804 131679134.19104      2389.83604        37.409    24598769.27202
 102417204.09502      1858.77302        32.295  
  21717287.16808 115928346.19208     -3295.57008        47.098    21717292.77907
  90166518.59607     -2563.22707        43.818  
  19445563.53909 104020685.96609      -306.25809        47.839    19445566.22606
  80905001.16106      -238.20306        41.864  
 09 07 27 08 19  0.0000000  0 16G13G25G07G16G11G06G31G21G03G23G19R24            
                                R13R07R22R23                                    
  23279296.01148 122333543.94548     -1339.07048        46.698    23279295.61542
  95324830.92042     -1043.43442        34.050  
  21718402.84649 114130995.28349      1805.57449        49.838    21718401.76646
  88933264.62646      1406.93846        42.411  
  23023986.31048 120991879.59048      3031.61348        46.397    23023986.78846
  94279391.89346      2362.29346        41.553  
  21635072.86049 105671900.26349     -1403.13749        49.946    21635071.59046
  82319359.93346     -1093.35546        42.357  
  25148977.35444 132158776.14744      3825.54344        38.506    25148981.08644
 102980880.23244      2980.94944        36.887  
  20597422.68249 100219024.71649     -1158.90249        51.218    20597422.24248
  78070377.87148      -903.03948        46.465  
  24883912.87848 122744640.74448     -3622.39148        46.246    24883913.50745
  95622788.10045     -2822.64845        39.402  
  24897214.46446 122814581.32946     -2505.49246        42.108    24897213.84041
  95677296.29541     -1952.32841        30.819  
  19913981.00749  96627522.76249      -306.19149        51.630    19913980.37348
  75271808.14248      -238.59048        46.235  
  23640028.33248 116207995.49848     -2682.23048        47.379    23640026.59644
  90529293.27044     -2090.05544        38.345  
  20693103.69249 108743044.20549      1149.27749        50.000    20693101.49848
  84734850.80948       895.53948        46.596  
  22004727.16707 117669210.04207      2835.21907        45.178    22004732.15005
  91520547.97605      2205.17205        39.449  
  19473168.50309 103985661.49409      1359.61709        49.708    19473174.07608
  80877797.79808      1057.47708        45.833  
  24585404.99503 131607598.11003      2378.82003        35.313    24585406.18201
 102361564.62901      1850.19101        31.106  
  21735817.37108 116027260.84108     -3298.95708        47.166    21735822.78707
  90243452.17707     -2565.85907        43.350  
  19447329.03208 104030129.37908      -323.34408        47.526    19447331.49606
  80912346.04606      -251.49206        41.819  
 09 07 27 08 19 30.0000000  0 16G13G25G07G16G11G06G31G21G03G23G19R24            
                                R13R07R22R23                                    
  23286982.33947 122373936.97047     -1354.33647        44.596    23286981.97743
  95356305.99543     -1055.33243        35.530  
  21708134.85549 114077038.41249      1791.22749        49.776    21708134.14746
  88891220.31846      1395.76246        42.853  
  23006705.10847 120901066.89447      3022.07447        45.388    23006705.64346
  94208628.76146      2354.85946        41.627  
  21643099.83949 105714081.32449     -1409.33649        49.870    21643098.36046
  82352228.28046     -1098.18846        42.893  
  25127132.89444 132043984.53044      3826.62144        38.797    25127136.53342
 102891432.33942      2981.78142        32.256  
  20604063.98449 100253924.96849     -1168.13349        51.069    20604063.48848
  78097572.87248      -910.23848        46.637  
  24904598.05047 122853342.78147     -3624.70347        45.024    24904598.64345
  95707490.89745     -2824.44945        39.211  
  24911542.43547 122889876.00247     -2514.81647        43.587    24911541.89642
  95735967.79542     -1959.59842        32.941  
  19915764.86449  96636896.58249      -319.04749        51.525    19915764.14048
  75279112.42448      -248.61348        46.325  
  23655354.17748 116288534.43348     -2687.35948        47.407    23655352.91444
  90592050.81244     -2094.05144        37.609  
  20686580.43349 108708764.20149      1135.74649        49.854    20686578.00248
  84708139.12648       884.99648        46.947  
  21988856.23707 117584341.30007      2822.56207        44.917    21988860.76005
  91454538.97105      2195.32805        39.518  
  19465594.05709 103945213.47909      1336.64109        49.963    19465599.32008
  80846338.22108      1039.60508        45.890  
  24572101.72706 131536383.72406      2368.17606        41.561    24572102.70503
 102306175.94103      1841.91003        34.621  
  21754365.09508 116126270.23608     -3302.01608        47.272    21754370.52106
  90320459.46506     -2568.23806        43.222  
  19449189.65908 104040083.06408      -340.44908        47.652    19449192.24206
  80920087.81106      -264.79306        42.095  
 09 07 27 08 20  0.0000000  0 16G13G25G07G16G11G06G31G21G03G23G19R24            
                                R13R07R22R23                                    
  23294757.79047 122414798.44247     -1369.98447        44.987    23294757.70043
  95388146.07743     -1067.52743        35.040  
  21697950.27249 114023519.52449      1776.53549        49.819    21697949.65446
  88849517.29046      1384.31246        42.660  
  22989479.47548 120810545.53548      3012.44548        46.631    22989480.00845
  94138092.64545      2347.35545        40.963  
  21651164.12549 105756460.22449     -1416.04349        49.377    21651162.90446
  82385250.77446     -1103.41446        43.175  
  25105283.95844 131929169.69144      3827.78144        38.310    25105287.90442
 102801966.34042      2982.68442        32.810  
  20610758.66349 100289105.95349     -1177.45749        51.080    20610758.26948
  78124986.62448      -917.50448        46.289  
  24925297.12447 122962116.94247     -3627.08647        44.823    24925297.94344
  95792249.85644     -2826.29744        38.554  
  24925925.96346 122965462.07546     -2524.26646        41.335    24925925.36842
  95794865.98642     -1966.89842        34.154  
  19917622.07049  96646657.05749      -331.86349        51.307    19917621.56748
  75286717.98848      -258.59448        46.202  
  23670710.45848 116369231.03148     -2692.60248        46.719    23670708.91544
  90654931.21844     -2098.13744        37.101  
  20680135.56549 108674896.41249      1121.93449        49.923    20680133.31448
  84681748.65848       874.23448        46.826  
  21973055.79707 117499852.93907      2809.96907        43.672    21973060.41505
  91388825.89505      2185.53505        38.997  
  19458149.38809 103905459.31009      1313.53109        49.846    19458154.61508
  80815418.30908      1021.63308        45.673  
  24558859.82504 131465497.84504      2357.35504        38.386    24558860.85403
 102251042.48203      1833.50803        34.980  
  21772930.78708 116225375.84008     -3305.11708        47.254    21772936.14906
  90397541.54906     -2570.65206        43.010  
  19451145.99609 104050548.81809      -357.50009        47.991    19451148.73106
  80928227.85506      -278.05506        41.984  
 09 07 27 08 20 30.0000000  0 16G13G25G07G16G11G06G31G21G03G23G19R24            
                                R13R07R22R23                                    
  23302621.85047 122456124.58447     -1385.10247        45.209    23302622.09943
  95420348.22543     -1079.30943        36.175  
  21687849.18849 113970438.96949      1762.09049        49.932    21687848.75446
  88808155.81146      1373.05546        42.914  
  22972309.74948 120720316.72248      3002.71548        46.062    22972309.81646
  94067784.49746      2339.77746        41.799  
  21659265.70349 105799035.66849     -1422.33249        49.475    21659264.95546
  82418426.42346     -1108.31646        42.391  
  25083430.59443 131814332.25143      3828.30143        36.500    25083434.33241
 102712482.80541      2983.09841        29.427  
  20617506.18349 100324564.42649     -1186.47349        51.164    20617505.79448
  78152616.60748      -924.52348        46.665  
  24946009.45847 123070959.88347     -3629.10947        43.991    24946010.36244
  95877062.56444     -2827.88344        36.901  
  24940364.36846 123041336.38746     -2533.98046        42.542    24940363.76942
  95853988.76142     -1974.53542        32.723  
  19919552.24049  96656801.05749      -344.42649        51.522    19919551.94448
  75294622.40248      -268.38748        46.638  
  23686095.47748 116450080.54748     -2697.34448        46.099    23686093.58343
  90717930.75643     -2101.83643        35.017  
  20673768.74649 108641438.60249      1108.55949        50.137    20673766.59948
  84655677.65448       863.80948        46.951  
  21957327.15807 117415744.50907      2797.33607        45.375    21957331.65605
  91323408.23805      2175.79305        39.334  
  19450834.70109 103866400.40309      1290.50809        49.566    19450839.96707
  80785039.15807      1003.72707        45.494  
  24545679.55704 131394943.13704      2346.63704        38.778    24545680.82601
 102196166.64901      1825.16801        31.921  
  21791513.88409 116324573.35009     -3308.05509        47.843    21791519.13006
  90474695.14206     -2572.93406        42.780  
  19453197.63609 104061522.81909      -374.20309        48.122    19453200.29706
  80936763.20406      -291.04706        41.741  
 09 07 27 08 21  0.0000000  0 16G13G25G07G16G11G06G31G21G03G23G19R24            
                                R13R07R22R23                                    
  23310574.83248 122497915.59948     -1400.30948        46.208    23310574.75643
  95452912.64443     -1091.14843        35.053  
  21677832.67849 113917801.54249      1747.23049        50.031    21677832.49246
  88767139.63146      1361.47346        42.650  
  22955196.68048 120630385.63848      2992.85248        46.602    22955196.29645
  93997708.34445      2332.09445        40.631  
  21667405.63249 105841810.89049     -1429.16049        49.517    21667404.74546
  82451757.76246     -1113.63746        41.977  
  25061574.00344 131699477.24544      3828.71144        37.419    25061578.15942
 102622985.50042      2983.41042        33.947  
  20624306.86549 100360301.65849     -1195.77349        51.326    20624306.40948
  78180463.79848      -931.77348        46.278  
  24966734.84347 123179872.17347     -3631.50047        44.444    24966735.87743
  95961929.26143     -2829.74243        36.652  
  24954857.66246 123117499.64446     -2543.73046        41.908    24954856.95143
  95913336.73343     -1982.13343        35.935  
  19921555.90749  96667330.73349      -357.30549        51.404    19921555.58148
  75302827.35548      -278.41848        46.186  
  23701509.73648 116531082.87348     -2702.59448        46.693    23701507.74842
  90781049.41842     -2105.92242        33.493  
  20667480.59749 108608393.44249      1094.67249        50.179    20667478.16148
  84629928.19848       852.99248        47.012  
  21941670.70507 117332019.32307      2784.63707        44.602    21941674.99405
  91258288.70305      2165.82805        40.204  
  19443651.35409 103828042.35309      1266.98009        49.422    19443656.18307
  80755205.11407       985.42607        45.466  
  24532562.27405 131324724.85105      2334.70705        39.933    24532562.91903
 102141552.46003      1815.87903        34.564  
  21810114.31908 116423862.67208     -3311.10208        47.219    21810119.54406
  90551920.16606     -2575.30506        42.580  
  19455344.28809 104073006.10609      -391.03109        47.782    19455346.72706
  80945694.65806      -304.13706        41.837  
 09 07 27 08 21 30.0000000  0 16G13G25G07G16G11G06G31G21G03G23G19R24            
                                R13R07R22R23                                    
  23318615.25048 122540165.88048     -1415.92648        45.889    23318614.33343
  95485834.92843     -1103.32443        34.931  
  21667900.33549 113865606.17149      1732.63349        50.160    21667900.28146
  88726467.91446      1350.10246        43.234  
  22938140.09348 120540751.94748      2983.27048        45.728    22938139.42245
  93927863.92445      2324.62545        40.735  
  21675583.15249 105884782.89449     -1435.43449        49.958    21675581.98446
  82485242.42546     -1118.52346        42.407  
  25039714.28045 131584603.61245      3829.32045        38.969    25039718.06141
 102533473.69341      2983.95341        28.722  
  20631159.68749 100396312.91149     -1204.73849        51.394    20631159.23748
  78208524.51348      -938.76248        46.083  
  24987472.33647 123288848.20947     -3633.35247        44.222    24987473.62944
  96046845.51644     -2831.18844        36.698  
  24969404.86646 123193946.68746     -2552.60946        41.605    24969404.72742
  95972905.83342     -1989.05142        33.903  
  19923632.07949  96678241.60749      -369.80149        51.348    19923631.67948
  75311329.33548      -288.16048        46.031  
  23716951.62948 116612231.47548     -2707.12948        45.923    23716949.67743
  90844282.06643     -2109.45343        35.061  
  20661270.28849 108575757.64849      1081.29749        50.334    20661267.77648
  84604497.71748       842.56648        47.181  
  21926085.09408 117248675.66908      2772.02308        45.784    21926089.60105
  91193465.89205      2156.02005        40.009  
  19436599.22209 103790384.51409      1243.69109        49.659    19436603.93008
  80725915.69308       967.31608        45.569  
  24519508.29303 131254845.26803      2323.40203        35.814    24519508.99201
 102087201.68701      1807.09801        31.131  
  21828730.53208 116523238.11408     -3313.66408        46.651    21828736.07806
  90629212.14506     -2577.29706        42.588  
  19457585.03008 104084993.02208      -407.68008        47.557    19457587.49806
  80955017.81706      -317.09006        41.746  
 09 07 27 08 22  0.0000000  0 16G13G25G07G16G11G06G31G21G03G23G19R24            
                                R13R07R22R23                                    
  23326742.41847 122582874.42047     -1431.02347        45.404    23326741.54143
  95519114.29143     -1115.08643        35.904  
  21658052.55049 113813855.87549      1717.71949        49.917    21658052.47247
  88686143.01747      1338.48047        43.425  
  22921140.85248 120451419.61648      2972.73448        47.003    22921139.96945
  93858254.33245      2316.41845        40.200  
  21683798.55649 105927953.27749     -1442.15649        50.013    21683797.29746
  82518881.67946     -1123.76246        41.992  
  25017851.98145 131469714.77545      3830.03145        40.586    25017855.02042
 102443950.06242      2984.44142        33.796  
  20638064.53249 100432597.63749     -1214.00449        51.367    20638064.15748
  78236798.32048      -945.98048        46.454  
  25008222.00848 123397887.55248     -3635.60248        45.756    25008223.20644
  96131811.20144     -2832.94144        36.765  
  24984005.96746 123270676.34446     -2562.58246        42.613    24984005.92343
  96032695.15943     -1996.77743        34.899  
  19925780.84349  96689533.51849      -382.57049        51.532    19925780.28248
  75320128.21748      -298.10948        46.137  
  23732420.53248 116693524.07048     -2712.07848        45.916    23732419.31143
  90907626.88043     -2113.31243        35.245  
  20655138.08849 108543531.92549      1067.44949        50.433    20655135.36848
  84579386.78548       831.77748        46.974  
  21910571.23507 117165715.31807      2759.19507        45.344    21910575.48005
  91128941.20105      2146.03905        39.970  
  19429679.05909 103753430.90109      1220.10909        49.870    19429684.09608
  80697173.99308       948.97308        45.890  
  24506518.30106 131185309.57406      2312.28506        41.260    24506519.30304
 102033118.33804      1798.44504        37.539  
  21847362.63808 116622698.51708     -3316.67608        46.297    21847368.55206
  90706570.19306     -2579.64106        43.309  
  19459919.73309 104097482.95409      -424.64809        48.095    19459922.39006
  80964732.22506      -330.28506        41.688  
 09 07 27 08 22 30.0000000  0 16G13G25G07G16G11G06G31G21G03G23G19R24            
                                R13R07R22R23                                    
  23334956.43848 122626039.78748     -1446.39148        46.153    23334956.03143
  95552749.62843     -1127.05943        35.619  
  21648289.89049 113762553.89049      1702.64549        49.654    21648290.03147
  88646167.46147      1326.73047        43.704  
  22904199.89448 120362392.83248      2962.37548        47.195    22904198.81345
  93788882.83045      2308.34445        41.105  
  21692051.87749 105971323.75249     -1448.93849        49.818    21692050.19946
  82552676.83346     -1129.04746        42.109  
  24995987.53345 131354814.15045      3830.29345        41.037    24995989.55442
 102354417.19542      2984.64842        33.269  
  20645021.36949 100469155.86749     -1223.06249        51.293    20645020.99948
  78265285.25148      -953.03948        46.545  
  25028983.56147 123506989.14647     -3637.56247        45.313    25028984.56844
  96216825.48444     -2834.47344        38.062  
  24998660.76446 123347688.40746     -2571.75846        42.305    24998660.44643
  96092704.55643     -2003.96943        35.822  
  19928002.17349  96701206.09049      -395.43449        51.407    19928001.41148
  75329223.73848      -308.12948        46.410  
  23747917.36848 116774958.94048     -2716.74648        46.675    23747916.07544
  90971082.55844     -2116.94944        37.166  
  20649083.99449 108511717.14549      1053.70349        50.219    20649081.11348
  84554596.05548       821.06648        46.901  
  21895129.42907 117083140.48207      2746.14107        45.554    21895133.79705
  91064716.37505      2135.88705        40.162  
  19422891.65209 103717185.66809      1196.39809        49.788    19422896.63607
  80668983.25207       930.52707        45.552  
  24493593.31905 131116121.15405      2300.85905        40.769    24493593.70702
 101979305.07102      1789.55902        33.838  
  21866010.64908 116722242.36108     -3319.37908        47.001    21866016.49506
  90783993.15806     -2581.74206        42.758  
  19462348.45209 104110475.07209      -441.23409        48.080    19462351.14806
  80974837.21906      -343.18806        41.679  
 09 07 27 08 23  0.0000000  0 16G13G25G07G16G11G06G31G21G03G23G19R24            
                                R13R07R22R23                                    
  23343256.59948 122669657.14648     -1461.59848        46.570    23343256.46144
  95586737.15744     -1138.90644        37.262  
  21638612.67149 113711699.74149      1687.47349        49.929    21638612.81347
  88606540.85847      1314.91447        43.713  
  22887317.08748 120273671.75248      2952.03948        47.151    22887315.82446
  93719749.53746      2300.28946        41.224  
  21700342.60349 106014892.15049     -1455.86749        49.383    21700340.85546
  82586626.22346     -1134.44146        42.299  
  24974120.89545 131239901.35045      3830.14845        40.196    24974122.68241
 102264874.85841      2984.53141        29.942  
  20652029.31349 100505983.22249     -1232.20349        51.138    20652028.94948
  78293981.88648      -960.16448        46.539  
  25049755.86648 123616148.21848     -3639.83248        45.608    25049756.89944
  96301884.47444     -2836.23044        38.207  
  25013368.49146 123424978.15546     -2581.25046        41.946    25013368.32842
  96152930.27442     -2011.35242        34.411  
  19930295.11749  96713256.13249      -408.10249        51.292    19930294.42848
  75338613.37848      -318.00448        46.344  
  23763440.00247 116856530.25747     -2721.32047        45.183    23763438.50344
  91034644.54844     -2120.51244        37.594  
  20643107.43149 108480310.43849      1039.93849        50.172    20643104.46948
  84530123.31748       810.34048        46.833  
  21879759.24407 117000949.27607      2732.92607        45.408    21879763.51905
  91000789.91505      2125.60905        39.081  
  19416236.83909 103681648.82909      1172.47309        49.703    19416241.68908
  80641343.49208       911.91808        45.745  
  24480733.76904 131047283.98404      2288.23004        36.858    24480734.40601
 101925765.17001      1779.73801        29.658  
  21884673.43808 116821864.48108     -3322.31208        46.496    21884678.74006
  90861477.00206     -2584.02306        42.796  
  19464870.19609 104123964.40209      -458.18409        47.993    19464872.70706
  80985328.92206      -356.36706        41.647  
 09 07 27 08 23 30.0000000  0 16G13G25G07G16G11G06G31G21G03G23G19R24            
                                R13R07R22R23                                    
  23351643.05548 122713726.51148     -1476.67248        46.969    23351642.89943
  95621076.88643     -1150.65243        36.117  
  21629021.63449 113661297.82849      1672.28949        50.073    21629021.53447
  88567266.64247      1303.07847        43.578  
  22870493.24248 120185261.42648      2941.61348        47.296    22870491.91045
  93650858.40345      2292.16845        40.430  
  21708671.28949 106058661.07049     -1462.53149        49.429    21708669.65046
  82620731.84746     -1139.63746        42.036  
  24952252.68946 131124981.14746      3830.45746        42.901    24952253.78041
 102175326.74141      2984.77041        31.491  
  20659088.72549 100543080.73649     -1241.28549        51.300    20659088.24348
  78322889.04448      -967.23848        46.380  
  25070538.98547 123725365.11347     -3641.62147        45.048    25070540.21143
  96386988.45943     -2837.62543        36.099  
  25028129.27346 123502545.77546     -2590.35546        42.768    25028128.90641
  96213372.51841     -2018.46541        31.416  
  19932660.07849  96725684.77049      -420.76249        51.233    19932659.68248
  75348298.03948      -327.86748        46.437  
  23778988.24548 116938237.18348     -2725.98048        46.451    23778987.03444
  91098312.21844     -2124.14544        36.712  
  20637209.01849 108449313.84249      1026.19149        50.473    20637205.95648
  84505970.13748       799.62948        46.785  
  21864461.17307 116919145.12607      2720.27307        44.784    21864465.22605
  90937164.49905      2115.77005        39.221  
  19409715.57509 103646825.15509      1148.64509        49.736    19409720.40407
  80614258.41307       893.39107        45.511  
  24467940.53905 130978802.53205      2276.73805        39.901    24467941.74602
 101872501.78402      1770.79302        32.979  
  21903350.80108 116921564.72708     -3324.82408        46.769    21903356.01006
  90939021.61206     -2585.97706        42.950  
  19467484.87309 104137951.50909      -474.65209        48.162    19467487.22606
  80996207.78406      -369.17606        41.491  
 09 07 27 08 24  0.0000000  0 16G13G25G07G16G11G06G31G21G03G23G19R24            
                                R13R07R22R23                                    
  23360114.81848 122758244.73148     -1491.32848        46.568    23360114.52443
  95655766.36143     -1162.07843        35.929  
  21619516.82849 113611349.29649      1657.64849        49.989    21619516.60147
  88528345.71047      1291.67647        43.937  
  22853728.87748 120097164.33848      2931.54348        46.963    22853727.44145
  93582211.32745      2284.32045        40.445  
  21717038.28549 106102630.40249     -1468.69949        49.334    21717036.76046
  82654993.65646     -1144.44546        41.993  
  24930383.26846 131010055.28246      3831.20346        41.478    24930384.10843
 102085774.25143      2985.35543        35.885  
  20666199.19949 100580446.25349     -1249.67649        51.221    20666198.58248
  78352005.03348      -973.77748        46.327  
  25091332.70748 123834637.33048     -3643.00448        45.679    25091333.90244
  96472135.60844     -2838.70344        37.258  
  25042942.47446 123580388.61446     -2598.78946        42.042    25042941.36841
  96274029.28541     -2024.93841        28.535  
  19935096.64449  96738489.73749      -432.86749        51.249    19935096.66748
  75358275.94448      -337.30148        45.837  
  23794562.10048 117020076.01448     -2729.79748        46.769    23794560.81543
  91162082.68743     -2127.11743        36.191  
  20631388.42749 108418726.32749      1012.94549        50.239    20631385.54248
  84482135.71648       789.30948        47.014  
  21849235.91108 116837728.08708      2707.58608        45.711    21849239.99005
  90873840.17405      2105.89805        39.902  
  19403328.43709 103612716.98909      1125.28909        49.994    19403332.92508
  80587729.83608       875.22308        45.680  
  24455214.97305 130910680.68805      2265.19505        39.423    24455215.99002
 101819518.12602      1761.81602        33.315  
  21922041.88208 117021339.83508     -3326.84408        46.840    21922047.61607
  91016624.45907     -2587.55107        43.479  
  19470192.11609 104152433.51909      -490.76609        47.885    19470194.27306
  81007471.57506      -381.70706        41.477  
 09 07 27 08 24 30.0000000  0 16G13G25G07G16G11G06G31G21G03G23G19R24            
                                R13R07R22R23                                    
  23368670.91448 122803207.16048     -1506.20748        46.526    23368670.55243
  95690801.98943     -1173.67243        36.297  
  21610098.17149 113561854.13949      1642.05949        49.849    21610097.87347
  88489778.05047      1279.52347        43.399  
  22837024.12548 120009381.11548      2920.70348        46.561    22837022.61045
  93513808.82445      2275.87145        40.878  
  21725443.06649 106146798.65249     -1475.61349        49.500    21725441.65845
  82689410.45845     -1149.82845        41.007  
  24908512.60446 130895123.89946      3831.28146        43.140    24908513.52842
 101996217.42342      2985.41442        32.507  
  20673359.93049 100618076.12449     -1258.78949        51.247    20673359.39448
  78381327.00448      -980.87948        45.711  
  25112136.30747 123943959.98447     -3644.98847        44.772    25112137.24443
  96557321.85343     -2840.26243        35.468  
  25057807.34046 123658502.78246     -2608.32846        43.178    25057805.79742
  96334897.46342     -2032.46542        32.887  
  19937604.46049  96751668.26549      -445.65249        51.438    19937604.61848
  75368544.92548      -347.26248        46.091  
  23810159.53348 117102041.50648     -2734.37148        45.941    23810158.20744
  91225951.83044     -2130.68844        36.856  
  20625644.95149 108388545.55149       999.18449        50.202    20625642.39348
  84458618.25348       778.58648        46.606  
  21834083.19007 116756697.13307      2694.58207        45.461    21834086.94705
  90810816.13905      2095.78505        38.999  
  19397075.33009 103579324.74609      1101.00409        49.823    19397079.53907
  80561758.07907       856.33207        45.357  
  24442556.58304 130842920.19204      2252.77304        38.325    24442557.63101
 101766815.54501      1752.15601        31.671  
  21940746.24108 117121185.34808     -3329.40208        46.899    21940752.28706
  91094282.06006     -2589.53906        43.325  
  19472991.18009 104167406.14909      -507.34809        47.844    19472993.07205
  81019116.94705      -394.60905        40.969  
 09 07 27 08 25  0.0000000  0 16G13G25G07G16G11G06G31G21G03G23G19R24            
                                R13R07R22R23                                    
  23377311.97948 122848615.91348     -1521.69948        46.778    23377311.65543
  95726185.40843     -1185.74243        34.999  
  21600766.91849 113512818.74249      1626.15649        50.051    21600766.58246
  88451568.65946      1267.13346        43.319  
  22820380.28248 119921918.89548      2909.34048        46.516    22820378.87646
  93445656.46146      2267.02046        41.243  
  21733886.74049 106191170.17149     -1483.25849        49.617    21733885.17045
  82723985.65945     -1155.78545        41.094  
  24886642.03546 130780193.72046      3829.96946        41.307    24886643.55343
 101906661.58043      2984.39543        34.879  
  20680571.46349 100655973.18849     -1268.44549        51.350    20680571.05648
  78410857.18548      -988.39848        46.019  
  25132950.12947 124053336.46547     -3647.51647        44.341    25132950.88442
  96642550.18342     -2842.22742        33.238  
  25072724.29746 123736890.97446     -2617.96146        41.959    25072723.25942
  96395979.09542     -2039.97342        33.383  
  19940184.05449  96765223.29749      -458.72749        51.604    19940183.88948
  75379107.28648      -357.44948        46.088  
  23825781.15048 117184134.65748     -2739.35948        46.234    23825780.23143
  91289920.47343     -2134.56643        34.894  
  20619979.87649 108358775.40349       984.69549        50.530    20619977.37548
  84435420.74748       767.29748        46.625  
  21819003.19508 116676057.49608      2680.76208        45.883    21819006.65804
  90748096.45004      2085.03104        38.869  
  19390957.41509 103546655.44609      1076.27009        49.822    19390961.63808
  80536348.61608       837.09408        45.773  
  24429967.85104 130775530.38704      2239.02704        38.884    24429968.45501
 101714401.27401      1741.46501        31.609  
  21959464.39808 117221103.24008     -3332.49208        47.048    21959470.37506
  91171995.96606     -2591.94106        43.234  
  19475882.36009 104182871.98309      -524.29309        48.313    19475884.47006
  81031145.93906      -407.78906        41.891  
 09 07 27 08 25 30.0000000  0 16G13G25G07G16G11G06G31G21G03G23G19R24            
                                R13R07R22R23                                    
  23386036.26548 122894462.65048     -1535.80948        45.646    23386036.43243
  95761910.11743     -1196.73443        36.586  
  21591522.40149 113464239.27549      1611.32049        49.452    21591521.93747
  88413714.53847      1255.57447        43.712  
  22803797.07648 119834774.68448      2899.20748        46.418    22803795.97046
  93377751.89146      2259.12146        41.357  
  21742368.14949 106235740.03449     -1489.19949        49.237    21742366.65846
  82758715.42146     -1160.41846        42.120  
  24864771.23945 130665261.47845      3830.67645        41.024    24864772.57042
 101817104.12042      2984.94142        33.573  
  20687832.48549 100694130.37749     -1276.48849        51.024    20687832.23848
  78440590.05648      -994.67248        46.278  
  25153772.60747 124162758.32647     -3648.52347        43.568    25153773.44943
  96727813.77643     -2843.01643        35.924  
  25087691.52246 123815544.74346     -2626.50046        41.483    25087690.73041
  96457267.67841     -2046.52341        25.676  
  19942833.90649  96779147.62349      -470.62149        51.330    19942833.37348
  75389957.42248      -366.72348        46.256  
  23841425.63548 117266346.60248     -2742.66848        45.871    23841424.92744
  91353981.64944     -2137.14844        38.052  
  20614391.99449 108329410.08349       971.75049        50.226    20614389.31548
  84412538.68748       757.20348        46.673  
  21803995.33008 116595804.01808      2668.16808        45.639    21803998.64005
  90685677.15205      2075.24205        39.632  
  19384974.10109 103514705.65409      1052.54309        49.486    19384978.73108
  80511498.77808       818.64108        46.169  
  24417447.97707 130708508.87407      2227.74607        43.609    24417448.09003
 101662273.39803      1732.68403        36.341  
  21978194.74008 117321085.27008     -3334.05108        46.651    21978200.53106
  91249759.74506     -2593.15606        43.232  
  19478864.26309 104198822.84109      -539.99609        48.191    19478866.75206
  81043552.17306      -420.00006        41.761  
 09 07 27 08 26  0.0000000  0 16G13G25G07G16G11G06G31G21G03G23G19R24            
                                R13R07R22R23                                    
  23394845.08147 122940755.32047     -1550.59847        44.728    23394845.47143
  95797982.28543     -1208.25843        36.529  
  21582367.03249 113416127.93749      1595.72349        49.463    21582366.44247
  88376225.18047      1243.41847        43.378  
  22787277.15648 119747961.52948      2888.01248        46.812    22787276.15445
  93310105.29145      2250.39845        40.745  
  21750889.19449 106280518.48849     -1496.23849        49.393    21750887.84546
  82793607.70446     -1165.90246        41.310  
  24842902.21846 130550339.47746      3830.39146        41.637    24842903.64041
 101727554.64641      2984.71941        30.724  
  20695144.69149 100732556.38049     -1285.47349        50.932    20695144.59848
  78470532.39648     -1001.67248        46.018  
  25174605.39047 124272234.40847     -3650.09447        43.907    25174606.34544
  96813119.85444     -2844.22744        37.523  
  25102710.80146 123894472.49546     -2635.65646        42.204    25102710.48442
  96518769.77742     -2053.70742        32.529  
  19945555.74949  96793450.90149      -483.19149        51.140    19945555.24548
  75401102.82548      -376.51648        46.171  
  23857094.00548 117348684.49248     -2746.81248        45.810    23857093.35043
  91418140.97643     -2140.37943        36.555  
  20608882.74949 108300459.12549       957.94549        49.989    20608880.12248
  84389979.51848       746.44948        46.639  
  21789061.50907 116515948.04507      2655.05107        44.714    21789065.26905
  90623567.00905      2065.03905        39.667  
  19379127.92009 103483488.53009      1028.21109        49.481    19379133.03708
  80487218.79508       799.71908        46.072  
  24404999.15506 130641868.44606      2215.06206        42.909    24404999.04603
 101610441.97003      1722.82803        35.412  
  21996938.16408 117421139.24808     -3336.46508        45.781    21996943.97906
  91327579.47506     -2595.02706        43.050  
  19481938.37409 104215267.01209      -556.58609        47.977    19481940.81906
  81056342.10206      -432.89806        41.610  
 09 07 27 08 26 30.0000000  0 17G13G25G07G16G11G06G18G31G21G03G23G19            
                                R24R13R07R22R23                                 
  23403726.97547 122987433.56447     -1563.78947        44.344    23403727.80243
  95834354.88343     -1218.53943        35.763  
  21573290.36149 113368429.01649      1581.53549        49.860    21573289.58346
  88339057.18946      1232.35946        43.326  
  22770809.89748 119661424.86848      2878.28948        47.245    22770809.19746
  93242674.12746      2242.82046        41.281  
  21759439.34949 106325448.70949     -1501.68849        49.870    21759437.79146
  82828618.24446     -1170.14846        41.565  
  24821024.48645 130435372.25045      3831.41845        40.671    24821025.74843
 101637969.92243      2985.52343        35.770  
  20702496.78649 100771192.16949     -1292.78549        51.005    20702496.70148
  78500638.20348     -1007.36348        46.309  
  26027014.26744 136772887.58954      1230.86344        38.598    26027014.39141
 106576267.16251       959.10941        30.828  
  25195436.81847 124381704.61347     -3650.46147        44.731    25195437.95143
  96898421.29743     -2844.52043        36.651  
  25117771.04146 123973614.53046     -2643.00446        42.477    25117770.74441
  96580438.91641     -2059.48441        30.095  
  19948338.42549  96808074.01849      -494.19549        51.383    19948338.09548
  75412497.46048      -385.09048        46.323  
  23872774.98048 117431087.42948     -2749.25848        46.941    23872773.75243
  91482350.98543     -2142.28143        35.577  
  20603441.24949 108271864.68449       945.76649        50.237    20603438.53048
  84367698.15148       736.96148        46.367  
  21774191.21507 116436431.75307      2643.22307        44.152    21774195.32105
  90561721.04405      2055.84005        39.749  
  19373408.37609 103452947.92409      1005.20709        49.293    19373413.73508
  80463464.98708       781.82408        46.070  
  24392611.42405 130575555.85205      2203.27705        40.557    24392611.59803
 101558865.54603      1713.66003        35.124  
  22015683.39007 117521204.32107     -3337.22307        45.420    22015689.17607
  91405407.83007     -2595.62107        43.341  
  19485093.29709 104232143.93209      -571.23809        48.080    19485095.59806
  81069468.59706      -444.30106        41.574  
 09 07 27 08 27  0.0000000  0 17G13G25G07G16G11G06G18G31G21G03G23G19            
                                R24R13R07R22R23                                 
  23412702.59047 123034601.65347     -1579.01247        45.399    23412703.59242
  95871109.18642     -1230.40242        33.739  
  21564312.90749 113321251.15649      1565.30149        50.035    21564312.12647
  88302295.21647      1219.71147        43.802  
  22754415.94848 119575273.90648      2866.54748        47.752    22754415.42346
  93175543.52946      2233.67246        41.483  
  21768038.59549 106370637.65549     -1509.20749        48.850    21768037.08046
  82863830.40946     -1176.00846        41.886  
  24799159.15447 130320468.98147      3830.16847        43.894    24799160.56441
 101548435.04341      2984.54741        31.692  
  20709908.79649 100810142.87349     -1302.29749        51.084    20709908.42948
  78530989.39348     -1014.77748        45.752  
  26020021.08546 136736139.60746      1220.78946        41.131    26020021.34541
 106547632.38241       951.26241        30.351  
  25216287.15647 124491273.53547     -3652.64147        44.927    25216288.19944
  96983799.62744     -2846.21944        36.865  
  25132891.74946 124053075.96846     -2652.55146        41.341    25132891.51641
  96642356.89441     -2066.92641        29.875  
  19951201.95549  96823122.56449      -507.31649        51.120    19951201.83248
  75424223.61448      -395.31248        46.465  
  23888488.14248 117513659.01948     -2753.70748        47.033    23888486.72044
  91546692.42444     -2145.75044        37.318  
  20598088.06349 108243733.18749       931.39149        50.247    20598085.02448
  84345777.51748       725.75848        46.344  
  21759404.88907 116357364.54607      2629.27307        44.854    21759409.30505
  90500224.40405      2044.99205        40.051  
  19367836.49509 103423194.78109       979.94109        49.550    19367842.02208
  80440323.64608       762.17208        46.211  
  24380305.66105 130509683.69905      2189.83205        40.413    24380306.43403
 101507631.69103      1703.20303        35.537  
  22034450.65008 117621386.51208     -3339.98008        45.764    22034456.51807
  91483327.28307     -2597.76607        43.558  
  19488349.11809 104249559.69209      -588.05909        48.120    19488351.00606
  81083014.19006      -457.38306        41.262  
 09 07 27 08 27 30.0000000  0 17G13G25G07G16G11G06G18G31G21G03G23G19            
                                R24R13R07R22R23                                 
  23421765.17848 123082223.34848     -1592.23048        45.704    23421765.26043
  95908216.98343     -1240.70343        34.452  
  21555428.45549 113274562.32049      1550.88749        49.714    21555427.83047
  88265914.30147      1208.48447        44.069  
  22738089.41848 119489477.76348      2856.70748        47.481    22738089.06545
  93108689.41345      2226.00445        40.726  
  21776680.40849 106416052.07449     -1514.76649        49.130    21776679.19246
  82899218.24546     -1180.34046        41.543  
  24777299.93846 130205598.07546      3831.21146        43.267    24777301.38143
 101458925.36843      2985.36743        35.082  
  20717374.02349 100849373.16049     -1309.61749        50.891    20717373.49148
  78561558.44548     -1020.48448        45.839  
  26013084.16342 136699679.77652      1212.87142        33.428  

  25237149.45847 124600905.16647     -3652.79347        45.537    25237150.36743
  97069226.72143     -2846.34043        36.237  
  25148066.41846 124132820.65946     -2660.33246        42.534    25148066.26742
  96704495.55742     -2072.86342        33.581  
  19954139.65649  96838561.13849      -518.33649        51.203    19954139.79548
  75436253.67848      -403.90248        46.778  
  23904226.12748 117596362.43048     -2756.25848        46.510    23904225.20644
  91611136.59444     -2147.73844        37.425  
  20592816.34549 108216029.94649       919.09049        50.119    20592813.20548
  84324190.57948       716.17648        46.470  
  21744696.62607 116278712.41007      2617.46507        45.270    21744700.99905
  90439050.55705      2035.80505        39.612  
  19362406.23909 103394197.01409       956.79309        49.712    19362411.68208
  80417769.82308       744.16808        45.752  
  24368076.26305 130444220.99305      2177.89805        38.953    24368077.75202
 101456716.35002      1693.92602        32.837  
  22053233.16408 117721648.92608     -3340.37508        46.392    22053239.37007
  91561309.13507     -2598.07407        43.772  
  19491698.87209 104267478.04209      -602.81609        48.359    19491700.51806
  81096950.68406      -468.85506        41.182  
 09 07 27 08 28  0.0000000  0 17G13G25G07G16G11G06G18G31G21G03G23G19            
                                R24R13R07R22R23                                 
  23430901.46248 123130232.22448     -1607.72748        45.845    23430900.89743
  95945626.48143     -1252.77743        35.626  
  21546625.24949 113228300.95049      1534.02749        49.537    21546624.84747
  88229866.46847      1195.34447        43.741  
  22721818.93348 119403975.75748      2844.30148        47.051    22721818.42846
  93042064.46946      2216.33646        41.172  
  21785353.35849 106461628.35949     -1522.59449        49.544    21785352.31846
  82934732.21446     -1186.44146        41.684  
  24755435.24547 130090698.44447      3829.89847        43.652    24755436.12341
 101369393.24541      2984.33641        31.510  
  20724880.07349 100888818.13249     -1319.12549        50.663    20724879.57348
  78592294.77048     -1027.89548        45.761  
  26006191.77546 136663459.96646      1202.61346        41.786    26006191.78043
 106491009.45153       937.09843        36.281  
  25258011.43347 124710534.06947     -3655.07847        44.084    25258012.00043
  97154651.77043     -2848.11343        35.676  
  25163282.63246 124212783.07246     -2669.75046        41.907    25163282.89541
  96766803.91941     -2080.32841        31.509  
  19957139.53049  96854325.25149      -531.74249        51.422    19957139.73648
  75448537.40448      -414.34448        46.251  
  23919976.39148 117679130.73848     -2760.85948        46.427    23919975.48444
  91675631.31344     -2151.32444        37.194  
  20587613.86449 108188691.18249       904.41049        50.181    20587610.88748
  84302887.64848       704.73048        46.606  
  21730054.21208 116200411.63308      2603.41408        45.953    21730058.62705
  90378149.96705      2024.87905        39.793  
  19357105.66009 103365892.53009       931.12509        49.507    19357111.11908
  80395755.21908       724.20308        45.912  
  24355912.43403 130379107.11603      2164.21503        36.514    24355913.48102
 101406072.25102      1683.27302        32.874  
  22072018.23308 117821924.79108     -3343.43008        45.598    22072024.61507
  91639301.45707     -2600.44907        43.647  
  19495130.01009 104285831.85109      -619.82009        48.224    19495131.58106
  81111225.87106      -482.08606        41.408  
 09 07 27 08 28 30.0000000  0 17G13G25G07G16G11G06G18G31G21G03G23G19            
                                R24R13R07R22R23                                 
  23440119.59147 123178673.29747     -1621.77347        45.208    23440119.34443
  95983372.75343     -1263.72343        35.340  
  21537912.49549 113182516.03049      1518.36349        49.444    21537912.39647
  88194189.91147      1183.14147        43.764  
  22705614.01448 119318818.12548      2832.85948        47.629    22705613.22645
  92975707.87745      2207.41845        40.180  
  21794066.28049 106507414.60049     -1529.64849        49.404    21794065.29746
  82970409.78146     -1191.93846        41.497  
  24733574.37946 129975819.55446      3829.36746        42.716    24733575.43142
 101279877.32142      2983.92242        33.526  
  20732435.80249 100928523.34549     -1327.65249        51.030    20732435.25748
  78623233.88948     -1034.53948        45.750  
  25999353.52946 136627523.46646      1193.31646        43.104    25999353.49441
 106463007.08441       929.84841        30.455  
  25278881.37948 124820205.46848     -3656.25048        45.566    25278881.95743
  97240109.97543     -2849.02743        35.381  
  25178548.64945 124293008.35645     -2678.73045        40.933    25178549.59341
  96829317.14041     -2087.32441        28.953  
  19960210.24549  96870461.03349      -543.89549        51.423    19960210.16448
  75461110.74148      -423.81248        46.079  
  23935747.47447 117762007.99747     -2764.25447        45.442    23935746.69043
  91740210.93243     -2153.96943        35.210  
  20582489.76049 108161763.86949       890.84849        50.434    20582487.10648
  84281905.34848       694.16848        46.530  
  21715486.36407 116122510.97807      2590.30907        44.289    21715490.66105
  90317560.58305      2014.68405        39.371  
  19351944.23909 103338331.70309       906.34409        49.505    19351949.67008
  80374319.00708       704.93408        45.953  
  24343823.28804 130314393.43504      2150.58604        36.944    24343823.50501
 101355739.40601      1672.68001        31.239  
  22090814.22107 117922259.53707     -3345.43407        44.193    22090820.73307
  91717339.55907     -2602.00807        43.653  
  19498650.97509 104304666.83309      -635.66009        48.159    19498652.83406
  81125875.31106      -494.40606        41.687  
 09 07 27 08 29  0.0000000  0 17G13G25G07G16G11G06G18G31G21G03G23G19            
                                R24R13R07R22R23                                 
  23449417.57247 123227536.04347     -1635.75847        44.647    23449417.58042
  96021447.58342     -1274.62142        34.284  
  21529289.13249 113137201.64449      1502.69149        49.396    21529289.27847
  88158880.00447      1170.93047        44.042  
  22689473.59548 119233999.51148      2821.78148        47.513    22689472.83646
  92909615.46646      2198.78946        41.230  
  21802817.73749 106553403.15949     -1536.23049        49.384    21802816.70046
  83006245.00846     -1197.06646        42.143  
  24711716.35146 129860955.94146      3828.61346        43.198    24711717.56041
 101190373.30141      2983.33241        30.752  
  20740039.31649 100968479.61849     -1335.92649        50.923    20740038.68548
  78654368.64848     -1040.98048        45.684  
  25992567.97044 136591864.35644      1184.10944        38.143    25992567.84441
 106435220.63641       922.66041        24.582  
  25299757.45947 124929909.46447     -3657.24647        44.305    25299758.06543
  97325593.45743     -2849.81643        36.055  
  25193862.98846 124373486.70146     -2686.80146        42.579    25193864.17042
  96892027.52142     -2093.60942        33.185  
  19963349.85049  96886959.08549      -555.93049        51.237    19963349.43748
  75473966.35648      -433.19548        46.483  
  23951536.81546 117844983.42746     -2767.44546        43.153    23951536.63143
  91804867.04543     -2156.45343        34.475  
  20577442.39049 108135239.65549       877.41449        50.272    20577440.08548
  84261237.14448       683.69948        47.066  
  21700992.07907 116045003.59407      2577.14807        45.497    21700996.35705
  90257277.10905      2004.44505        40.275  
  19346921.20509 103311509.00109       881.68009        49.515    19346926.68708
  80353456.90508       685.75008        46.347  
  24331808.20805 130250076.09805      2137.42605        39.693    24331808.43701
 101305714.77201      1662.43801        31.583  
  22109619.48407 118022642.94107     -3346.80907        45.193    22109625.89007
  91795415.51507     -2603.07807        43.782  
  19502260.00609 104323973.09109      -651.35509        48.474    19502262.25706
  81140891.30006      -506.60906        41.617  
 09 07 27 08 29 30.0000000  0 17G13G25G07G16G11G06G18G31G21G03G23G19            
                                R24R13R07R22R23                                 
  23458789.89647 123276789.83447     -1647.44547        44.539    23458790.14043
  96059827.08843     -1283.72743        34.590  
  21520750.64849 113092331.61749      1489.29749        49.915    21520750.78147
  88123916.34447      1160.49247        43.725  
  22673393.04449 119149494.91249      2812.51249        47.956    22673392.35846
  92843767.74246      2191.56646        41.203  
  21811602.42949 106599566.23749     -1540.62949        49.275    21811601.41746
  83042216.23146     -1200.48846        42.735  
  24689856.24646 129746081.96046      3830.39146        42.725    24689857.85341
 101100861.21841      2984.71541        31.535  
  20747684.93149 101008657.44149     -1341.94549        50.963    20747684.27648
  78685676.04048     -1045.67248        45.853  
  25985830.23546 136556456.36546      1177.02746        42.633    25985829.46241
 106407626.06451       917.16841        28.593  
  25320633.94346 125039615.74346     -3655.52346        42.640    25320634.64542
  97411078.73342     -2848.46942        33.618  
  25209220.26347 124454188.05847     -2692.79747        44.088    25209221.15942
  96954911.67242     -2098.28942        32.231  
  19966552.74649  96903790.25349      -565.62949        51.366    19966552.34148
  75487081.56048      -440.75448        46.390  
  23967338.91947 117928026.00047     -2768.15647        43.748    23967339.39843
  91869575.44843     -2157.00843        36.087  
  20572466.11949 108109089.90449       866.48849        50.017    20572464.01948
  84240860.74048       675.18848        46.643  
  21686566.09707 115967861.15507      2566.41807        45.060    21686570.54905
  90197277.47505      1996.10205        40.227  
  19342031.62709 103285398.25409       859.42609        49.502    19342037.37808
  80333148.54208       668.43808        46.430  
  24319862.52806 130186130.53106      2126.27706        41.184    24319862.75202
 101255979.34802      1653.77002        32.554  
  22128427.83307 118123044.18507     -3345.93407        45.361    22128433.97407
  91873505.34207     -2602.39807        43.599  
  19505951.47909 104343719.88409      -664.50809        48.191    19505953.51806
  81156249.91606      -516.84406        41.278  
 09 07 27 08 30  0.0000000  0 17G13G25G07G16G11G06G18G31G21G03G23G19            
                                R24R13R07R22R23                                 
  23468253.80847 123326523.18147     -1662.96947        44.746    23468254.10643
  96098580.29243     -1295.82443        36.240  
  21512314.73149 113047998.85549      1471.52749        49.738    21512314.54047
  88089371.32447      1146.64147        44.041  
  22657390.05748 119065397.97748      2798.96148        47.443    22657389.36346
  92778237.65146      2181.00846        41.370  
  21820437.52849 106645995.58749     -1549.46549        49.277    21820436.67946
  83078394.91346     -1207.37946        42.044  
  24668012.09346 129631290.92046      3827.73846        41.438    24668013.57343
 101011413.77343      2982.65243        36.540  
  20755389.78249 101049146.28649     -1352.05949        50.872    20755389.10748
  78717225.78848     -1053.55548        46.125  
  25979157.66644 136521393.49644      1166.23044        38.755    25979156.55441
 106380302.32951       908.72341        26.262  
  25341527.76746 125149413.80746     -3658.75046        42.423    25341528.62843
  97496635.62043     -2850.97343        36.487  
  25224637.07947 124535201.35247     -2702.72347        44.176    25224637.67941
  97018038.85241     -2106.02041        32.071  
  19969835.97449  96921044.21549      -579.46549        51.156    19969835.86348
  75500526.21248      -451.53548        46.718  
  23983171.12547 118011223.23747     -2773.15247        45.038    23983171.35544
  91934404.39344     -2160.90244        37.387  
  20567578.21549 108083405.34049       851.14149        50.031    20567576.11348
  84220846.82148       663.22748        46.615  
  21672225.89708 115891177.04808      2551.25808        45.620    21672230.21005
  90137634.30505      1984.30905        40.072  
  19337293.08209 103260094.19009       832.74609        49.819    19337299.09908
  80313467.60108       647.68808        46.392  
  24308005.15506 130122654.11806      2110.52706        42.141    24308005.62003
 101206608.78803      1641.51603        35.270  
  22147256.51907 118223553.51907     -3349.53507        44.816    22147262.35006
  91951679.24106     -2605.19906        43.309  
  19509742.18209 104363997.48909      -681.92209        48.009    19509743.87606
  81172021.39406      -530.38306        41.296  
 09 07 27 08 30 30.0000000  0 17G13G25G07G16G11G06G18G31G21G03G23G19            
                                R24R13R07R22R23                                 
  23477784.52647 123376606.58947     -1677.38747        44.707    23477784.91143
  96137606.27143     -1307.05943        36.007  
  21503957.31649 113004078.34649      1454.78549        49.676    21503956.69347
  88055147.54747      1133.59447        44.226  
  22641440.84348 118981584.54348      2786.82848        47.226    22641440.13945
  92712928.49845      2171.55545        40.908  
  21829299.22449 106692564.57549     -1556.99649        49.397    21829298.43746
  83114682.40646     -1213.24646        42.771  
  24646160.01146 129516458.31046      3825.99646        41.887    24646161.76744
 100921933.92844      2981.29744        36.689  
  20763129.41749 101089817.93049     -1361.06249        50.905    20763128.67748
  78748917.97448     -1060.57048        45.884  
  25972527.22148 136486550.68648      1155.62948        45.796    25972526.77741
 106353152.13041       900.48841        31.204  
  25362414.17246 125259174.63246     -3660.05546        42.578    25362415.43244
  97582163.43844     -2851.99644        37.241  
  25240088.90547 124616398.03547     -2712.02347        43.642    25240088.92441
  97081309.04041     -2113.26641        32.200  
  19973175.47949  96938593.29949      -592.17249        51.436    19973175.35648
  75514200.82748      -461.43848        46.825  
  23999007.93647 118094445.11447     -2776.74247        45.001    23999007.81944
  91999252.55244     -2163.69944        37.938  
  20562754.81649 108058058.43949       836.94549        50.147    20562752.50348
  84201096.00448       652.16048        46.632  
  21657947.31607 115814822.75907      2537.15207        45.234    21657951.45505
  90078247.69005      1973.34005        39.554  
  19332681.96309 103235469.91009       807.16009        49.971    19332687.73908
  80294315.37408       627.78908        46.624  
  24296211.67905 130059520.67005      2096.61705        39.133    24296212.47602
 101157505.07602      1630.70302        33.236  
  22166081.01507 118324039.66007     -3351.45707        43.838    22166086.84507
  92029835.10507     -2606.69107        43.449  
  19513607.50608 104384674.73708      -698.21108        47.775    19513609.41606
  81188103.71006      -543.05506        42.005  
 09 07 27 08 31  0.0000000  0 17G13G25G07G16G11G06G18G31G21G03G23G19            
                                R24R13R07R22R23                                 
  23487404.10048 123427156.23248     -1690.31648        45.966    23487404.38343
  96176995.56843     -1317.12943        35.189  
  21495701.04749 112960690.80149      1439.91049        49.460    21495700.38247
  88021339.05947      1122.00447        44.734  
  22625568.72748 118898176.59548      2776.18448        47.440    22625567.97145
  92647935.29945      2163.26245        40.006  
  21838210.58849 106739393.19649     -1562.80949        49.707    21838209.49146
  83151172.22246     -1217.77746        41.367  
  24624323.19945 129401705.32145      3826.25445        40.811    24624325.05041
 100832516.10541      2981.49641        31.258  
  20770926.11549 101130789.98449     -1368.18049        50.773    20770925.31548
  78780844.24748     -1066.11748        45.613  
  25965961.69241 136452048.65141      1146.85941        31.481  

  25383315.89846 125369014.75146     -3660.16846        41.131    25383317.44543
  97667753.08243     -2852.09843        34.758  
  25255597.60247 124697894.43547     -2718.90647        44.322    25255596.99942
  97144812.68142     -2118.63342        33.281  
  19976593.63749  96956554.92349      -603.04349        51.413    19976593.22948
  75528196.89948      -469.90648        46.491  
  24014871.59248 118177807.99248     -2778.51248        45.946    24014871.19543
  92064210.57643     -2165.07843        36.564  
  20558018.44949 108033167.80949       824.62549        50.295    20558015.98348
  84181700.71248       642.56248        46.236  
  21643753.31407 115738920.52507      2525.12507        45.312    21643756.75705
  90019212.63905      1963.98405        39.601  
  19328221.33309 103211648.58709       783.23009        50.253    19328226.68208
  80275787.67308       609.17608        46.460  
  24284505.33706 129996855.15706      2083.78106        42.165    24284505.76503
 101108765.16303      1620.71503        35.958  
  22184923.45507 118424621.27107     -3351.74207        44.509    22184929.50707
  92108065.19207     -2606.91407        43.551  
  19517569.58909 104405870.20009      -712.45709        47.917    19517571.95306
  81204589.07906      -554.13706        42.341  
 09 07 27 08 31 30.0000000  0 17G13G25G07G16G11G06G18G31G21G03G23G19            
                                R24R13R07R22R23                                 
  23497093.63547 123478073.46347     -1707.13747        45.213    23497093.95743
  96216671.28343     -1330.24243        34.701  
  21487528.04149 112917741.88349      1420.28149        49.521    21487527.56047
  87987872.37347      1106.71147        43.696  
  22609755.94348 118815080.90848      2760.83648        46.841    22609755.32345
  92583185.41345      2151.29745        40.844  
  21847152.90749 106786384.81749     -1572.82049        49.179    21847151.66546
  83187789.05546     -1225.57846        41.169  
  24602483.89546 129286938.40046      3822.13746        42.283    24602485.78841
 100743087.45041      2978.28941        32.221  
  20778761.33249 101171964.69349     -1379.66449        50.655    20778760.55948
  78812928.42648     -1075.06648        45.720  
  25959442.77743 136417793.74943      1134.16043        34.548    25959445.09441
 106299579.32551       883.76241        17.790  
  25404214.36145 125478836.41945     -3664.09445        40.840    25404215.86942
  97753328.30042     -2855.13742        32.981  
  25271144.70547 124779592.50247     -2730.37947        44.533    25271143.22442
  97208473.33142     -2127.57042        33.983  
  19980071.78649  96974831.71849      -618.23449        51.404    19980071.26548
  75542438.55648      -481.74248        46.655  
  24030743.21347 118261212.35447     -2784.54347        44.694    24030742.45444
  92129200.93444     -2169.77744        37.943  
  20553350.51249 108008636.70149       808.01249        50.207    20553347.94748
  84162585.57348       629.62148        46.380  
  21629625.65607 115663372.55907      2508.39807        45.511    21629628.87905
  89960453.13805      1950.97705        40.063  
  19323893.09809 103188534.93009       754.74209        50.113    19323898.11308
  80257810.37508       587.02308        46.174  
  24272868.31605 129934563.36205      2066.38305        39.956    24272869.32303
 101060315.96603      1607.18803        35.243  
  22203765.16008 118525198.49508     -3356.43008        45.579    22203770.88206
  92186291.88906     -2610.55506        43.119  
  19521609.96809 104427483.86109      -731.30909        48.013    19521612.33706
  81221399.72106      -568.80106        41.757  
 09 07 27 08 32  0.0000000  0 17G13G25G07G16G11G06G18G31G21G03G23G19            
                                R24R13R07R22R23                                 
  23506865.48947 123529424.55547     -1718.25447        45.077    23506865.74243
  96256685.06343     -1338.90243        35.364  
  21479451.87449 112875302.18149      1406.86349        49.425    21479451.47747
  87954802.47047      1096.25447        43.749  
  22594016.19048 118732369.16248      2751.36748        46.906    22594015.91945
  92518734.71345      2143.91845        40.964  
  21856139.33949 106833608.89549     -1577.38349        49.251    21856138.24446
  83224587.01246     -1229.13346        41.465  
  24580655.44446 129172228.70346      3823.49646        41.648    24580656.85142
 100653703.39642      2979.35542        33.005  
  20786647.92149 101213409.54149     -1385.27349        50.500    20786647.31548
  78845223.10948     -1079.43848        45.906  
  25952984.91044 136383857.41444      1126.36344        37.393    25952978.80841
 106273154.57151       877.68441        30.713  
  25425122.22746 133609918.04056     -3662.53946        41.547    25425124.01743
 104111631.55453     -2853.92643        35.555  
  25286742.92247 124861559.45647     -2736.08247        44.585    25286741.08043
  97272343.72043     -2132.00443        34.572  
  19983622.60149  96993491.33649      -627.65249        51.325    19983622.10248
  75556978.51648      -489.08248        46.630  
  24046634.85547 118344723.86947     -2784.93447        43.728    24046633.99543
  92194274.75243     -2170.08643        36.121  
  20548763.95549 107984533.64549       796.95749        50.393    20548761.03948
  84143803.98248       621.00448        46.364  
  21615577.11807 115588249.68007      2497.52307        45.119    21615580.66705
  89902024.26205      1942.52005        39.188  
  19319710.65409 103166200.74709       732.18009        49.970    19319715.50708
  80240439.32808       569.46908        46.097  
  24261315.40905 129872720.08405      2054.77705        40.691    24261315.94402
 101012215.61802      1598.15202        34.350  
  22222618.58008 118625838.97908     -3355.16408        45.742    22222624.00407
  92264567.79207     -2609.57407        43.449  
  19525741.37409 104449583.90209      -744.03509        48.111    19525743.64206
  81238588.64206      -578.69906        42.014  
 09 07 27 08 32 30.0000000  0 17G13G25G07G16G11G06G18G31G21G03G23G19            
                                R24R13R07R22R23                                 
  23516707.41247 123581145.66847     -1731.85947        43.616    23516707.47143
  96296987.16043     -1349.50843        36.185  
  21471461.43649 112833312.52349      1390.62949        49.442    21471461.11447
  87922083.24847      1083.60247        43.957  
  22578338.48848 118649983.18348      2739.33648        47.287    22578338.49645
  92454537.85945      2134.54345        40.656  
  21865158.65449 106881005.15249     -1584.15649        49.223    21865157.43446
  83261519.15646     -1234.41046        42.395  
  24558826.52746 129057517.48346      3822.19146        42.287    24558827.74142
 100564318.07842      2978.33242        32.379  
  20794573.98149 101255061.96849     -1393.30949        50.620    20794573.55648
  78877679.52948     -1085.69948        45.825  
  25946576.29042 136350180.73542      1116.26242        33.067    25946577.49343
 106246913.12343       869.82443        35.878  
  25446027.04243 133719773.40843     -3663.09043        35.773    25446029.33143
 104197232.99343     -2854.36743        34.646  
  25302380.02947 124943732.15147     -2743.92647        43.967    25302378.22742
  97336374.35942     -2138.12942        33.880  
  19987234.28549  97012471.58849      -639.50849        51.312    19987233.75448
  75571768.32948      -498.31648        46.792  
  24062534.78347 118428278.49847     -2787.45747        43.746    24062534.00243
  92259382.17643     -2172.05143        36.332  
  20544247.09949 107960797.07249       783.69949        50.424    20544244.07548
  84125307.94948       610.67248        46.491  
  21601596.39107 115513490.84807      2484.27007        44.533    21601600.35605
  89843878.52305      1932.21105        39.773  
  19315662.86209 103144586.39509       706.90209        49.878    19315667.65908
  80223628.15508       549.80908        46.233  
  24249835.29405 129811266.36205      2040.54305        39.811    24249835.43002
 100964418.26602      1587.09002        34.313  
  22241471.78607 118726478.43807     -3356.11707        44.966    22241477.38507
  92342842.90007     -2610.31607        43.948  
  19529951.63008 104472105.63208      -759.26208        47.720    19529953.64606
  81256105.54406      -590.53906        41.985  
 09 07 27 08 33  0.0000000  0 16G13G25G07G16G11G06G18G21G03G23G19R24            
                                R13R07R22R23                                    
  23526629.18047 123633286.75947     -1745.02347        43.686    23526629.24044
  96337616.48644     -1359.76244        37.318  
  21463567.05449 112791827.16849      1374.62149        49.399    21463566.67747
  87889756.98647      1071.13347        44.043  
  22562733.48548 118567978.00048      2727.34448        47.316    22562733.38645
  92390637.72845      2125.20345        40.847  
  21874220.51649 106928626.71149     -1590.91049        48.613    21874219.41246
  83298626.83546     -1239.67646        41.455  
  24537007.68046 128942859.52446      3821.25446        42.390    24537009.05642
 100474974.31742      2977.60542        32.557  
  20802549.32049 101296973.10149     -1401.02049        50.656    20802549.03248
  78910337.54248     -1091.70348        45.726  
  25940227.45047 136316818.33547      1106.95347        43.411    25940227.82542
 106220916.31942       862.55942        34.230  
  25318065.99146 125026161.50046     -2751.70346        42.783    25318064.38344
  97400605.17444     -2144.18444        36.716  
  19990916.74849  97031824.11849      -651.08249        51.214    19990916.38548
  75586848.22748      -507.34048        46.782  
  24078452.35347 118511925.78547     -2789.54747        43.706    24078451.80143
  92324561.84243     -2173.67643        35.421  
  20539809.52149 107937478.91849       770.40649        49.809    20539807.00148
  84107137.98148       600.31648        46.722  
  21587693.90107 115439149.44907      2471.30107        45.542    21587698.25705
  89786057.48805      1922.12105        39.934  
  19311760.21409 103123747.38309       681.87909        49.721    19311765.00708
  80207420.03208       530.35208        46.127  
  24238438.55506 129750259.64306      2026.37906        41.257    24238439.36503
 100916968.64403      1576.07403        35.541  
  22260334.34307 118827168.16407     -3356.96907        44.516    22260340.44407
  92421157.08507     -2610.98407        44.181  
  19534250.09608 104495100.26108      -774.19508        47.405    19534252.26506
  81273990.26206      -602.15206        42.058  
 09 07 27 08 33 30.0000000  0 16G13G25G07G16G11G06G18G21G03G23G19R24            
                                R13R07R22R23                                    
  23536627.99947 123685829.63047     -1757.86747        44.933    23536628.05144
  96378558.89544     -1369.77044        37.357  
  21455766.08049 112750832.26449      1358.35949        49.569    21455765.54247
  87857812.89847      1058.45747        43.758  
  22547198.51248 118486340.94648      2715.29748        47.287    22547198.31445
  92327024.44045      2115.81645        40.418  
  21883322.19349 106976457.57049     -1597.84449        48.896    21883321.18746
  83335897.60146     -1245.07846        41.170  
  24515196.59046 128828241.99946      3819.99646        41.209    24515198.36542
 100385662.03242      2976.62542        32.659  
  20810570.72349 101339126.04949     -1408.98849        50.905    20810570.62148
  78943183.98948     -1097.91848        45.728  
  25933936.49744 136283756.41744      1097.13744        37.261    25933937.05941
 106195153.78041       854.91041        30.687  
  25333797.09447 125108828.88947     -2759.47747        44.340    25333795.51942
  97465021.23542     -2150.24642        33.991  
  19994666.86749  97051531.81449      -662.71149        51.151    19994666.73248
  75602204.87348      -516.40248        46.642  
  24094383.90947 118595647.01147     -2791.86347        44.749    24094382.83642
  92389799.12942     -2175.48042        34.321  
  20535448.57249 107914563.06249       757.34849        50.326    20535446.38848
  84089281.49248       590.13748        46.620  
  21573867.10308 115365210.71508      2458.10208        45.830    21573871.42005
  89728549.60105      1911.85505        40.085  
  19308000.25209 103103669.74009       656.79309        49.919    19308005.15808
  80191804.07508       510.83608        46.544  
  24227123.17906 129689687.41506      2012.12106        43.318    24227124.11803
 100869856.95403      1564.98803        35.475  
  22279202.87307 118927890.22207     -3357.77007        45.064    22279209.37007
  92499496.42307     -2611.60207        43.521  
  19538633.57509 104518549.62909      -789.01209        47.835    19538635.85506
  81292228.66906      -613.67606        42.682  
 09 07 27 08 34  0.0000000  0 16G13G25G07G16G11G06G18G21G03G23G19R24            
                                R13R07R22R23                                    
  23546707.92547 123738797.77247     -1773.19147        44.561    23546707.78744
  96419832.66644     -1381.71544        38.312  
  21448063.75049 112710355.72149      1339.94549        49.387    21448063.04447
  87826272.73247      1044.11347        44.296  
  22531738.93548 118405100.94748      2700.66848        47.058    22531738.61845
  92263720.55945      2104.41845        41.099  
  21892469.04749 107024524.74249     -1606.76649        48.689    21892468.10746
  83373352.52346     -1252.02746        41.778  
  24493398.62146 128713693.30546      3816.35546        42.554    24493400.47043
 100296403.42443      2973.78543        34.530  
  20818642.88749 101381545.62949     -1419.07849        50.898    20818643.06048
  78976238.19848     -1105.77748        45.925  
  25927707.58943 136251023.06543      1084.93843        35.830  

  25349578.21746 125191758.97446     -2769.39846        43.208    25349576.80442
  97529642.05042     -2157.96942        34.228  
  19998489.34649  97071619.54749      -676.46549        51.259    19998489.22348
  75617857.65148      -527.11748        46.672  
  24110334.09948 118679464.93448     -2796.15648        45.585    24110332.74943
  92455111.74043     -2178.82843        35.349  
  20531169.37349 107892075.18049       741.85249        50.519    20531166.99548
  84071758.47948       578.06248        46.342  
  21560120.47107 115291701.48607      2442.48807        45.052    21560124.62205
  89671375.79305      1899.71505        39.969  
  19304388.25609 103084382.17709       629.15609        49.912    19304393.31508
  80176802.62008       489.34008        46.214  
  24215894.17406 129629579.97406      1995.28506        41.506    24215895.45703
 100823106.74503      1551.88703        34.949  
  22298082.42708 119028668.91208     -3360.73408        46.479    22298088.44907
  92577879.82007     -2613.91007        43.772  
  19543106.53409 104542478.20409      -806.18409        47.893    19543109.29406
  81310839.78106      -627.03506        42.408  
 09 07 27 08 34 30.0000000  0 16G13G25G07G16G11G06G18G21G03G23G19R24            
                                R13R07R22R23                                    
  23556854.45247 123792115.46847     -1784.44147        44.662    23556854.20942
  96461378.83742     -1390.48042        34.242  
  21440446.32349 112670326.44249      1325.50849        48.975    21440445.71847
  87795081.07647      1032.85947        43.714  
  22516341.65048 118324188.17048      2690.29348        46.939    22516341.10046
  92200671.65546      2096.33246        41.393  
  21901646.96449 107072755.94249     -1611.60249        48.630    21901646.16146
  83410935.25946     -1255.79746        41.969  
  24471600.26646 128599142.50146      3817.01246        41.520    24471602.22643
 100207143.15743      2974.29743        36.371  
  20826751.55649 101424157.33049     -1424.89149        50.581    20826752.04348
  79009442.11948     -1110.30548        46.160  
  25921528.09847 136218548.57647      1076.85947        45.301    25921528.06243
 106144325.54653       839.10943        36.105  
  25365394.84546 125274876.55246     -2774.81646        42.844    25365393.34141
  97594408.70541     -2162.21541        31.939  
  20002370.09449  97092013.15149      -686.15649        51.202    20002369.89248
  75633748.76348      -534.67248        46.396  
  24126288.33947 118763304.15647     -2796.07447        45.216    24126286.88443
  92520440.93343     -2178.76243        35.925  
  20526957.47249 107869941.74549       730.60949        50.029    20526954.93248
  84054511.65448       569.30548        46.435  
  21546440.59208 115218548.23908      2431.20708        45.922    21546444.68205
  89614478.86305      1890.93805        39.916  
  19300910.77509 103065812.73609       605.77309        49.908    19300915.87008
  80162359.70608       471.15208        46.499  
  24204739.56706 129569868.12906      1982.36706        41.713    24204741.25402
 100776664.30302      1541.84402        33.374  
  22316958.22507 119129428.04607     -3359.46907        45.000    22316963.70207
  92656248.01607     -2612.92607        43.841  
  19547654.87408 104566809.46608      -819.00408        47.656    19547657.83306
  81329764.10606      -637.00806        42.409  
 09 07 27 08 35  0.0000000  0 16G13G25G07G16G11G06G18G21G03G23G19R24            
                                R13R07R22R23                                    
  23567077.72647 123845837.78647     -1797.58247        44.395    23567077.29443
  96503240.33343     -1400.71943        36.542  
  21432925.15749 112630803.68049      1309.19949        49.403    21432924.84147
  87764284.12847      1020.15647        43.909  
  22501018.24648 118243662.77048      2677.63748        47.248    22501017.36045
  92137924.55745      2086.46545        41.109  
  21910867.24749 107121209.05049     -1618.73849        48.884    21910866.38646
  83448690.92046     -1261.35946        41.122  
  24449813.01446 128484650.10146      3815.46546        42.801    24449814.80442
 100117928.37942      2973.08642        32.519  
  20834907.54849 101467017.60849     -1432.81649        50.743    20834908.09148
  79042839.72448     -1116.48448        45.761  
  25915409.12545 136186391.79045      1066.41445        39.711    25915408.22743
 106119268.35443       830.96543        35.277  
  25381257.90246 125358238.68946     -2782.96946        41.791    25381256.81043
  97659366.47143     -2168.54743        36.066  
  20006319.78449  97112768.78849      -697.81249        51.142    20006319.63748
  75649921.98648      -543.75448        46.616  
  24142256.98748 118847218.75448     -2798.27348        45.574    24142255.47943
  92585828.89143     -2180.47343        35.732  
  20522823.89649 107848220.13049       717.28949        50.296    20522821.51248
  84037585.73848       558.92648        46.636  
  21532838.28908 115145810.19208      2417.52008        46.303    21532841.98905
  89557904.85505      1880.29305        39.478  
  19297579.11509 103048021.52609       580.12509        50.056    19297584.12008
  80148522.09408       451.20708        46.232  
  24193670.44806 129510612.90706      1967.78106        41.714    24193671.53702
 100730576.91102      1530.49602        33.713  
  22335840.56107 119230224.21007     -3360.31207        44.409    22335846.42107
  92734644.97907     -2613.50807        43.927  
  19552289.17908 104591599.81508      -833.95308        47.611    19552291.98706
  81349045.49806      -648.63306        42.331  
 09 07 27 08 35 30.0000000  0 16G13G25G07G16G11G06G18G21G03G23G19R24            
                                R13R07R22R23                                    
  23577374.19347 123899946.79647     -1809.96547        44.405    23577373.74043
  96545403.15843     -1410.36743        36.002  
  21425497.75049 112591773.65549      1292.84049        49.415    21425497.71747
  87733871.11947      1007.40247        44.210  
  22485766.11548 118163512.14048      2665.44548        47.120    22485765.05046
  92075469.52346      2076.96946        41.536  
  21920126.90449 107169869.01649     -1625.42649        48.450    21920126.21646
  83486607.75146     -1266.57046        41.461  
  24428034.16446 128370202.86246      3814.32846        42.409    24428036.21443
 100028748.77243      2972.20343        34.901  
  20843107.69549 101510109.46349     -1440.18049        50.912    20843108.03448
  79076417.79448     -1122.21948        46.150  
  25909347.91845 136154539.43245      1056.59445        40.815    25909347.15041
 106094448.36041       823.31641        31.638  
  25397163.65347 125441826.04347     -2789.70747        44.002    25397163.08243
  97724499.37343     -2173.79743        35.519  
  20010335.21649  97133870.11449      -709.10549        51.108    20010335.18448
  75666364.56948      -552.55548        47.181  
  24158236.40747 118931190.34747     -2799.92647        44.639    24158234.96144
  92651261.25844     -2181.76244        37.962  
  20518765.69249 107826893.98449       704.39849        50.176    20518763.52648
  84020967.98148       548.88348        47.310  
  21519310.60507 115073472.17507      2404.60507        45.298    21519314.46405
  89501641.96805      1870.24605        39.896  
  19294390.59409 103030995.09609       554.94109        49.604    19294395.53708
  80135279.31108       431.62108        46.233  
  24182684.43005 129451802.72105      1953.10205        40.712    24182684.57202
 100684835.65302      1519.07802        32.700  
  22354726.72707 119331039.31907     -3360.87907        44.949    22354733.08007
  92813056.68907     -2614.02007        43.815  
  19557005.94608 104616831.39808      -848.16408        47.432    19557008.66606
  81368670.06906      -659.68806        42.125  
 09 07 27 08 36  0.0000000  0 16G13G25G07G16G11G06G18G21G03G23G19R24            
                                R13R07R22R23                                    
  23587743.13546 123954435.85546     -1822.41046        43.308    23587742.68043
  96587862.21143     -1420.06243        35.778  
  21418163.91249 112553234.53849      1276.36349        49.322    21418164.07447
  87703840.62247       994.56647        43.583  
  22470585.05848 118083735.60948      2653.06248        47.090    22470584.23746
  92013306.02746      2067.32046        41.249  
  21929425.23649 107218732.74549     -1632.12149        48.384    21929424.70346
  83524683.36646     -1271.78546        41.740  
  24406263.86046 128255799.54546      3812.71546        42.226    24406265.41942
  99939603.37142      2970.94142        33.190  
  20851350.96149 101553427.71749     -1447.57449        50.911    20851351.05948
  79110172.27048     -1127.98448        45.960  
  25903343.88845 136122990.14845      1047.11745        40.702    25903344.04941
 106069864.54941       815.92641        28.363  
  25413111.42546 125525633.45046     -2797.22346        42.330    25413111.04943
  97789803.79343     -2179.66043        34.599  
  20014415.44449  97155312.09849      -720.14549        51.019    20014415.44648
  75683072.60648      -561.15648        46.763  
  24174225.05147 119015212.48847     -2801.57047        43.433    24174224.12744
  92716732.94144     -2183.05144        37.746  
  20514781.98749 107805959.35049       691.37149        50.225    20514779.96348
  84004655.29448       538.72748        47.246  
  21505857.01107 115001531.14107      2391.57407        44.631    21505861.44605
  89445687.84405      1860.11305        39.728  
  19291344.90009 103014731.47609       529.52009        49.723    19291349.98408
  80122629.81808       411.84408        46.373  
  24171781.53505 129393437.86805      1938.19105        40.394    24171781.34902
 100639440.76102      1507.48002        33.799  
  22373615.33207 119431867.87507     -3361.16407        44.339    22373621.99107
  92891478.88607     -2614.24207        43.614  
  19561804.13909 104642497.62109      -862.72709        47.802    19561806.65006
  81388632.68706      -671.01206        42.104  
 09 07 27 08 36 30.0000000  0 17G13G25G07G16G11G06G22G18G21G03G23G19            
                                R24R13R07R22R23                                 
  23598185.04847 124009310.80147     -1835.52747        44.162    23598185.20142
  96630621.89142     -1430.28942        34.338  
  21410925.58349 112515196.40049      1259.53549        49.534    21410925.69447
  87674200.50347       981.45347        44.083  
  22455477.36948 118004344.51648      2640.22348        47.154    22455476.81846
  91951442.85246      2057.31246        41.765  
  21938764.17349 107267809.53149     -1639.34849        48.289    21938763.67546
  83562924.99846     -1277.41846        41.560  
  24384504.07446 128141451.26246      3810.77346        42.389    24384505.59143
  99850500.97943      2969.43843        36.617  
  20859638.66949 101596979.75749     -1455.55149        50.835    20859638.65848
  79144108.92248     -1134.19548        46.192  
  25353535.04544 133233706.83654      1823.27044        38.120    25353536.97541
 103818487.31351      1420.71141        25.274  
  25897399.76245 136091754.47545      1035.86345        38.911    25897399.76641
 106045525.10641       807.16441        30.352  
  25429102.23346 125609667.31746     -2804.68446        41.408    25429101.97442
  97855284.73042     -2185.46942        34.061  
  20018561.93749  97177102.20249      -732.00049        51.070    20018561.95148
  75700051.91248      -570.39148        46.848  
  24190224.56247 119099290.61847     -2803.10547        44.631    24190223.95744
  92782248.27544     -2184.24244        37.298  
  20510874.30049 107785424.05149       677.88749        50.345    20510872.16748
  83988653.77348       528.21948        46.634  
  21492479.32907 114929995.77607      2377.94907        45.502    21492483.57405
  89390049.27305      1849.51605        38.896  
  19288443.93709 102999241.15109       503.48409        49.650    19288449.29208
  80110581.77208       391.59408        46.379  
  24160963.79506 129335530.45906      1922.74206        41.873    24160963.40602
 100594401.63302      1495.46102        34.356  
  22392507.59907 119532716.31907     -3361.80507        44.642    22392514.20207
  92969916.53907     -2614.81207        44.077  
  19566685.00009 104668605.46309      -877.34409        48.093    19566687.20606
  81408938.78306      -682.38306        42.433  
 09 07 27 08 37  0.0000000  0 17G13G25G07G16G11G06G22G18G21G03G23G19            
                                R24R13R07R22R23                                 
  23608698.90148 124064560.42148     -1847.71948        45.673    23608699.00044
  96673673.58444     -1439.78144        36.706  
  21403781.44249 112477652.74649      1243.46149        49.670    21403781.38747
  87644945.70747       968.92647        44.266  
  22440442.23749 117925333.36549      2627.48449        47.910    22440441.61546
  91889875.73546      2047.38746        42.082  
  21948142.29049 107317091.36549     -1645.96949        48.907    21948141.77246
  83601326.40846     -1282.57846        41.264  
  24362753.76247 128027152.11647      3809.23047        43.412    24362754.84341
  99761436.79741      2968.23441        31.718  
  20867968.89049 101640755.76349     -1462.74649        50.916    20867968.99948
  79178220.08748     -1139.80548        46.018  
  25343139.18845 133179072.32145      1819.24645        39.260    25343138.52141
 103775915.01141      1417.59441        24.399  
  25891513.71244 136060826.77444      1025.86744        37.988    25891514.35041
 106021425.50341       799.36741        27.409  
  25445134.40946 125693917.97946     -2812.05546        42.664    25445134.30742
  97920934.54942     -2191.21542        32.721  
  20022772.97249  97199231.01749      -743.19549        51.238    20022773.09748
  75717295.13548      -579.11748        46.799  
  24206232.74047 119183413.64147     -2804.77047        44.843    24206232.21243
  92847798.58843     -2185.53943        36.263  
  20507040.92849 107765279.13649       665.12149        50.402    20507038.57348
  83972956.45148       518.27748        46.526  
  21479176.48308 114858858.81008      2364.57808        46.223    21479180.39505
  89334720.54505      1839.11705        39.294  
  19285686.65809 102984517.72509       478.06609        49.873    19285692.22808
  80099130.20708       371.82408        46.367  
  24150230.62006 129278075.77006      1907.59806        41.900    24150230.71804
 100549714.60604      1483.68004        37.300  
  22411401.76907 119633574.32807     -3362.03107        44.375    22411408.47107
  93048361.62907     -2614.91807        44.057  
  19571646.43709 104695144.47809      -891.73009        48.109    19571648.42806
  81429580.24606      -693.57006        42.468  
 09 07 27 08 37 30.0000000  0 17G13G25G07G16G11G06G22G18G21G03G23G19            
                                R24R13R07R22R23                                 
  23619284.25347 124120185.08647     -1860.42647        45.357    23619284.05243
  96717017.47243     -1449.68443        34.585  
  21396732.38549 112440608.01049      1226.36749        49.796    21396732.08447
  87616079.66847       955.60547        43.906  
  22425480.41548 117846707.61848      2614.22348        47.437    22425479.76246
  91828608.92246      2037.05146        41.967  
  21957560.13049 107366580.63349     -1653.22349        48.919    21957559.47245
  83639889.45845     -1288.23045        41.045  
  24341013.58246 127912907.28646      3807.22746        41.722    24341014.27743
  99672414.90143      2966.67643        35.415  
  20876342.03249 101684757.30549     -1470.58249        50.784    20876342.28248
  79212506.99948     -1145.90648        46.099  
  25332769.21845 133124575.47745      1814.02345        40.813    25332768.12041
 103733449.87441      1413.52041        28.048  
  25885687.86645 136030211.53745      1015.64845        40.804    25885687.72342
 105997569.55742       791.42242        34.232  
  25461207.96546 125778386.14346     -2819.12946        42.268    25461208.09142
  97986753.88942     -2196.72742        33.943  
  20027048.80949  97221700.01649      -754.73849        51.217    20027048.85348
  75734803.44948      -588.11348        47.141  
  24222249.48648 119267580.81748     -2806.10248        45.558    24222248.71442
  92913383.33342     -2186.57842        33.356  
  20503282.24449 107745526.93549       651.79749        50.493    20503279.82048
  83957565.13748       507.89548        46.989  
  21465949.04208 114788123.30308      2350.98008        46.643    21465952.42605
  89279704.03605      1828.53505        39.463  
  19283073.93609 102970565.41109       452.02309        50.089    19283079.39908
  80088278.40708       351.57008        46.478  
  24139583.41106 129221080.69206      1891.98406        41.206    24139583.87603
 100505385.21403      1471.54303        36.428  
  22430297.84307 119734442.72707     -3362.53507        44.004    22430304.35707
  93126814.76707     -2615.30907        43.837  
  19576688.32309 104722114.56209      -906.18809        48.308    19576690.37906
  81450556.98406      -704.81206        43.000  
 09 07 27 08 38  0.0000000  0 17G13G25G07G16G11G06G22G18G21G03G23G19            
                                R24R13R07R22R23                                 
  23629940.53848 124176182.34248     -1872.28548        45.808    23629939.99943
  96760651.65543     -1458.92243        35.043  
  21389778.57549 112404064.25249      1209.93049        49.757    21389778.14847
  87587604.00847       942.80147        44.691  
  22410592.23448 117768470.66348      2601.51248        47.136    22410591.79046
  91767645.06946      2027.15246        42.426  
  21967017.72449 107416279.01149     -1659.71549        48.616    21967016.78746
  83678615.44646     -1293.28946        42.655  
  24319284.13645 127798719.69245      3805.35945        41.037    24319285.20744
  99583437.64044      2965.21544        37.149  
  20884757.99349 101728983.47149     -1477.60949        50.718    20884758.21048
  79246968.93848     -1151.38748        46.523  
  25322425.47546 133070219.82546      1809.65246        42.409    25322424.70543
 103691094.90743      1410.11743        35.558  
  25879921.81944 135999911.27544      1005.01244        38.553    25879922.51242
 105973958.94642       783.12142        33.379  
  25477322.59746 125863069.81146     -2826.35546        41.393    25477322.90443
  98052741.10343     -2202.35243        34.689  
  20031389.15149  97244508.22249      -765.65249        51.045    20031389.03348
  75752576.08348      -596.61348        47.538  
  24238274.32347 119351789.96347     -2807.28547        45.287    24238273.49444
  92979000.77444     -2187.50444        37.363  
  20499598.26749 107726167.49349       638.91849        50.214    20499595.66748
  83942479.86548       497.85948        47.522  
  21452796.56208 114717790.25008      2337.98408        45.743    21452799.65405
  89225000.56905      1818.43005        39.215  
  19280606.00509 102957387.06209       426.45309        49.762    19280611.62408
  80078028.57708       331.68408        46.265  
  24129022.64906 129164548.84506      1876.74206        42.432    24129023.55504
 100461416.02804      1459.68804        37.829  
  22449195.76107 119835320.00807     -3362.45307        44.523    22449201.92207
  93205274.84807     -2615.24607        43.589  
  19581810.30709 104749514.14709      -920.28109        48.099    19581812.56406
  81471867.77706      -715.77306        42.420  
 09 07 27 08 38 30.0000000  0 17G13G25G07G16G11G06G22G18G21G03G23G19            
                                R24R13R07R22R23                                 
  23640667.14147 124232549.22847     -1885.09847        45.026    23640665.97143
  96804573.90843     -1468.90643        34.709  
  21382920.08549 112368022.88149      1193.05549        49.825    21382919.71247
  87559519.81447       929.65247        44.019  
  22395778.64748 117690625.01148      2588.22748        47.488    22395778.35146
  91706986.12746      2016.79746        42.336  
  21976514.84649 107466186.41849     -1667.05149        48.933    21976513.87745
  83717504.30545     -1299.00445        40.708  
  24297565.88745 127684591.28845      3803.50845        40.842    24297567.18342
  99494506.50042      2963.77742        32.309  
  20893216.49549 101773432.56149     -1485.30549        50.912    20893216.55548
  79281604.58448     -1157.37948        46.296  
  25312109.48846 133016007.66346      1804.57446        41.565    25312108.53641
 103648851.71941      1406.16041        31.286  
  25874216.42044 135969927.69644       993.60944        38.686    25874216.41241
 105950595.13741       774.23841        27.529  
  25493478.13847 125947967.48647     -2833.26247        43.807    25493478.45244
  98118895.18444     -2207.72744        37.057  
  20035793.77549  97267654.32149      -777.11749        51.311    20035793.56848
  75770612.00748      -605.55148        47.089  
  24254306.22047 119436037.78647     -2809.09847        45.339    24254305.49042
  93044648.40642     -2188.91042        33.910  
  20495988.95949 107707199.81349       625.82049        50.653    20495986.22748
  83927699.86748       487.65248        47.035  
  21439719.08708 114647859.62508      2324.46908        45.971    21439721.82504
  89170610.11004      1807.92204        38.817  
  19278283.24009 102944983.69409       400.50409        49.716    19278288.95108
  80068381.51008       311.50008        46.134  
  24118549.14505 129108483.45905      1860.91005        40.334    24118550.21303
 100417809.65203      1447.37103        35.128  
  22468094.63207 119936203.80307     -3362.85207        44.709    22468101.22207
  93283739.99207     -2615.55507        43.944  
  19587012.22409 104777340.63909      -934.50809        48.483    19587014.44606
  81493510.61206      -726.84406        42.372  
 09 07 27 08 39  0.0000000  0 17G13G25G07G16G11G06G22G18G21G03G23G19            
                                R24R13R07R22R23                                 
  23651463.35146 124289284.70146     -1896.75846        43.015    23651462.44444
  96848783.32644     -1477.99644        37.212  
  21376157.72349 112332486.92349      1176.44549        50.208    21376157.51047
  87531829.44147       916.70747        44.143  
  22381040.38649 117613174.98849      2575.39149        47.972    22381040.08246
  91646635.46146      2006.79746        42.725  
  21986051.94849 107516304.97249     -1673.66049        48.502    21986051.24146
  83756557.69346     -1304.15646        41.590  
  24275860.06946 127570526.01746      3801.45346        42.139    24275861.06841
  99405624.56741      2962.17241        32.190  
  20901717.54149 101818104.80849     -1492.34049        51.055    20901717.55348
  79316414.12248     -1162.86348        46.305  
  25301821.34447 132961943.22647      1799.89147        44.889    25301820.38244
 103606723.58944      1402.50844        37.761  
  25868571.75045 135940264.57145       983.61745        40.041    25868571.98241
 105927480.92241       766.44141        29.018  
  25509673.92146 126033077.78346     -2840.16846        41.686    25509674.16742
  98185214.95842     -2213.12142        33.496  
  20040262.71249  97291138.56749      -788.03949        51.295    20040262.46548
  75788911.42248      -614.05548        46.955  
  24270345.11647 119520322.62747     -2809.66047        43.694    24270344.31543
  93110324.83143     -2189.35243        35.684  
  20492454.29649 107688624.48349       612.96149        50.604    20492451.51348
  83913225.59148       477.62948        47.219  
  21426717.03807 114578333.31207      2311.30907        44.783    21426720.00205
  89116534.08405      1797.68405        39.934  
  19276106.18209 102933358.55409       374.94509        49.834    19276111.68408
  80059339.72308       291.62108        45.997  
  24108164.22506 129052890.72206      1845.60506        42.452    24108164.98903
 100374570.85303      1435.46903        35.276  
  22486994.60307 120037093.60507     -3362.61307        43.609    22487001.58606
  93362209.78206     -2615.37506        43.159  
  19592293.82509 104805593.19609      -948.41409        48.759    19592295.98606
  81515484.82806      -737.66006        42.473  
 09 07 27 08 39 30.0000000  0 17G13G25G07G16G11G06G22G18G21G03G23G19            
                                R24R13R07R22R23                                 
  23662327.62846 124346381.69846     -1909.11746        42.195    23662327.44943
  96893274.45143     -1487.62943        35.081  
  21369491.12949 112297453.92749      1159.41449        50.183    21369490.99547
  87504531.00347       903.43847        43.977  
  22366377.07748 117536119.25048      2561.95348        47.326    22366376.70946
  91586592.02546      1996.32446        42.911  
  21995628.73249 107566631.01649     -1681.07849        48.433    21995627.79445
  83795772.77045     -1309.93445        40.237  
  24254166.12446 127456522.26046      3799.14146        42.452    24254167.18743
  99316790.52943      2960.37543        34.602  
  20910259.91949 101862994.72849     -1499.82849        50.970    20910259.94848
  79351393.27148     -1168.69548        46.262  
  25291560.55246 132908025.49346      1794.96546        42.545    25291559.81543
 103564709.80043      1398.67243        35.931  
  25862987.89946 135910919.92246       972.70346        42.472    25862987.57641
 105904614.91341       757.93841        31.439  
  25525909.04346 126118395.12546     -2847.45346        41.408    25525908.89341
  98251695.99541     -2218.79341        28.263  
  20044794.90749  97314955.84949      -799.42249        51.227    20044794.72048
  75807470.33948      -622.93048        47.106  
  24286389.54546 119604637.48946     -2810.87946        43.256    24286389.09843
  93176024.61143     -2190.30543        34.757  
  20488993.16949 107670437.15349       599.97749        50.215    20488990.67148
  83899053.66048       467.51648        47.146  
  21413789.86808 114509207.76808      2297.57808        45.594    21413793.93605
  89062769.83005      1787.00405        40.772  
  19274074.45709 102922509.03709       348.73809        49.729    19274079.77008
  80050901.20708       271.23808        46.258  
  24097866.97105 128997769.65905      1829.19105        40.507    24097867.75302
 100331698.96402      1422.70702        33.666  
  22505894.67206 120137983.62606     -3362.82406        42.846    22505901.23106
  93440679.75806     -2615.53506        43.082  
  19597653.89709 104834265.63809      -962.66409        48.534    19597655.65506
  81537785.61006      -748.74206        42.382  
 09 07 27 08 40  0.0000000  0 17G13G25G07G16G11G06G22G18G21G03G23G19            
                                R24R13R07R22R23                                 
  23673260.54446 124403837.84246     -1921.96146        42.510    23673260.92143
  96938045.43543     -1497.63743        36.586  
  21362920.63949 112262925.88349      1142.15649        49.971    21362920.46847
  87477626.03047       889.98847        43.415  
  22351789.37749 117459460.87149      2548.22749        48.007    22351788.90546
  91526858.22446      1985.62946        41.713  
  22005245.09449 107617165.20749     -1688.19949        48.486    22005243.93145
  83835150.03145     -1315.48445        40.482  
  24232484.32146 127342583.21646      3796.60246        42.989    24232485.30442
  99228006.92842      2958.39142        33.518  
  20918843.54349 101908101.48649     -1507.48449        51.100    20918843.54448
  79386541.38448     -1174.66448        46.189  
  25281328.92046 132854257.71446      1789.25046        41.857    25281328.17341
 103522812.81341      1394.22341        29.671  
  25857465.12545 135881896.34445       961.94145        39.840    25857464.53242
 105881999.20542       749.56642        33.333  
  25542183.30246 126203918.05246     -2854.50446        42.579    25542182.71441
  98318337.22741     -2224.28941        31.099  
  20049390.33449  97339105.19749      -810.82449        51.335    20049390.15248
  75826288.01148      -631.81248        46.803  
  24302439.39446 119688980.23546     -2812.05546        42.817    24302439.35143
  93241746.14843     -2191.21943        34.954  
  20485605.85749 107652637.69849       586.52049        50.400    20485603.48248
  83885183.96648       457.02348        46.937  
  21400937.92208 114440484.07108      2283.65608        45.772    21400942.40105
  89009318.10205      1776.17605        40.065  
  19272188.42009 102912437.58309       322.44509        49.663    19272193.82308
  80043067.84108       250.78508        46.086  
  24087658.27005 128943123.32405      1813.55105        40.171    24087658.81402
 100289196.15702      1410.53102        32.528  
  22524794.53907 120238872.27207     -3363.35907        45.023    22524800.66807
  93519148.69007     -2615.94907        43.496  
  19603091.92609 104863355.69509      -976.78109        48.523    19603093.57206
  81560411.20606      -759.72306        42.299  
 09 07 27 08 40 30.0000000  0 17G13G25G07G16G11G06G22G18G21G03G23G19            
                                R24R13R07R22R23                                 
  23684262.51447 124461654.05147     -1933.27347        44.314    23684263.00543
  96983097.01643     -1506.44543        34.939  
  21356447.27849 112228908.26349      1125.35249        50.077    21356446.98247
  87451118.79847       876.89847        43.770  
  22337278.82349 117383206.63149      2534.84049        48.531    22337278.17246
  91467439.34546      1975.19546        42.218  
  22014902.03149 107667911.84849     -1695.22749        48.863    22014900.72645
  83874692.85945     -1320.95745        40.469  
  24210815.73746 127228715.02846      3794.30546        42.555    24210817.12942
  99139278.52242      2956.60242        32.686  
  20927468.96549 101953427.62549     -1514.59049        51.167    20927468.85548
  79421860.45048     -1180.20348        46.393  
  25271127.26746 132800647.07646      1784.50446        42.232    25271126.43843
 103481038.26343      1390.51643        35.036  
  25852004.49345 135853199.61345       950.93845        39.361    25852003.41841
 105859638.05441       740.98441        30.448  
  25558497.34047 126289647.91047     -2861.40247        43.894    25558496.48541
  98385139.73041     -2229.66841        31.614  
  20054049.50049  97363589.32949      -821.79349        51.376    20054049.31148
  75845366.55148      -640.35948        47.368  
  24318494.43246 119773351.61646     -2812.89546        41.783    24318494.82744
  93307489.98844     -2191.87144        37.873  
  20482293.17449 107635229.23049       573.69949        50.580    20482290.61548
  83871618.93148       447.03948        47.192  
  21388162.20108 114372166.01608      2270.38708        46.480    21388166.34405
  88956181.84905      1765.85505        39.929  
  19270448.99709 102903149.32309       296.45309        49.835    19270454.38408
  80035843.62808       230.57008        45.886  
  24077540.17706 128888960.65006      1797.35906        41.326    24077540.40802
 100247069.69302      1397.94502        34.348  
  22543694.52307 120339761.56707     -3362.84807        44.287    22543701.13106
  93597618.11606     -2615.57806        43.328  
  19608608.38909 104892865.31909      -990.69109        48.426    19608610.26306
  81583363.14506      -770.53906        42.444  
 09 07 27 08 41  0.0000000  0 18G13G25G07G16G11G06G22G18G08G21G03G23            
                                G19R24R13R07R22R23                              
  23695332.04647 124519824.22347     -1944.42647        44.062    23695332.33544
  97028424.37744     -1515.14144        37.145  
  21350070.62749 112195399.06449      1108.87549        49.964    21350070.13147
  87425007.72847       864.05547        43.504  
  22322845.09749 117307355.76749      2522.19549        48.543    22322844.19446
  91408334.78846      1965.34846        42.766  
  22024598.73449 107718868.03549     -1701.52749        48.199    22024597.66745
  83914398.95645     -1325.87145        40.099  
  24189160.21146 127114916.51646      3792.62546        41.190    24189162.04142
  99050604.42242      2955.29342        33.792  
  20936135.04449 101998968.20149     -1521.11349        50.975    20936134.94748
  79457346.60248     -1185.28548        46.078  
  25260954.98045 132747192.47345      1779.66845        40.427    25260954.25742
 103439385.38442      1386.75042        34.023  
  25846605.82046 135824828.27646       940.56646        41.457    25846604.74542
 105837530.57642       732.91442        33.797  
  25806285.84843 135612965.06853      3792.19943        34.600  

  25574849.87047 126375579.56647     -2867.21147        44.580    25574848.78741
  98452099.46241     -2234.19141        32.168  
  20058771.48149  97388403.53649      -832.12949        51.480    20058771.22048
  75864702.29048      -648.41848        47.360  
  24334553.73346 119857745.15546     -2812.71146        42.775    24334554.19643
  93373251.08743     -2191.72743        36.156  
  20479054.13849 107618207.68849       561.42249        50.647    20479051.48848
  83858355.40448       437.46948        47.192  
  21375462.02608 114304251.11408      2257.62108        46.399    21375466.04605
  88903359.15805      1755.92605        39.780  
  19268855.94409 102894642.28609       271.03909        50.012    19268861.12908
  80029227.03408       210.80508        45.865  
  24067512.73606 128835281.05806      1781.73806        41.990    24067512.86903
 100205318.96803      1385.80103        35.820  
  22562593.55707 120440646.10607     -3362.12507        44.322    22562600.22306
  93676083.81306     -2614.98806        42.907  
  19614202.08209 104922788.33409     -1003.76609        48.785    19614204.18206
  81606636.60206      -780.71106        42.489  
 09 07 27 08 41 30.0000000  0 18G13G25G07G16G11G06G22G18G08G21G03G23            
                                G19R24R13R07R22R23                              
  23706468.17547 124578342.80747     -1956.28147        43.960    23706468.34343
  97074023.25943     -1524.37543        36.052  
  21343790.35249 112162396.95049      1091.77349        50.135    21343789.74346
  87399291.78946       850.73046        42.725  
  22308488.03049 117231908.35649      2508.10549        48.212    22308487.04046
  91349544.61246      1954.36746        42.826  
  22034334.53149 107770031.60649     -1708.82049        47.826    22034334.02646
  83954266.63846     -1331.55146        41.284  
  24167517.92945 127001187.58345      3789.90245        40.955    24167520.18642
  98961984.58042      2953.17642        34.064  
  20944841.08849 102044719.16449     -1528.44549        50.889    20944841.05048
  79492996.69048     -1191.00048        45.895  
  25250812.20945 132693893.98745      1774.00045        40.990    25250811.35742
 103397854.12442      1382.33242        33.094  
  25841268.60845 135796781.23245       929.63345        40.676    25841267.90241
 105815675.74541       724.38741        29.830  
  25784641.89044 135499226.62344      3790.63744        37.318    25784645.73541
 105583800.35651      2953.74241        29.539  
  25591239.81347 126461708.08647     -2874.14847        43.489    25591238.48141
  98519212.58841     -2239.60241        31.590  
  20063555.48349  97413543.65549      -843.28149        51.489    20063555.22548
  75884291.99248      -657.10248        47.178  
  24350616.18247 119942154.50147     -2813.61347        44.215    24350616.74642
  93439024.52942     -2192.43042        33.182  
  20475887.98849 107601569.39149       548.31649        50.638    20475885.43548
  83845390.50148       427.25448        47.228  
  21362836.32708 114236735.89908      2243.88308        45.967    21362840.23905
  88850847.34405      1745.24205        40.125  
  19267409.00609 102886914.94509       244.66809        50.030    19267413.87708
  80023216.87408       190.29308        45.833  
  24057575.86506 128782085.99606      1765.44106        42.422    24057575.56303
 100163945.06503      1373.12103        35.900  
  22581491.05107 120541520.91907     -3361.99207        44.471    22581497.34007
  93754541.92807     -2614.89107        43.534  
  19619872.29709 104953119.80509     -1017.76609        48.653    19619874.35906
  81630227.75406      -791.59806        42.403  
 09 07 27 08 42  0.0000000  0 18G13G25G07G16G11G06G22G18G08G21G03G23            
                                G19R24R13R07R22R23                              
  23717669.78247 124637206.02647     -1967.44547        44.037    23717669.97243
  97119890.66843     -1533.07843        36.504  
  21337606.67749 112129902.60849      1075.05549        50.268    21337606.05746
  87373971.52346       837.69946        43.091  
  22294208.02849 117156866.21549      2495.01249        48.653    22294206.99846
  91291070.22346      1944.16046        42.684  
  22044109.82949 107821401.40849     -1715.50049        48.053    22044109.16145
  83994295.02745     -1336.75845        40.360  
  24145889.37946 126887529.52046      3787.54346        41.533    24145891.44242
  98873419.94342      2951.33242        32.330  
  20953586.70849 102090678.29049     -1535.12149        50.809    20953586.65248
  79528808.98748     -1196.20348        45.747  
  25240699.63345 132640753.45945      1769.15645        40.357    25240699.20843
 103356445.91043      1378.56643        35.479  
  25835993.46845 135769060.18845       919.29745        39.084    25835992.98741
 105794074.97841       716.34441        28.484  
  25763008.03045 135385536.35545      3788.85245        39.052    25763010.44341
 105495210.64841      2952.35241        29.786  
  25607666.51145 126548030.44345     -2880.40645        40.622    25607665.55941
  98586476.73141     -2244.47741        30.066  
  20068401.05649  97439007.48249      -853.81249        51.419    20068400.87248
  75904133.92948      -665.31248        47.002  
  24366681.41147 120026576.43747     -2813.87147        44.582    24366681.39543
  93504807.76343     -2192.63343        35.167  
  20472794.39349 107585312.86049       535.88749        50.428    20472792.03048
  83832723.08448       417.57448        47.359  
  21350285.17608 114169620.70908      2230.95308        45.693    21350289.45105
  88798646.67405      1735.18805        40.345  
  19266108.18309 102879968.24909       218.84009        50.043    19266112.86708
  80017813.88708       170.20308        45.583  
  24047729.43007 128729376.45607      1749.25407        43.467    24047729.25803
 100122948.75503      1360.53103        36.324  
  22600385.90207 120642383.41507     -3361.71507        44.080    22600392.38007
  93832990.47607     -2614.67207        43.357  
  19625618.21309 104983856.28809     -1030.92609        48.706    19625619.93206
  81654133.90006      -801.83206        41.889  
 09 07 27 08 42 30.0000000  0 18G13G25G07G16G11G06G22G18G08G21G03G23            
                                G19R24R13R07R22R23                              
  23728938.89247 124696423.92047     -1979.81647        44.202    23728939.26244
  97166034.44744     -1542.71944        37.270  
  21331522.46149 112097930.32849      1057.02349        50.301    21331522.00447
  87349058.05347       823.65247        43.511  
  22280008.11349 117082244.87749      2480.35549        48.832    22280006.94446
  91232923.73646      1932.74246        42.502  
  22053926.85148 107872990.92348     -1723.30148        47.756    22053926.00645
  84034494.63645     -1342.83645        40.582  
  24124277.50446 126773957.39646      3784.41046        42.425    24124279.03043
  98784922.24843      2948.89143        35.416  
  20962374.09349 102136857.11749     -1542.97749        50.640    20962374.12048
  79564792.48548     -1202.32448        45.706  
  25230620.02845 132587786.82345      1762.86345        39.778    25230620.15743
 103315173.22943      1373.66043        34.798  
  25830783.00345 135741679.70145       907.03945        39.825    25830781.78041
 105772739.45241       706.78141        32.043  
  25741385.60145 135271908.65645      3786.46145        39.018    25741387.43841
 105406669.58841      2950.50041        31.093  
  25624132.19045 126634557.99545     -2887.84045        40.258    25624131.17041
  98653900.77641     -2250.27041        30.257  
  20073310.52449  97464807.01449      -865.53549        51.460    20073310.30048
  75924237.46048      -674.44548        47.238  
  24382750.93647 120111020.77947     -2814.99247        44.730    24382750.30642
  93570608.50542     -2193.50442        34.272  
  20469775.67849 107569450.21349       522.07049        50.316    20469773.58649
  83820362.59649       406.80949        47.819  
  21337811.46108 114102918.55908      2216.66808        46.132    21337815.52105
  88746767.25505      1724.07405        39.656  
  19264956.08909 102873816.25009       191.83209        49.921    19264960.83008
  80013028.98208       149.19908        45.987  
  24037976.66606 128677170.31106      1731.89806        41.681    24037977.00203
 100082343.97003      1347.02703        35.575  
  22619280.41507 120743244.73007     -3362.07007        44.554    22619287.30907
  93911438.07207     -2614.94907        44.174  
  19631441.67709 105015008.39809     -1045.23809        48.655    19631443.34206
  81678363.31606      -812.96906        42.410  
 09 07 27 08 43  0.0000000  0 18G13G25G07G16G11G06G22G18G08G21G03G23            
                                G19R24R13R07R22R23                              
  23740272.45047 124755981.63947     -1991.21147        43.666    23740272.68743
  97212443.05143     -1551.59843        35.837  
  21325535.72849 112066469.66449      1039.87949        50.117    21325535.49947
  87324543.25047       810.29347        43.956  
  22265886.63149 117008035.19949      2466.61749        49.077    22265885.47447
  91175098.01247      1922.03947        43.449  
  22063783.67748 107924788.98548     -1730.22348        47.726    22063782.84745
  84074856.73645     -1348.23045        40.772  
  24102680.31846 126660462.16346      3781.80546        42.631    24102681.28042
  98696484.46342      2946.85542        33.990  
  20971200.82349 102183242.23749     -1549.81249        50.733    20971200.98448
  79600936.72648     -1207.64848        45.860  
  25220572.43546 132534985.07646      1757.16046        41.445    25220572.44241
 103274028.99941      1369.21541        30.935  
  25825635.12043 135714629.47943       896.03943        34.506    25825634.10241
 105751661.38441       698.21141        18.893  
  25719773.18646 135158335.23646      3784.56246        42.272    25719774.33642
 105318170.82542      2949.00842        32.346  
  25640634.38547 126721276.89147     -2893.71547        43.767    25640633.41142
  98721473.85742     -2254.85242        33.618  
  20078281.30649  97490928.65249      -876.32049        51.586    20078281.11248
  75944591.97648      -682.85248        47.374  
  24398821.95847 120195472.71447     -2815.20747        44.636    24398820.76843
  93636415.12543     -2193.67243        34.896  
  20466829.67949 107553969.09649       509.63749        50.477    20466827.72648
  83808299.40148       397.12148        47.719  
  21325413.21708 114036617.59108      2203.16808        46.957    21325416.90605
  88695199.82905      1713.57405        40.089  
  19263950.90909 102868448.33809       165.67209        49.855    19263955.72308
  80008853.93008       128.85208        45.700  
  24028316.55206 128625458.70106      1715.29306        41.905    24028316.40203
 100042123.82603      1334.11703        34.945  
  22638172.46707 120844091.13407     -3361.32407        44.278    22638179.36807
  93989874.10507     -2614.36707        43.775  
  19637340.28709 105046562.12909     -1058.55909        48.531    19637341.91906
  81702905.09606      -823.32806        41.983  
 09 07 27 08 43 30.0000000  0 18G13G25G07G16G11G06G22G18G08G21G03G23            
                                G19R24R13R07R22R23                              
  23751670.91047 124815882.73047     -2002.47747        44.698    23751671.14344
  97259119.21244     -1560.37544        37.169  
  21319647.76649 112035528.30949      1022.43049        50.016    21319647.66847
  87300433.09247       796.69547        44.244  
  22251845.24549 116934246.08349      2452.47749        48.913    22251844.14747
  91117599.99147      1911.01647        44.044  
  22073681.57649 107976802.30449     -1737.45749        47.800    22073680.55345
  84115386.59745     -1353.86745        41.072  
  24081099.24246 126547052.39046      3778.57446        41.830    24081099.74443
  98608113.29143      2944.34843        36.282  
  20980067.98149 102229838.92949     -1556.85249        50.586    20980068.11148
  79637245.83248     -1213.13748        45.704  
  25210557.90946 132482356.89546      1751.09846        41.441    25210557.76943
 103233019.94343      1364.48443        35.440  
  25820550.91542 135687917.72142       884.38742        34.425    25820551.27241
 105730847.01041       689.13341        26.912  
  25698173.05145 135044823.98545      3782.58245        39.680    25698174.59741
 105229720.49641      2947.46141        30.169  
  25657173.56547 126808190.51947     -2900.60947        43.405    25657172.75842
  98789198.76542     -2260.21942        32.339  
  20083314.39949  97517377.58049      -887.20749        51.502    20083314.19148
  75965201.52748      -691.33648        47.312  
  24414894.70647 120279935.56347     -2815.85947        44.312    24414893.53542
  93702230.29742     -2194.18042        34.021  
  20463957.41249 107538874.85749       496.57849        50.539    20463955.31148
  83796537.65848       386.94148        47.569  
  21313091.16408 113970724.52308      2189.50408        46.865    21313094.96105
  88643949.67705      1702.94905        40.446  
  19263093.99309 102863872.15109       139.03109        49.998    19263098.79008
  80005294.66608       108.13308        46.013  
  24018750.16606 128574250.40006      1698.12906        42.309    24018750.05504
 100002295.27104      1320.76604        36.941  
  22657062.41307 120944926.94207     -3360.78907        43.933    22657069.60107
  94068301.90507     -2613.94907        44.256  
  19643314.62609 105078521.36609     -1072.24209        48.428    19643316.37206
  81727762.28206      -833.96906        42.379  
 09 07 27 08 44  0.0000000  0 18G13G25G07G16G11G06G22G18G08G21G03G23            
                                G19R24R13R07R22R23                              
  23763133.72547 124876118.47747     -2013.46947        45.300    23763133.52443
  97306056.19643     -1568.93843        35.484  
  21313857.92149 112005101.95749      1005.59049        50.310    21313857.90747
  87276724.24747       783.57447        44.446  
  22237883.08049 116860874.52249      2438.63749        48.914    22237882.18647
  91060427.35047      1900.23847        44.115  
  22083619.16649 108029024.97049     -1744.28149        48.044    22083618.33546
  84156079.56046     -1359.18446        41.420  
  24059533.79047 126433724.77947      3776.12947        43.599    24059533.78641
  98519806.12741      2942.43841        31.905  
  20988973.97649 102276639.83349     -1563.44949        50.572    20988973.97948
  79673714.05448     -1218.27748        45.737  
  25200575.84846 132429899.69446      1745.75046        43.113    25200575.54544
 103192144.19844      1360.31644        36.793  
  25815531.57244 135661541.28744       873.61744        37.316    25815532.27141
 105710293.99941       680.73441        18.050  
  25676583.70745 134931372.03245      3780.71145        40.258    25676585.86441
 105141316.50041      2946.01241        28.007  
  25673748.40248 126895291.63948     -2906.41848        45.900    25673747.76942
  98857069.72442     -2264.74642        33.194  
  20088408.45549  97544146.92549      -897.67649        51.519    20088408.19048
  75986060.75548      -699.49248        47.523  
  24430967.94147 120364400.56447     -2815.78547        43.586    24430966.64643
  93768047.13843     -2194.11743        35.260  
  20461157.62049 107524161.11249       484.05949        50.622    20461155.19049
  83785072.41249       377.18449        47.793  
  21300844.20508 113905233.85208      2176.20308        46.637    21300847.75805
  88593012.51305      1692.60205        39.820  
  19262384.41509 102860083.08309       113.06609        49.859    19262389.39908
  80002347.60808        87.93808        45.830  
  24009277.77705 128523544.63005      1682.02705        40.972    24009278.32903
  99962857.44003      1308.23803        36.011  
  22675948.91606 121045744.45106     -3360.35906        43.137    22675956.12607
  94146715.34107     -2613.62107        43.575  
  19649363.31609 105110877.77909     -1085.12109        48.291    19649364.93206
  81752928.37106      -843.98806        42.001  
 09 07 27 08 44 30.0000000  0 18G13G25G07G16G11G06G22G18G08G21G03G23            
                                G19R24R13R07R22R23                              
  23774659.25547 124936686.01947     -2024.74647        44.178    23774658.90644
  97353251.67344     -1577.72744        37.404  
  21308166.40249 111975191.77349       988.19949        50.470    21308166.37047
  87253417.60547       770.02047        44.178  
  22224000.66449 116787923.12649      2424.23449        48.404    22223999.91147
  91003582.11247      1889.01647        43.819  
  22093596.95349 108081457.51949     -1751.44149        48.210    22093596.37946
  84196936.07846     -1364.76246        41.539  
  24037984.34046 126320481.35546      3773.01646        43.004    24037984.04642
  98431564.52742      2940.00442        33.275  
  20997918.51849 102323643.72549     -1570.30149        50.362    20997918.39947
  79710340.46047     -1223.61347        45.018  
  25190626.94746 132377616.23346      1739.90246        41.460    25190626.34243
 103151403.88743      1355.77043        34.656  
  25810576.74044 135635501.62944       861.95744        36.769    25810576.46444
 105689995.38854       671.66444        38.035  
  25655006.31045 134817981.38445      3778.43045        40.047    25655008.07641
 105052960.00341      2944.23041        29.304  
  25690358.74048 126982578.25348     -2912.72348        46.595    25690357.79842
  98925085.29142     -2269.65642        32.993  
  20093563.26349  97571235.31849      -908.45349        51.592    20093562.90748
  76007168.59148      -707.89148        47.098  
  24447040.75046 120448864.43946     -2815.73846        42.842    24447039.49543
  93833863.06143     -2194.09043        35.912  
  20458429.98449 107509826.90249       471.36349        50.463    20458427.35148
  83773902.90348       367.29748        47.466  
  21288672.35008 113840145.40208      2162.62108        47.333    21288675.82405
  88542388.20105      1682.03905        40.234  
  19261822.44609 102857082.29909        86.74209        49.745    19261827.53508
  80000013.65508        67.46108        46.072  
  23999899.73705 128473343.46205      1664.56205        39.279    23999900.26803
  99923812.04603      1294.65203        35.077  
  22694831.68506 121146541.88806     -3359.82406        42.798    22694838.56106
  94225113.20106     -2613.19906        43.212  
  19655485.82609 105143628.79109     -1098.53509        48.478    19655487.38106
  81778401.37506      -854.42206        42.406  
 09 07 27 08 45  0.0000000  0 18G13G25G07G16G11G06G22G18G08G21G03G23            
                                G19R24R13R07R22R23                              
  23786247.85747 124997584.18347     -2035.26647        44.580    23786247.29342
  97400704.80142     -1585.92242        34.250  
  21302573.81049 111945801.36449       971.01249        50.678    21302573.57547
  87230515.98347       756.63347        43.538  
  22210199.11349 116715396.63949      2410.31249        48.568    22210198.39746
  90947067.96446      1878.16046        43.329  
  22103614.99249 108134102.41149     -1758.48849        48.078    22103614.65045
  84237958.04345     -1370.25445        41.098  
  24016451.67346 126207327.29046      3770.06246        41.387    24016451.52741
  98343392.58841      2937.71141        32.172  
  21006901.82849 102370851.28349     -1576.96949        50.638    21006901.78947
  79747125.56547     -1228.80947        44.746  
  25180711.64046 132325511.06246      1733.80546        42.301    25180710.87241
 103110802.43841      1351.01641        32.143  
  25805686.74745 135609802.73645       850.71545        39.199    25805685.89441
 105669970.28041       662.89141        28.330  
  25633441.34845 134704656.99345      3775.96945        39.368    25633443.15943
 104964655.33443      2942.30143        35.888  
  25707004.24347 127070050.08447     -2918.91447        44.066    25707003.54241
  98993245.20941     -2274.48041        31.275  
  20098778.93149  97598643.56049      -918.98049        51.641    20098778.65648
  76028525.65548      -716.09448        47.041  
  24463113.39347 120533326.48047     -2815.23847        43.543    24463111.98141
  93899677.59241     -2193.69941        30.382  
  20455774.77549 107495873.89049       458.70749        50.613    20455772.03348
  83763030.43348       357.43448        47.557  
  21276576.13808 113775461.57208      2149.34008        46.254    21276579.16304
  88492078.56604      1671.70304        38.634  
  19261408.70909 102854873.04309        60.35509        49.923    19261413.79708
  79998295.33008        46.93808        45.601  
  23990617.19205 128423653.12305      1647.30105        40.490    23990617.67402
  99885164.09402      1281.23802        34.136  
  22713711.13807 121247320.10507     -3358.70707        44.793    22713717.93407
  94303496.33507     -2612.32407        43.433  
  19661681.99809 105176774.23509     -1111.37109        48.070    19661683.75906
  81804181.16106      -864.39806        42.098  
 09 07 27 08 45 30.0000000  0 18G13G25G07G16G11G06G22G18G08G21G03G23            
                                G19R24R13R07R22R23                              
  23797898.85846 125058811.56146     -2046.02046        42.672    23797898.55343
  97448414.45243     -1594.30543        36.553  
  21297080.53549 111916933.25649       954.00849        50.779    21297080.17647
  87208021.34347       743.37947        43.799  
  22196479.43649 116643298.88749      2396.55149        48.850    22196478.46247
  90890887.90347      1867.43847        43.500  
  22113673.65249 108186961.63649     -1765.23049        48.087    22113673.33645
  84279147.02145     -1375.50845        40.600  
  23994936.60446 126094265.59746      3767.70746        42.942    23994936.58742
  98255292.66742      2935.87542        33.417  
  21015923.82649 102418262.16249     -1583.28949        50.417    21015923.88247
  79784069.09147     -1233.73447        44.775  
  25170831.16345 132273588.32245      1728.14845        41.085    25170829.75042
 103070343.25242      1346.60942        33.071  
  25800862.23244 135584447.57244       840.00444        36.720    25800861.94241
 105650213.03141       654.55541        27.862  
  25611890.08445 134591403.51245      3774.52045        39.186    25611891.67342
 104876405.87442      2941.18842        33.037  
  25723684.93047 127157706.77147     -2924.84847        43.545    25723683.61041
  99061549.11641     -2279.10241        25.125  
  20104055.40449  97626371.36649      -929.15649        51.629    20104055.10248
  76050131.73948      -724.02348        47.240  
  24479185.77947 120617785.20447     -2814.64147        43.981    24479184.47642
  93965489.53442     -2193.23042        34.071  
  20453192.14849 107482302.23549       446.50049        50.578    20453189.41848
  83752455.12348       347.92248        47.477  
  21264555.36208 113711183.79508      2136.36708        45.578    21264558.60705
  88442084.74905      1661.61705        39.214  
  19261143.62409 102853457.70009        34.41809        49.862    19261148.62508
  79997194.49908        26.76608        45.781  
  23981430.81305 128374478.06505      1630.78905        39.939    23981431.35003
  99846916.93803      1268.39103        34.998  
  22732586.76707 121348077.98207     -3357.83607        44.337    22732593.81107
  94381863.66007     -2611.64807        43.475  
  19667951.51409 105210312.80609     -1123.96909        48.156    19667953.71306
  81830266.71406      -874.20306        42.434  
 09 07 27 08 46  0.0000000  0 18G13G25G07G16G11G06G22G18G08G21G03G23            
                                G19R24R13R07R22R23                              
  23809610.63446 125120358.99546     -2056.49646        41.571    23809610.60443
  97496373.48543     -1602.46943        35.027  
  21291685.68249 111888582.47549       936.84449        50.557    21291685.33447
  87185929.82047       730.00447        44.627  
  22182840.65049 116571626.68749      2382.59849        48.543    22182839.72247
  90835039.44347      1856.57047        44.247  
  22123771.86148 108240028.78048     -1771.82448        47.769    22123771.39045
  84320498.01545     -1380.64145        40.565  
  23973438.69447 125981292.74947      3764.77047        43.385    23973438.73942
  98167261.91942      2933.58242        34.078  
  21024982.99949 102465869.32849     -1589.50049        50.000    21024983.05447
  79821165.57047     -1238.57447        44.447  
  25160984.50846 132221844.64646      1721.97346        41.620    25160983.63742
 103030023.51442      1341.79742        33.278  
  25796102.19944 135559431.86244       828.80144        38.075    25796102.51341
 105630720.38541       645.83641        30.973  
  25590351.00445 134478217.07045      3772.14845        39.999    25590353.07242
 104788208.75542      2939.34442        32.585  
  25740399.39346 127245540.33646     -2930.44546        42.141    25740398.24341
  99129990.90041     -2283.46141        31.129  
  20109391.26249  97654411.46449      -939.37149        51.549    20109390.87148
  76071981.16248      -731.98048        47.305  
  24495255.59446 120702231.39046     -2813.84446        42.939    24495254.64743
  94031291.68343     -2192.60943        36.331  
  20450680.68049 107469105.05149       434.15649        50.422    20450678.13248
  83742171.61048       338.30148        47.732  
  21252609.38308 113647306.06908      2123.07008        46.003    21252613.30205
  88392402.12405      1651.27705        39.379  
  19261026.34809 102852831.10009         8.23809        50.085    19261031.48108
  79996707.12308         6.40208        45.802  
  23972339.58205 128325815.65305      1613.64505        40.519    23972340.78903
  99809068.42603      1255.05903        35.010  
  22751456.87607 121448807.41007     -3356.71507        44.266    22751463.88206
  94460208.78906     -2610.77706        43.288  
  19674293.14109 105244236.16509     -1136.75409        48.293    19674295.52506
  81856651.54906      -884.14106        41.930  
 09 07 27 08 46 30.0000000  0 17G13G25G07G16G11G06G22G18G08G03G23G19            
                                R24R13R07R22R23                                 
  23821384.07847 125182231.69747     -2068.39147        43.509    23821384.32642
  97544585.95442     -1611.73842        32.263  
  21286391.04549 111860758.47249       918.10949        50.808    21286390.67347
  87164248.76747       715.40647        43.954  
  22169284.48749 116500390.29549      2366.54749        48.572    22169283.99947
  90779530.59847      1844.06247        43.520  
  22133911.67449 108293312.66849     -1780.39149        48.640    22133910.81945
  84362017.90945     -1387.32045        39.958  
  23951959.71046 125868419.24646      3759.91846        43.168    23951959.71143
  98079308.59043      2929.80543        34.757  
  21034080.63249 102513679.27349     -1597.64849        50.043    21034080.70847
  79858420.06347     -1244.92647        43.961  
  25151173.77845 132170291.03145      1714.49245        39.584    25151173.58542
 102989851.86042      1335.96542        33.514  
  25791408.37045 135534765.96845       815.42645        40.462    25791408.60041
 105611500.13741       635.39141        29.658  
  25568826.90146 134365108.21646      3768.28146        41.946    25568829.09641
 104700072.06641      2936.32841        31.754  
  20114787.80949  97682770.61549      -951.30149        51.664    20114787.45548
  76094079.20048      -741.27748        47.073  
  24511323.89447 120786670.25547     -2815.05547        43.986    24511322.75042
  94097088.12542     -2193.55542        34.072  
  20448241.95649 107456289.50249       420.18049        50.834    20448239.41748
  83732185.46948       327.41048        47.231  
  21240740.37608 113583837.18808      2108.20308        47.296    21240744.37705
  88343037.46805      1639.71505        39.676  
  19261058.47609 102853002.38409       -19.57409        50.093    19261063.67608
  79996840.33208       -15.22708        45.797  
  23963346.59706 128277676.26406      1595.47306        41.861    23963347.73002
  99771626.69302      1240.91802        34.325  
  22770322.92107 121549514.94807     -3357.16407        44.615    22770329.57006
  94538536.88906     -2611.13306        43.072  
  19680707.74409 105278549.84309     -1150.88309        48.515    19680710.01506
  81883339.96106      -895.13306        42.031  
 09 07 27 08 47  0.0000000  0 18G13G25G07G16G11G06G22G18G08G21G03G23            
                                G19R24R13R07R22R23                              
  23833218.52246 125244423.15846     -2080.37946        42.974    23833219.16943
  97593046.81843     -1621.07843        35.327  
  21281196.16649 111833459.19949       899.27049        50.597    21281195.62647
  87142976.59847       700.72747        43.948  
  22155811.34849 116429589.27649      2350.73849        48.712    22155811.00047
  90724360.97447      1831.74247        44.110  
  22144092.26649 108346809.77649     -1788.83249        48.793    22144090.93745
  84403703.94645     -1393.89545        39.910  
  23930499.01946 125755644.00846      3755.57046        42.279    23930499.35543
  97991431.82643      2926.41843        35.576  
  21043216.09349 102561687.34149     -1605.52049        49.919    21043216.12747
  79895828.94447     -1251.05947        43.838  
  25141399.23045 132118927.09145      1706.84045        40.236    25141399.33143
 102949828.06643      1330.00443        34.553  
  25786780.75145 135510447.91245       803.00045        39.406    25786780.56141
 105592550.90941       625.71141        31.905  
  25547317.12244 134252076.17944      3764.68444        37.679    25547319.20041
 104611995.17541      2933.52041        31.164  
  25773931.22746 135442923.06956     -2944.45746        41.483    25773929.37443
 105539931.11553     -2294.35943        34.450  
  20120244.15349  97711444.11449      -963.03949        51.589    20120243.91148
  76116422.18448      -750.42648        47.109  
  24527389.74247 120871095.52947     -2815.89847        43.587    24527388.83142
  94162873.97142     -2194.21142        33.161  
  20445875.22949 107443851.59449       406.24649        50.732    20445872.56148
  83722493.59748       316.55148        47.518  
  21228947.39408 113520773.12108      2093.39108        46.905    21228951.10605
  88293987.65005      1628.19105        39.789  
  19261239.48509 102853969.09309       -47.58209        49.571    19261244.59008
  79997592.20808       -37.01208        45.602  
  23954451.84606 128230060.21106      1576.46106        42.503    23954452.14203
  99734592.05303      1226.13703        35.707  
  22789183.74607 121650195.48207     -3357.46907        43.667    22789190.90407
  94616843.94207     -2611.36707        43.840  
  19687194.38409 105313248.14309     -1165.00409        48.151    19687196.48706
  81910327.52206      -906.11706        41.999  
 09 07 27 08 47 30.0000000  0 18G13G25G07G16G11G06G22G18G08G21G03G23            
                                G19R24R13R07R22R23                              
  23845111.78246 125306922.92446     -2088.60546        43.101    23845112.54743
  97641747.91243     -1627.48443        35.380  
  21276099.97049 111806678.19749       883.67249        50.559    21276099.13047
  87122108.27547       688.57047        43.819  
  22142420.37849 116359218.57149      2338.08249        48.763    22142419.84347
  90669526.65547      1821.87947        44.052  
  22154312.04349 108400513.12349     -1793.85949        48.241    22154310.47445
  84445550.69445     -1397.81245        40.554  
  23909056.11346 125642962.13046      3754.00446        42.061    23909056.79543
  97903627.84143      2925.19943        35.663  
  21052387.63049 102609884.64049     -1610.00449        49.710    21052387.77847
  79933385.26547     -1254.55147        43.706  
  25131660.04145 132067747.41545      1702.45745        40.344    25131660.02943
 102909947.82943      1326.59443        35.530  
  25782218.16045 135486471.95345       792.91445        38.901    25782217.39342
 105573868.35742       617.85542        32.715  
  25525821.57846 134139116.36646      3763.60546        41.561    25525823.49041
 104523974.42541      2932.67241        31.775  
  25790745.69146 135531283.74646     -2948.35546        41.298    25790744.15741
 105608783.61041     -2297.42241        29.018  
  20125758.72849  97740423.38149      -971.37949        51.602    20125758.49548
  76139003.42448      -756.92248        47.040  
  24543450.63946 120955496.72146     -2813.41846        42.057    24543449.93742
  94228641.08242     -2192.27742        32.928  
  20443578.66949 107431782.94049       395.85249        50.569    20443575.96248
  83713089.45848       308.45748        47.660  
  21217228.70208 113458106.60608      2081.93008        47.555    21217232.39905
  88245247.03905      1619.27705        39.763  
  19261568.22609 102855724.74709       -72.02009        49.735    19261573.16007
  79998957.70707       -56.01607        45.330  
  23945654.21306 128182963.53306      1560.58606        41.141    23945653.92303
  99697961.27803      1213.78903        34.856  
  22808037.72707 121750839.58007     -3354.64807        43.573    22808045.02006
  94695122.66406     -2609.17606        43.250  
  19693750.83009 105348320.91109     -1175.70709        47.929    19693752.84806
  81937606.34306      -914.44106        41.870  
 09 07 27 08 48  0.0000000  0 18G13G25G07G16G11G06G22G18G08G21G03G23            
                                G19R24R13R07R22R23                              
  23857065.68247 125369739.80047     -2098.86347        43.390    23857066.39442
  97690696.09242     -1635.48042        32.557  
  21271104.79749 111780428.36349       866.64549        50.546    21271103.63647
  87101653.85047       675.30547        43.386  
  22129113.95749 116289292.36349      2323.96949        48.549    22129113.14747
  90615038.70147      1810.88347        43.940  
  22164572.67848 108454434.69448     -1800.67648        47.529    22164571.47745
  84487567.45745     -1403.13345        39.980  
  23887633.59147 125530387.35347      3751.16047        43.539    23887634.14041
  97815907.31341      2922.98041        30.426  
  21061597.29749 102658281.46749     -1615.96549        49.916    21061597.37147
  79971097.07247     -1259.19947        43.444  
  25121958.68345 132016766.77445      1696.56645        40.078    25121959.12343
 102870222.71643      1322.00043        34.574  
  25777723.83645 135462851.50545       781.74645        40.564    25777723.02042
 105555462.75942       609.14842        33.093  
  25504342.10646 134026242.80846      3761.35946        41.641    25504343.95142
 104436021.06542      2930.93442        32.771  
  25807593.85945 135619821.82145     -2953.93445        39.516    25807591.99441
 105677774.30841     -2301.76241        31.118  
  20131333.44449  97769718.57449      -981.19549        51.698    20131333.16548
  76161830.84148      -764.57048        46.806  
  24559507.98146 121039882.30746     -2811.92646        43.248    24559508.35343
  94294395.99343     -2191.11343        34.716  
  20441354.24749 107420094.35549       383.82049        50.517    20441351.92649
  83703981.48349       299.08249        47.797  
  21205586.63508 113395849.34308      2068.86308        46.691    21205590.25905
  88196824.73505      1609.11705        39.744  
  19262047.08509 102858281.68209       -98.10209        49.718    19262051.95907
  80000946.42107       -76.30507        45.495  
  23936955.90106 128136401.29206      1543.69906        42.329    23936955.88103
  99661746.24203      1200.65603        35.264  
  22826886.75806 121851457.29806     -3352.87906        42.905    22826893.69306
  94773380.86006     -2607.79706        43.008  
  19700379.00809 105383777.37309     -1187.89109        48.323    19700381.14106
  81965183.58806      -923.91806        41.891  
 09 07 27 08 48 30.0000000  0 18G13G25G07G16G11G06G22G18G08G21G03G23            
                                G19R24R13R07R22R23                              
  23869078.29647 125432864.78647     -2108.88347        44.689    23869078.95543
  97739884.35443     -1643.28943        35.399  
  21266209.80149 111754705.07849       848.88349        50.658    21266208.35946
  87081609.71946       661.46546        43.283  
  22115891.34449 116219807.36649      2309.09049        48.715    22115890.44046
  90560894.56046      1799.28946        42.902  
  22174873.70249 108508569.07649     -1807.81649        48.104    22174873.00545
  84529750.05945     -1408.69145        39.012  
  23866231.09946 125417916.36746      3747.39146        43.105    23866231.68442
  97728267.66742      2920.04342        32.444  
  21070843.59449 102706870.59849     -1622.69149        49.997    21070843.39946
  80008958.72846     -1264.43846        43.187  
  25112294.64046 131965981.90046      1689.80546        41.701    25112295.12543
 102830650.12243      1316.72743        35.470  
  25773296.06044 135439582.79744       770.27344        37.316    25773295.79141
 105537331.22341       600.20741        30.287  
  25482878.96644 133913452.45044      3758.11344        37.616    25482879.97343
 104348132.56243      2928.39843        36.655  
  25824474.64446 135708530.81446     -2959.53146        41.565    25824472.61841
 105746898.15641     -2306.12941        27.379  
  20136966.89249  97799322.49949      -991.66049        51.767    20136966.64148
  76184898.82548      -772.72748        46.769  
  24575561.52647 121124243.91447     -2811.35947        44.398    24575561.89443
  94360132.25343     -2190.67243        34.724  
  20439200.97849 107408779.00749       371.23849        50.900    20439198.75648
  83695164.33748       289.27348        47.572  
  21194019.52208 113333995.54908      2055.26208        46.471    21194023.25205
  88148716.24405      1598.53505        39.851  
  19262675.02609 102861635.05809      -124.81209        49.337    19262680.15508
  80003554.59208       -97.08208        45.687  
  23928356.40205 128090369.81105      1525.80905        41.004    23928357.16403
  99625944.06103      1186.73803        35.704  
  22845729.43006 121952040.93806     -3352.12906        42.669    22845735.58206
  94851612.47106     -2607.21906        42.782  
  19707077.59309 105419609.45209     -1200.36709        48.437    19707079.65106
  81993052.97306      -933.62106        42.088  
 09 07 27 08 49  0.0000000  0 18G13G25G07G16G11G06G22G18G08G21G03G23            
                                G19R24R13R07R22R23                              
  23881148.98047 125496296.27247     -2119.28547        43.817    23881149.76843
  97789311.43943     -1651.39143        34.652  
  21261415.43649 111729510.77149       831.41849        50.333    21261413.90847
  87061977.77347       647.85547        43.721  
  22102753.43849 116150767.65749      2294.05549        48.674    22102752.59047
  90507097.39247      1787.57047        43.825  
  22185215.92449 108562917.85749     -1814.90249        48.533    22185215.12845
  84572099.73745     -1414.21145        40.137  
  23844849.03346 125305552.92646      3743.78546        42.322    23844849.42042
  97640711.77142      2917.23042        34.201  
  21080126.38049 102755652.08849     -1629.10949        49.841    21080126.16947
  80046970.26047     -1269.44147        43.430  
  25102668.91045 131915396.91745      1683.23445        40.448    25102668.78642
 102791233.27242      1311.60542        33.881  
  25768934.93444 135416668.88544       758.44944        38.511    25768935.52042
 105519476.20942       590.99642        34.294  
  25461432.04945 133800749.20245      3755.42645        39.079    25461433.40241
 104260311.89941      2926.29341        30.575  
  25841387.36547 135797408.19847     -2965.10247        43.783    25841386.60442
 105816153.24242     -2310.47342        32.422  
  20142659.13549  97829234.93449     -1002.07849        51.656    20142658.77148
  76208207.20348      -780.84448        46.770  
  24591610.30546 121208579.55846     -2810.52746        41.843    24591610.44742
  94425848.29142     -2190.02342        33.246  
  20437118.90849 107397837.43649       358.69149        50.783    20437116.44849
  83686638.45149       279.50049        47.837  
  21182528.13808 113272546.73908      2041.65208        46.443    21182532.19105
  88100922.74005      1587.95305        40.425  
  19263452.44609 102865786.65209      -151.41809        49.438    19263457.73008
  80006783.59208      -117.77308        45.932  
  23919857.31606 128044874.62206      1507.73006        41.415    23919858.19104
  99590558.98604      1172.68004        37.001  
  22864565.76407 122052590.48307     -3351.20707        43.475    22864572.18507
  94929817.60307     -2606.49607        43.462  
  19713846.28209 105455815.86809     -1213.10909        48.226    19713848.01906
  82021213.51906      -943.53106        42.135  
 09 07 27 08 49 30.0000000  0 18G13G25G07G16G11G06G22G18G08G21G03G23            
                                G19R24R13R07R22R23                              
  23893282.11346 125560055.91046     -2129.48446        42.644    23893282.83543
  97838994.25243     -1659.34443        36.160  
  21256726.70249 111704871.42049       813.63349        50.574    21256725.26647
  87042778.26547       633.99647        43.904  
  22089705.77049 116082200.49049      2279.22749        48.916    22089704.85447
  90453668.43947      1776.01647        44.296  
  22195603.96849 108617506.07549     -1822.14549        48.845    22195602.82145
  84614635.98745     -1419.85545        39.866  
  23823492.32846 125193324.01046      3740.35546        42.971    23823493.05742
  97553260.74542      2914.56242        33.141  
  21089450.37949 102804649.49849     -1635.27749        50.058    21089450.28347
  80085150.04247     -1274.24647        43.544  
  25093086.61847 131865039.25047      1676.29747        43.503    25093086.23742
 102751993.59742      1306.20742        33.460  
  25764646.40243 135394135.78343       745.99643        35.998    25764647.61141
 105501917.93541       581.29741        22.897  
  25440007.33045 133688160.66845      3752.26645        39.058    25440008.38242
 104172580.63242      2923.85242        33.313  
  25858336.86247 135886478.61247     -2970.67647        43.748    25858336.06843
 105885563.73953     -2314.81643        35.224  
  20148414.64049  97859480.19149     -1012.11349        51.610    20148414.11048
  76231774.92848      -788.66448        46.775  
  24607657.73946 121292911.22346     -2809.33646        42.910    24607658.14943
  94491561.18843     -2189.09843        36.191  
  20435112.61149 107387293.54749       346.34849        50.799    20435109.76149
  83678422.44249       269.88349        47.788  
  21171117.05008 113211528.15408      2028.53108        46.362    21171121.37905
  88053463.86905      1577.74605        40.226  
  19264384.31609 102870762.55209      -178.11309        49.647    19264389.63708
  80010653.73508      -138.53508        45.821  
  23911463.93305 127999944.17505      1489.78505        39.049    23911465.08703
  99555613.13703      1158.71903        35.341  
  22883400.17706 122153129.22206     -3349.55906        42.786    22883406.42306
  95008014.51406     -2605.21506        42.403  
  19720689.04709 105492419.32909     -1225.18009        47.977    19720690.70206
  82049682.88006      -952.92206        42.139  
 09 07 27 08 50  0.0000000  0 18G13G25G07G16G11G06G22G18G08G21G03G23            
                                G19R24R13R07R22R23                              
  23905462.52647 125624065.63947     -2139.23447        43.750    23905463.80343
  97888871.92343     -1666.94143        35.812  
  21252129.34349 111680713.06149       795.68449        50.252    21252128.35147
  87023953.56047       620.00847        43.808  
  22076734.35849 116014033.25049      2264.04749        49.298    22076733.18147
  90400551.11947      1764.19147        43.957  
  22206023.31749 108672258.68849     -1829.43449        48.405    22206021.82145
  84657300.35245     -1425.53545        39.878  
  23802147.70546 125081157.03646      3736.10246        43.319    23802148.67141
  97465857.97341      2911.24641        32.169  
  21098801.00149 102853786.27749     -1641.65649        49.929    21098800.73846
  80123438.44146     -1279.21546        42.961  
  25083533.62046 131814836.56446      1669.14846        42.005    25083533.14143
 102712874.65843      1300.63743        34.769  
  25760416.30343 135371910.56343       733.94143        35.816    25760418.39144
 105484599.58244       571.89544        37.245  
  25418590.66045 133575614.18745      3749.32845        39.960    25418591.52641
 104084882.06241      2921.54741        31.764  
  25875308.10447 135975663.71547     -2976.06647        43.723    25875307.02343
 105955058.66743     -2319.00843        35.847  
  20154218.73349  97889981.12749     -1022.52349        51.616    20154218.14948
  76255541.88548      -796.77748        47.057  
  24623689.89246 121377161.16246     -2808.16846        42.795    24623690.18341
  94557210.42641     -2188.18841        31.969  
  20433167.61349 107377071.55649       333.85249        50.846    20433164.47848
  83670457.25948       260.14148        47.649  
  21159772.39808 113150863.14008      2014.73408        47.253    21159776.41705
  88006279.98305      1567.01205        40.298  
  19265456.43909 102876487.38309      -204.98809        49.873    19265461.58008
  80015106.37808      -159.43808        45.976  
  23903162.04105 127955504.51905      1471.55105        39.929    23903163.38203
  99521048.98703      1144.53903        36.480  
  22902217.73306 122253578.87206     -3348.32406        42.931    22902223.50606
  95086142.00906     -2604.25406        42.320  
  19727591.06809 105529341.09409     -1237.54309        48.007    19727592.92406
  82078399.80606      -962.53506        42.568  
 09 07 27 08 50 30.0000000  0 18G13G25G07G16G11G06G22G18G08G21G03G23            
                                G19R24R13R07R22R23                              
  23917704.75147 125688397.15047     -2149.52047        44.916    23917705.77244
  97939000.34344     -1674.95344        37.560  
  21247637.88149 111657111.51349       777.68449        50.093    21247637.42347
  87005562.73147       605.98447        44.143  
  22063853.54549 115946343.27049      2248.65249        48.862    22063852.10946
  90347805.68246      1752.19546        43.051  
  22216487.90049 108727251.14149     -1836.85949        47.962    22216486.59845
  84700151.57445     -1431.32445        39.739  
  23780829.75647 124969129.26047      3732.11747        44.413    23780830.36342
  97378563.65342      2908.14542        33.655  
  21108192.03049 102903136.00949     -1648.14149        49.695    21108191.46946
  80161892.76346     -1284.27046        42.398  
  25074024.37446 131764866.07446      1662.09046        42.124    25074024.07743
 102673936.62043      1295.13343        35.974  
  25756259.88744 135350069.52544       721.79744        36.990    25756261.86941
 105467580.72841       562.43441        31.665  
  25397196.52845 133463187.45345      3745.95345        40.832    25397197.15142
 103997276.86642      2918.92642        33.422  
  25892314.86346 136065035.54146     -2981.85946        41.202    25892313.41141
 106024699.02541     -2323.53541        31.658  
  20160085.55149  97920811.34049     -1032.86349        51.645    20160085.01848
  76279565.42348      -804.83248        46.781  
  24639720.57347 121461401.14147     -2807.48847        43.714    24639720.65143
  94622851.92143     -2187.65643        35.313  
  20431297.91649 107367245.25349       321.30549        50.914    20431294.60748
  83662800.39648       250.36348        47.363  
  21148508.28308 113090627.74208      2000.98408        47.738    21148512.20005
  87959430.25105      1556.32005        40.361  
  19266683.04109 102883037.47609      -231.89509        49.773    19266688.25008
  80020200.88008      -180.36708        45.994  
  23894966.73404 127911635.41604      1452.81604        38.037    23894967.61102
  99486928.57802      1129.96502        34.424  
  22921032.32206 122354014.35306     -3347.12106        43.062    22921038.40606
  95164258.53406     -2603.32006        41.899  
  19734566.34209 105566654.78809     -1249.98409        47.948    19734568.45306
  82107421.56806      -972.21506        42.678  
 09 07 27 08 51  0.0000000  0 18G13G25G07G16G11G06G22G18G08G21G03G23            
                                G19R24R13R07R22R23                              
  23930002.46948 125753019.70848     -2158.71948        45.631    23930002.96743
  97989355.54643     -1682.12143        35.862  
  21243247.45449 111634039.96349       760.51649        50.122    21243247.18947
  86987584.89547       592.60547        44.351  
  22051058.15249 115879104.88249      2234.02049        47.916    22051056.68446
  90295412.11846      1740.78946        42.865  
  22226992.27248 108782455.39848     -1843.30948        47.761    22226991.74845
  84743167.84445     -1436.34845        39.954  
  23759533.37847 124857214.73847      3728.94147        44.972    23759533.71142
  97291357.58442      2905.66842        32.308  
  21117617.88949 102952669.21849     -1653.88749        49.610    21117617.17446
  80200490.05946     -1288.74646        42.716  
  25064554.30346 131715102.94846      1655.47346        42.014    25064554.37843
 102635160.18543      1289.97743        35.982  
  25752172.26043 135328586.46743       709.99243        36.643    25752173.14842
 105450840.68142       553.25042        32.264  
  25375820.64645 133350855.27145      3742.83645        40.332    25375821.17041
 103909745.40541      2916.50441        27.700  
  25909351.31345 136154564.43245     -2986.43845        40.793    25909349.99242
 106094461.79842     -2327.09842        32.804  
  20166009.41549  97951941.66149     -1042.37149        51.670    20166008.97248
  76303822.80948      -812.24248        46.573  
  24655743.35247 121545600.00847     -2805.54347        43.700    24655743.42841
  94688461.36041     -2186.14141        31.380  
  20429497.74649 107357785.52949       309.59449        50.933    20429494.43148
  83655429.20748       241.24248        47.453  
  21137319.29208 113030793.82308      1988.14508        47.651    21137322.94005
  87912892.76005      1546.33205        40.989  
  19268059.00909 102890385.22109      -257.90209        49.948    19268064.34108
  80025915.78508      -200.59408        46.033  
  23886873.43705 127868310.95405      1435.46905        39.201    23886874.06503
  99453231.74703      1116.47703        35.265  
  22939838.90907 122454405.07207     -3345.45307        44.002    22939845.35406
  95242340.17106     -2602.02306        42.463  
  19741609.06009 105604329.38709     -1261.57009        48.187    19741611.48706
  82136724.05106      -981.22306        42.697  
 09 07 27 08 51 30.0000000  0 18G13G25G07G16G11G06G22G18G08G21G03G23            
                                G19R24R13R07R22R23                              
  23942354.79647 125817930.00447     -2168.30947        45.342    23942354.74243
  98039934.97443     -1689.59443        35.846  
  21238958.37449 111611499.55649       742.39549        50.498    21238957.95847
  86970020.92847       578.48447        44.062  
  22038349.25049 115812321.08449      2218.43849        48.467    22038348.07847
  90243372.80947      1728.65247        43.615  
  22237537.82449 108837871.98849     -1850.76649        48.723    22237537.45945
  84786349.56345     -1442.15645        40.266  
  23738258.85846 124745416.31946      3724.53546        42.972    23738259.14542
  97204241.98942      2902.23442        32.974  
  21127078.37249 103002384.72549     -1660.35949        49.794    21127077.94147
  80239229.41647     -1293.78547        43.363  
  25055124.47446 131665550.05146      1648.37546        41.212    25055124.55544
 102596547.54144      1284.44144        38.084  
  25748153.41944 135307463.30844       698.12144        38.539    25748153.18042
 105434381.11042       543.99242        33.664  
  25354463.07846 133238620.59446      3739.52046        41.475    25354463.82142
 103822289.82442      2913.91442        32.563  
  25926417.65343 136244249.89343     -2991.76243        35.233    25926416.73841
 106164346.54441     -2331.24241        25.626  
  20171990.11749  97983370.85149     -1052.66849        51.560    20171989.73548
  76328313.07848      -820.26648        47.077  
  24671757.78646 121629755.33246     -2804.74646        42.558    24671757.72843
  94754036.87443     -2185.52343        36.294  
  20427767.25649 107348691.76249       296.99249        50.985    20427763.93649
  83648343.16449       231.42249        47.882  
  21126205.21908 112971361.56608      1974.26208        47.078    21126208.70005
  87866667.69205      1535.53505        40.364  
  19269584.41409 102898531.29809      -284.87909        49.702    19269589.96508
  80032251.60808      -221.57808        45.758  
  23878882.41105 127825534.03505      1416.79705        39.156    23878883.07003
  99419960.80203      1101.95303        36.284  
  22958636.83406 122554749.47206     -3344.22706        43.011    22958643.15506
  95320385.77506     -2601.07006        41.399  
  19748718.85609 105642362.84309     -1273.89109        48.048    19748721.37506
  82166305.63906      -990.80906        42.519  
 09 07 27 08 52  0.0000000  0 17G13G25G07G16G11G06G22G18G08G03G23G19            
                                R24R13R07R22R23                                 
  23954770.61748 125883174.37048     -2178.35548        45.663    23954770.41644
  98090774.72544     -1697.41844        36.833  
  21234780.08749 111589540.33949       724.46949        50.493    21234779.29547
  86952909.84047       564.51647        44.396  
  22025737.18049 115746043.28649      2203.00849        48.825    22025736.29247
  90191727.76247      1716.62547        44.116  
  22248133.60949 108893550.35949     -1858.05149        49.070    22248132.65445
  84829735.28245     -1447.83645        39.938  
  23717015.99547 124633785.13547      3720.50447        43.522    23717016.42342
  97117256.70342      2899.09442        33.927  
  21136582.68549 103052330.56549     -1666.52049        49.526    21136582.66947
  80278148.23747     -1298.59047        43.838  
  25045744.37546 131616258.89246      1640.82846        41.921    25045744.25742
 102558138.87842      1278.56642        34.444  
  25744212.52144 135286750.27244       685.75844        38.640    25744211.76942
 105418241.05642       534.35242        33.652  
  25333133.96245 133126535.19445      3735.96145        40.201    25333133.79041
 103734950.48641      2911.13741        31.083  
  20178036.78049  98015146.77349     -1062.80549        51.420    20178036.47848
  76353073.53148      -828.16448        46.770  
  24687772.83046 121713913.19946     -2803.04346        42.709    24687772.28643
  94819614.38643     -2184.19143        34.812  
  20426115.83249 107340012.30349       284.58249        51.148    20426112.45449
  83641579.95149       221.75449        48.038  
  21115175.21508 112912380.09208      1960.87908        46.994    21115178.34505
  87820793.22605      1525.12905        40.314  
  19271268.84809 102907526.13909      -311.66009        49.749    19271274.15008
  80039247.58708      -242.40608        45.595  
  23871003.79905 127783358.75005      1398.45705        39.806    23871004.34103
  99387157.83003      1087.68803        35.329  
  22977435.35507 122655095.94207     -3342.74607        44.567    22977441.41406
  95398433.00206     -2599.91806        42.501  
  19755904.83509 105680802.51309     -1285.85509        48.284    19755906.95806
  82196203.15706     -1000.11306        42.541  
 09 07 27 08 52 30.0000000  0 17G13G25G07G16G11G06G22G18G08G03G23G19            
                                R24R13R07R22R23                                 
  23967232.13747 125948660.22447     -2187.94147        44.806    23967232.11544
  98141802.63844     -1704.89544        37.816  
  21230695.39249 111568073.94249       706.25049        50.225    21230694.40147
  86936182.76147       550.32047        44.555  
  22013204.98949 115680184.65549      2187.35949        48.736    22013204.29647
  90140409.34247      1704.43447        44.589  
  22258761.94749 108949401.15849     -1865.58649        48.122    22258760.73645
  84873255.37145     -1453.70745        40.304  
  23695788.78147 124522234.60447      3716.04747        44.200    23695788.92443
  97030334.34643      2895.62543        35.296  
  21146113.50649 103102415.84549     -1672.94149        49.507    21146113.65947
  80317175.72347     -1303.59447        43.366  
  25036398.02046 131567142.82146      1633.20346        41.827    25036397.31742
 102519866.63742      1272.62142        34.358  
  25740332.42845 135266359.02545       673.26645        39.013    25740331.27241
 105402351.63041       524.61341        31.809  
  25311816.65645 133014512.52545      3732.26645        40.750    25311816.07541
 103647660.13341      2908.25841        29.106  
  20184132.14349  98047178.54049     -1072.96549        51.458    20184131.91948
  76378033.34348      -836.07848        46.739  
  24703770.63246 121797981.33546     -2801.81646        42.435    24703769.98144
  94885121.95544     -2183.24244        37.084  
  20424525.99049 107331656.59249       272.10949        51.011    20424522.59249
  83635069.02049       212.03549        48.006  
  21104212.63208 112853758.79308      1947.00808        47.145    21104216.14605
  87775198.90605      1514.34005        40.520  
  19273095.28209 102917279.20709      -338.79309        49.932    19273100.43608
  80046833.30308      -263.50808        45.841  
  23863221.17305 127741695.93405      1379.44105        40.993    23863221.59303
  99354753.40903      1072.89803        36.237  
  22996217.13807 122755352.23307     -3341.27707        43.623    22996223.82806
  95476410.01806     -2598.77706        41.931  
  19763149.34109 105719554.86109     -1297.93409        48.282    19763151.04106
  82226343.86506     -1009.50806        42.570  
 09 07 27 08 53  0.0000000  0 17G13G25G07G16G11G06G22G18G08G03G23G19            
                                R24R13R07R22R23                                 
  23979748.02847 126014431.19847     -2196.99647        44.217    23979748.09343
  98193052.72643     -1711.94943        36.111  
  21226713.34849 111547148.06849       688.48849        50.279    21226712.16247
  86919876.87647       536.48047        43.820  
  22000761.53849 115614794.37849      2171.84049        48.285    22000761.08246
  90089455.88346      1692.34446        43.190  
  22269431.55249 109005471.59749     -1872.63349        48.031    22269430.49445
  84916946.59745     -1459.19945        39.498  
  23674586.15647 124410813.42247      3711.84847        44.274    23674585.92942
  96943512.70042      2892.35242        33.535  
  21155679.49849 103152686.11549     -1678.68849        49.547    21155679.61146
  80356347.35646     -1308.07046        43.012  
  25027094.72846 131518251.33146      1626.00846        43.019    25027093.73242
 102481769.39042      1267.02042        33.582  
  25736522.65744 135246339.78244       661.24244        38.872    25736523.25642
 105386752.33242       515.25442        33.884  
  25290520.50545 132902601.16245      3728.66845        39.452    25290519.87841
 103560455.99841      2905.43441        26.697  
  20190284.89449  98079511.43049     -1082.80949        51.481    20190284.68948
  76403227.79948      -843.75048        46.576  
  24719759.39846 121882003.60346     -2799.87546        41.409    24719759.14043
  94950593.79543     -2181.72743        35.037  
  20423006.09949 107323670.12449       260.01649        50.767    20423002.69048
  83628845.81348       202.60948        47.586  
  21093326.24608 112795545.09208      1933.78908        47.037    21093330.29505
  87729921.58905      1504.05505        40.800  
  19275072.61609 102927838.42809      -365.48809        50.018    19275077.91208
  80055046.02708      -284.27308        45.709  
  23855543.84205 127700596.75305      1360.42605        39.921    23855543.91103
  99322787.40003      1058.10903        35.698  
  23014990.07006 122855564.15106     -3339.71906        42.796    23014996.84705
  95554352.53705     -2597.55905        41.102  
  19770460.63009 105758665.05609     -1309.57409        48.382    19770462.24606
  82256762.90806     -1018.55906        42.444  
 09 07 27 08 53 30.0000000  0 17G13G25G07G16G11G06G22G18G08G03G23G19            
                                R24R13R07R22R23                                 
  23992316.79847 126080480.98947     -2206.23447        45.330    23992317.07744
  98244520.03444     -1719.14544        36.690  
  21222833.65549 111526760.43449       670.75449        49.961    21222832.41247
  86903990.39247       522.66047        44.244  
  21988406.77849 115549871.43549      2156.19549        48.207    21988406.45646
  90038866.56646      1680.14846        43.130  
  22280142.34448 109061758.63648     -1879.89548        47.649    22280141.23845
  84960806.59945     -1464.85545        40.193  
  23653407.65747 124299520.69047      3707.44147        43.702    23653407.41941
  96856791.16941      2888.91841        32.174  
  21165279.86549 103203136.72949     -1684.49249        49.160    21165279.91247
  80395659.51447     -1312.59447        43.766  
  25017833.89346 131469583.49046      1618.57446        42.725    25017833.34843
 102443846.42943      1261.22343        34.568  
  25732783.21845 135226689.66645       648.88745        39.808    25732783.80041
 105371440.33141       505.61741        31.941  
  25269246.33145 132790802.38345      3724.93445        39.172    25269245.15441
 103473340.10841      2902.55941        29.030  
  20196494.12449  98112141.04249     -1092.41849        51.484    20196493.99648
  76428653.46348      -851.23848        46.560  
  24735738.31247 121965973.89947     -2797.97747        43.379    24735737.88043
  95016025.12143     -2180.24643        35.145  
  20421555.58749 107316049.28649       247.93449        50.738    20421552.40249
  83622907.51649       193.19549        47.900  
  21082515.38408 112737735.87708      1920.38708        46.494    21082519.88505
  87684958.90305      1493.63305        40.698  
  19277200.47809 102939200.79109      -391.97709        49.665    19277205.76108
  80063883.40408      -304.87508        45.780  
  23847970.96805 127660060.05605      1342.19105        40.317    23847971.39203
  99291258.89703      1043.92603        36.325  
  23033753.80706 122955726.87606     -3337.85506        42.607    23033760.09105
  95632256.90105     -2596.11305        40.839  
  19777837.58309 105798127.12009     -1321.19109        48.148    19777839.49506
  82287455.63106     -1027.59406        42.991  
 09 07 27 08 54  0.0000000  0 17G13G25G07G16G11G06G22G18G08G03G23G19            
                                R24R13R07R22R23                                 
  24004938.04748 126146806.45048     -2215.08248        45.591    24004938.32143
  98296202.19543     -1726.03943        35.277  
  21219056.44849 111506911.92749       652.92649        49.700    21219055.35947
  86888524.01747       508.77047        44.280  
  21976141.76749 115485418.27749      2140.98049        48.402    21976141.19447
  89988643.31347      1668.29347        43.344  
  22290894.72849 109118262.81249     -1886.61349        48.039    22290893.52145
  85004835.80145     -1470.09445        39.509  
  23632254.11547 124188358.98047      3703.46547        44.265    23632254.25242
  96770171.69442      2885.81642        32.227  
  21174914.38949 103253766.26449     -1690.15649        49.164    21174914.32947
  80435111.08647     -1317.00847        43.610  
  25008615.80646 131421142.10446      1611.30146        41.752    25008615.09543
 102406099.96043      1255.56243        35.059  
  25729114.75944 135207410.46544       637.00844        38.837    25729115.22142
 105356417.23642       496.35942        34.365  
  25247993.66545 132679117.51645      3721.22345        40.138    25247992.28341
 103386307.69751      2899.66841        26.432  
  20202759.61149  98145066.17349     -1101.97749        51.487    20202759.48448
  76454309.39948      -858.68848        46.666  
  24751706.85846 122049889.26146     -2795.83646        42.663    24751706.56842
  95081413.66642     -2178.57842        33.256  
  20420174.65149 107308792.92849       236.13749        50.828    20420171.55749
  83617253.22049       184.00049        48.001  
  21071779.98608 112680330.34008      1907.05908        46.663    21071784.65506
  87640310.18406      1483.27006        41.166  
  19279478.74609 102951366.60709      -418.50009        49.668    19279483.90808
  80073345.69608      -325.50408        45.929  
  23840503.62405 127620089.18705      1323.30905        39.616    23840504.62204
  99260170.53404      1029.23804        36.902  
  23052507.76306 123055838.57806     -3335.93006        41.888    23052514.90406
  95710121.54706     -2594.61706        41.264  
  19785279.72309 105837938.67309     -1332.50009        48.225    19785282.00706
  82318420.19406     -1036.39106        43.003  
 09 07 27 08 54 30.0000000  0 17G13G25G07G16G11G06G22G18G08G03G23G19            
                                R24R13R07R22R23                                 
  24017609.72747 126213397.50647     -2224.63747        45.132    24017609.91943
  98348091.30643     -1733.48843        35.018  
  21215380.69349 111487596.73249       634.65249        49.614    21215379.89147
  86873473.20747       494.53147        44.463  
  21963965.43649 115421430.67549      2124.85249        48.595    21963964.82347
  89938782.83747      1655.72747        43.641  
  22301687.29149 109174976.66549     -1894.39849        48.197    22301685.98545
  85049028.38245     -1476.16045        39.963  
  23611124.67447 124077323.79347      3698.75847        45.201    23611124.85343
  96683650.83043      2882.14843        34.993  
  21184581.52949 103304566.91049     -1696.55149        49.633    21184581.39846
  80474695.99446     -1321.99246        43.226  
  24999439.74246 131372923.09246      1603.47346        41.743    24999439.35643
 102368526.69943      1249.45743        35.848  
  25725515.58044 135188497.62444       624.25044        37.334    25725517.09741
 105341680.02141       486.43841        23.887  
  25226761.90545 132567544.42845      3717.13745        40.166    25226760.26141
 103299368.30141      2896.46141        29.834  
  20209079.71649  98178278.27649     -1112.04749        51.398    20209079.55548
  76480188.95048      -866.53548        46.762  
  24767663.24546 122133739.98946     -2793.79346        43.058    24767662.47043
  95146751.90343     -2176.98443        34.521  
  20418861.78549 107301893.15649       223.69949        50.897    20418858.63649
  83611876.78449       174.30949        47.914  
  21061119.16208 112623321.68908      1893.48808        47.470    21061123.66605
  87595970.15305      1472.71505        40.620  
  19281906.26409 102964329.26009      -445.69509        50.094    19281911.47108
  80083427.74708      -346.65608        45.783  
  23833141.54405 127580680.58405      1303.91405        39.108    23833142.72503
  99229519.43503      1014.15203        35.860  
  23071250.49705 123155891.11505     -3334.53905        40.394    23071258.81706
  95787940.11906     -2593.53506        41.494  
  19792785.65309 105878090.49409     -1344.33209        48.748    19792787.76506
  82349649.37306     -1045.59406        42.760  
 09 07 27 08 55  0.0000000  0 17G13G25G07G16G11G06G22G18G08G03G23G19            
                                R24R13R07R22R23                                 
  24030333.30847 126280262.16247     -2233.30947        45.119    24030333.69143
  98400193.64043     -1740.24243        35.014  
  21211808.70249 111468826.55149       616.56249        49.837    21211808.10247
  86858847.08647       480.43447        44.570  
  21951880.14849 115357921.98049      2108.88349        48.584    21951879.83846
  89889295.52046      1643.28146        43.147  
  22312522.02149 109231911.79149     -1901.58649        48.531    22312520.74845
  85093393.40145     -1481.75445        40.048  
  23590022.01947 123966428.28747      3694.16447        44.059    23590022.12842
  96597238.78942      2878.56642        34.334  
  21194283.13149 103355547.97649     -1702.34849        49.953    21194282.83847
  80514421.49447     -1326.50847        43.761  
  24990308.53746 131324939.74846      1595.47746        41.621    24990308.74942
 102331137.08542      1243.22342        33.815  
  25721988.57945 135169963.46645       611.59845        40.227    25721990.46341
 105327238.20641       476.58241        32.111  
  25205553.52246 132456094.52346      3712.75446        41.481    25205551.77642
 103212524.33442      2893.06242        32.487  
  20215456.27849  98211787.35049     -1121.89849        51.492    20215456.16948
  76506299.90448      -874.21148        46.428  
  24783608.65147 122217534.20947     -2792.20347        44.292    24783607.99142
  95212046.09242     -2175.74242        33.258  
  20417618.59449 107295359.96849       211.66849        50.827    20417615.26449
  83606785.98349       164.93449        48.007  
  21050534.76708 112566720.85708      1880.01208        47.289    21050538.60905
  87551947.30905      1462.23005        40.616  
  19284485.18209 102978100.21709      -472.50409        49.874    19284490.40008
  80094138.48108      -367.50808        45.801  
  23825886.89304 127541847.02504      1284.50404        38.264    23825888.44403
  99199315.63503       999.06203        36.413  
  23089984.25506 123255893.67006     -3332.57806        41.423    23089992.23005
  95865719.84905     -2592.00805        40.252  
  19800356.88309 105918590.94109     -1355.83609        48.741    19800358.62906
  82381149.71206     -1054.54306        42.301  
 09 07 27 08 55 30.0000000  0 17G13G25G07G16G11G06G22G18G08G03G23G19            
                                R24R13R07R22R23                                 
  24043107.06747 126347390.62447     -2242.13347        44.489    24043107.96443
  98452501.48243     -1747.11743        35.137  
  21208339.25549 111450595.38849       598.58249        49.784    21208338.87047
  86844640.98047       466.42247        43.778  
  21939885.03249 115294887.41749      2093.19149        48.724    21939884.90946
  89840177.69046      1631.05546        42.807  
  22323397.42949 109289061.53649     -1908.70749        47.926    22323396.24145
  85137925.64845     -1487.30945        39.549  
  23568944.90047 123855667.76547      3689.59847        44.402    23568944.74342
  96510931.86742      2875.00442        33.735  
  21204017.55649 103406701.43249     -1708.10249        49.993    21204017.11547
  80554281.32247     -1330.99247        43.854  
  24981221.87846 131277188.19946      1587.68046        43.277    24981221.64242
 102293928.04642      1237.14842        32.353  
  25718532.30744 135151802.07344       598.82444        38.787    25718533.80041
 105313086.75341       466.61741        28.936  
  25184368.08845 132344764.46945      3708.93445        40.809    25184366.41941
 103125773.67741      2890.06641        32.013  
  20221887.83649  98245585.10649     -1131.47349        51.493    20221887.65448
  76532635.81848      -881.67248        46.584  
  24799541.64047 122301262.30147     -2789.87947        43.359    24799540.97841
  95277288.73541     -2173.93041        23.388  
  20416443.45649 107289185.43949       199.75049        50.788    20416440.22448
  83601974.67448       155.64548        47.555  
  21040025.10508 112510520.51208      1866.53108        47.485    21040028.55405
  87508235.94005      1451.74605        40.644  
  19287214.08809 102992672.45109      -499.27309        50.030    19287219.42408
  80105472.43808      -388.32408        45.810  
  23818739.39905 127503585.48505      1265.63305        40.933    23818740.66504
  99169556.68804       984.37904        36.728  
  23108707.59605 123355838.10505     -3330.84005        40.995    23108715.19806
  95943454.38606     -2590.65606        41.555  
  19807991.50809 105959430.47009     -1366.95309        48.985    19807992.78406
  82412913.78906     -1063.19106        42.705  
 09 07 27 08 56  0.0000000  0 17G13G25G07G16G11G06G22G18G08G03G23G19            
                                R24R13R07R22R23                                 
  24055931.12147 126414781.86447     -2250.58247        45.132    24055932.09343
  98505014.09843     -1753.70343        35.374  
  21204972.90249 111432906.52249       580.66049        49.731    21204972.79847
  86830857.44247       452.45747        44.310  
  21927981.01749 115232331.86249      2077.19549        48.538    21927980.70446
  89791433.10346      1618.59446        42.791  
  22334313.75449 109346428.59749     -1916.02349        47.915    22334313.08845
  85182627.21345     -1493.00845        39.826  
  23547894.25747 123745047.44647      3684.89547        43.732    23547894.53343
  96424734.38943      2871.34843        34.594  
  21213784.90749 103458028.40649     -1713.72749        50.263    21213784.43147
  80594276.35647     -1335.37547        44.377  
  24972180.27247 131229673.43747      1579.85247        43.431    24972179.00943
 102256903.55243      1231.05543        34.927  
  25715147.43044 135134017.03644       586.39544        37.788    25715148.77742
 105299228.46042       456.93442        33.169  
  25163206.73346 132233559.96246      3704.69146        41.255    25163205.29142
 103039120.80742      2886.77042        33.839  
  20228374.56449  98279672.46549     -1141.05549        51.592    20228374.25048
  76559197.38948      -889.13748        46.579  
  24815462.02547 122384923.81947     -2787.36347        43.757    24815460.92442
  95342479.50442     -2171.97342        32.242  
  20415336.81649 107283370.96049       187.90249        50.803    20415333.82949
  83597443.92649       146.41849        47.808  
  21029590.72909 112454722.99809      1853.27009        47.942    21029594.02705
  87464837.88605      1441.43005        39.890  
  19290093.67409 103008048.85709      -525.92609        50.130    19290099.08208
  80117431.85308      -409.05508        45.676  
  23811699.99504 127465900.65004      1246.51604        37.669    23811700.34403
  99140246.28503       969.50803        35.518  
  23127420.06805 123455725.05205     -3328.94505        40.906    23127428.03806
  96021144.20706     -2589.18406        41.285  
  19815689.41109 106000609.50009     -1378.22309        48.811    19815691.05206
  82444941.90906     -1071.95306        42.652  
 09 07 27 08 56 30.0000000  0 17G13G25G07G16G11G06G22G18G08G03G23G19            
                                R24R13R07R22R23                                 
  24068805.11447 126482433.73047     -2259.44547        45.017    24068806.27943
  98557729.76343     -1760.60943        36.295  
  21201710.28649 111415761.77149       562.29349        49.561    21201710.34347
  86817497.88047       438.14547        44.844  
  21916168.90349 115170258.91049      2061.14849        48.613    21916168.05346
  89743064.57946      1606.08646        42.570  
  22345271.58448 109404014.05948     -1923.26248        47.629    22345270.98345
  85227498.99245     -1498.64545        39.381  
  23526871.14847 123634570.29047      3680.30147        44.884    23526871.41042
  96338648.35442      2867.76642        32.758  
  21223585.28749 103509528.67549     -1719.46949        50.238    21223584.69747
  80634406.42647     -1339.85247        44.449  
  24963184.29046 131182399.02846      1571.85246        43.185    24963182.95943
 102220066.42543      1224.82043        34.816  
  25711835.06944 135116611.03944       573.99644        37.413    25711835.50041
 105285665.28841       447.25041        31.996  
  25142069.51745 132122484.73845      3700.63345        40.576    25142068.38541
 102952568.74441      2883.59441        27.928  
  20234916.31049  98314048.97149     -1150.61349        51.446    20234915.97448
  76585984.26748      -896.58648        46.903  
  24831369.35746 122468516.88546     -2785.38746        41.827    24831368.22643
  95407616.94743     -2170.43443        34.590  
  20414298.79549 107277916.69749       175.98049        50.519    20414296.11849
  83593193.85249       137.12949        48.135  
  21019231.99308 112399329.34308      1839.79708        47.564    21019235.19205
  87421753.94205      1430.94905        40.413  
  19293123.94409 103024230.15909      -552.82809        49.692    19293129.21708
  80130017.30208      -429.98008        45.818  
  23804768.43404 127428796.99104      1226.86304        37.917    23804768.64903
  99111387.85503       954.22303        35.572  
  23146121.31106 123555553.94206     -3326.74206        42.023    23146129.39106
  96098788.84006     -2587.57006        41.261  
  19823450.64909 106042126.44909     -1389.40209        48.687    19823452.61506
  82477232.87206     -1080.64506        42.846  
 09 07 27 08 57  0.0000000  0 17G13G25G07G16G11G06G22G18G08G03G23G19            
                                R24R13R07R22R23                                 
  24081727.10347 126550338.67847     -2267.91447        44.309    24081727.86344
  98610642.67244     -1767.21144        36.678  
  21198550.76049 111399157.33749       544.36749        50.079    21198550.71247
  86804559.35547       424.18447        44.330  
  21904448.31749 115108666.09549      2044.97749        48.674    21904447.02146
  89695070.15246      1593.48446        42.077  
  22356270.39049 109461813.83249     -1930.37949        48.153    22356269.47444
  85272537.74944     -1504.19544        38.736  
  23505875.27948 123524234.15748      3675.40248        46.567    23505875.37142
  96252672.17442      2863.94942        32.809  
  21233417.43249 103561196.39049     -1725.22349        50.264    21233416.87147
  80674666.97747     -1344.33247        44.559  
  24954233.87046 131135363.57046      1563.71546        43.301    24954231.82242
 102183415.41642      1218.48042        33.176  
  25708594.70844 135099581.07244       561.51244        38.203    25708594.52041
 105272395.15341       437.54341        27.154  
  25120956.82146 132011537.01146      3696.14146        41.388    25120956.32842
 102866115.99542      2880.10942        32.301  
  20241511.98549  98348709.11849     -1160.11349        51.465    20241511.56648
  76612992.16148      -903.98848        46.458  
  24847261.78446 122552034.31146     -2782.70746        41.718    24847261.19541
  95472695.41341     -2168.34841        31.805  
  20413328.24249 107272816.80749       164.04749        50.441    20413325.70549
  83589219.92049       127.82849        48.192  
  21008947.58008 112344334.23008      1826.30908        46.927    21008950.58305
  87378979.98105      1420.46105        40.380  
  19296304.08109 103041212.21009      -579.52709        49.914    19296309.31408
  80143225.55008      -450.74208        45.912  
  23797944.35504 127392271.94704      1207.80104        37.184    23797945.41303
  99082979.45103       939.39103        35.714  
  23164811.03607 123655318.93807     -3324.41007        43.482    23164818.29406
  96176383.78706     -2585.65606        41.534  
  19831273.57009 106083973.85809     -1400.55909        48.861    19831275.75606
  82509780.85506     -1089.32806        42.884  
 09 07 27 08 57 30.0000000  0 18G13G25G07G16G11G06G22G18G08G03G23G19            
                                R24R13R07R08R22R23                              
  24094697.09247 126618497.97147     -2276.03147        43.931    24094697.99443
  98663753.77343     -1773.53543        34.592  
  21195495.14949 111383098.51949       526.34849        49.930    21195494.72847
  86792045.98247       410.13747        44.638  
  21892820.35649 115047560.24649      2028.96549        48.654    21892818.84846
  89647455.20146      1581.01246        41.726  
  22367311.18149 109519832.19149     -1937.34849        48.304    22367309.87745
  85317746.84145     -1509.62145        39.053  
  23484907.54448 123414045.92248      3670.59048        45.939    23484907.03443
  96166811.19943      2860.19543        34.462  
  21243281.88449 103613034.70549     -1730.58649        50.117    21243281.47447
  80715060.45547     -1348.51247        44.618  
  24945329.92346 131088573.09746      1555.60546        43.129    24945327.94643
 102146955.34043      1212.16443        34.998  
  25705427.04245 135082933.81045       548.84445        38.937    25705426.90841
 105259423.28641       427.66841        27.670  
  25099869.36546 131900723.87446      3691.56246        42.168    25099869.42143
 102779768.13643      2876.54343        35.187  
  20248162.17149  98383655.93949     -1169.48849        51.196    20248161.52248
  76640223.44348      -911.29348        46.481  
  24863140.49146 122635477.44546     -2780.10946        42.645    24863140.48241
  95537715.99941     -2166.32441        31.459  
  20412425.82249 107268075.00949       152.22349        50.286    20412423.33249
  83585525.02049       118.61349        47.834  
  20998738.40708 112289742.20908      1813.03108        47.029    20998741.56906
  87336519.55406      1410.13706        41.222  
  19299634.91809 103058999.38709      -606.11709        49.581    19299640.38508
  80157060.01308      -471.43008        45.895  
  23791230.17304 127356332.18804      1188.21104        37.711    23791231.91803
  99055026.34803       924.16403        36.354  
  24382746.78303 130568507.64613      3113.81203        34.593    24382752.50201
 101553383.13711      2421.85901        31.566  
  23183489.03706 123755022.87706     -3322.44506        42.398    23183496.41806
  96253931.23706     -2584.12906        42.380  
  19839158.76309 106126153.92609     -1411.46509        48.879    19839160.89806
  82542587.56806     -1097.80906        42.906  
 09 07 27 08 58  0.0000000  0 18G13G25G07G16G11G06G22G18G08G03G23G19            
                                R24R13R07R08R22R23                              
  24107714.64846 126686906.84446     -2284.23046        43.176    24107715.34443
  98717059.37443     -1779.92243        36.013  
  21192543.01149 111367584.18749       508.11749        49.796    21192542.36847
  86779956.88447       395.93047        44.424  
  21881284.99649 114986941.88649      2012.58649        48.324    21881283.61146
  89600220.11646      1568.25046        42.648  
  22378393.23449 109578067.91949     -1944.66049        48.080    22378392.03245
  85363125.33545     -1515.32445        38.992  
  23463967.78847 123304006.03347      3665.43447        45.529    23463966.93642
  96081065.80942      2856.18042        33.830  
  21253178.23349 103665040.51549     -1736.20349        50.506    21253177.94847
  80755584.45547     -1352.89147        44.516  
  24936472.54146 131042028.80046      1547.39546        41.295    24936471.27842
 102110687.08842      1205.76642        32.597  
  25702332.15345 135066668.42145       535.57445        39.790    25702331.45841
 105246749.00241       417.33241        24.415  
  25078807.96746 131790046.15946      3686.70346        42.344    25078808.26143
 102693525.69843      2872.75043        34.653  
  20254866.30149  98418886.51449     -1178.96549        51.380    20254865.56548
  76667675.83248      -918.68048        46.147  
  24879003.93645 122718841.72045     -2777.09845        40.736    24879004.49941
  95602675.12041     -2163.97341        29.482  
  20411591.05249 107263688.50949       140.40649        50.416    20411588.50549
  83582106.97349       109.40249        47.867  
  20988604.29208 112235550.73308      1799.72708        47.142    20988607.64306
  87294370.66206      1399.78906        41.206  
  19303116.14909 103077589.85509      -633.01609        49.432    19303121.91108
  80171519.24308      -492.34808        45.982  
  23784626.55404 127320979.66104      1168.47704        38.562    23784627.93204
  99027529.95504       908.81604        37.423  
  24365307.44506 130475128.20506      3111.08206        41.696    24365313.55404
 101480754.64604      2419.72304        38.430  
  23202155.10906 123854662.75506     -3320.15206        42.947    23202162.72306
  96331428.87006     -2582.34406        42.604  
  19847105.33309 106168662.45209     -1422.30109        48.829    19847107.45106
  82575649.75606     -1106.23806        43.296  
 09 07 27 08 58 30.0000000  0 18G13G25G07G16G11G06G22G18G08G03G23G19            
                                R24R13R07R08R22R23                              
  24120778.72047 126755560.67347     -2292.50047        44.117    24120780.01442
  98770555.80442     -1786.36742        34.101  
  21189694.34049 111352613.86849       489.88349        50.100    21189693.65647
  86768291.68247       381.72347        44.462  
  21869842.51649 114926812.23249      1996.08249        48.486    21869841.55946
  89553365.85546      1555.38746        42.343  
  22389515.65748 109636519.63848     -1952.07048        46.775    22389515.32545
  85408672.05845     -1521.09845        39.906  
  23443056.17747 123194115.87247      3660.37147        44.880    23443055.40142
  95995437.20742      2852.23842        32.765  
  21263106.05649 103717211.34849     -1741.76249        50.489    21263105.76347
  80796237.04347     -1357.21947        44.397  
  24927662.29746 130995732.05646      1539.05146        42.512    24927661.82543
 102074611.75743      1199.25443        35.590  
  25699309.91645 135050784.98645       522.63745        39.747    25699309.19442
 105234372.25942       407.23842        33.379  
  25057772.74245 131679505.40645      3682.56245        41.081    25057773.38441
 102607390.05241      2869.53541        31.721  
  20261623.96449  98454397.88649     -1188.40649        51.440    20261623.25448
  76695347.02748      -926.03548        46.241  
  24894851.67346 122802123.44846     -2774.73446        41.244    24894852.24941
  95667569.91741     -2162.13341        30.493  
  20410823.58349 107259654.47349       128.55549        50.736    20410820.77049
  83578963.57349       100.16849        47.803  
  20978545.08508 112181758.78208      1786.35208        47.233    20978548.38706
  87252532.48306      1389.37906        41.386  
  19306747.66609 103096982.15009      -659.85509        49.369    19306753.21707
  80186602.12907      -513.22707        45.555  
  23778132.58304 127286215.18404      1148.84004        38.193    23778133.51504
  99000491.13404       893.54304        37.157  
  24347887.71305 130381843.45205      3107.79305        40.221    24347893.64705
 101408199.83005      2417.16805        39.438  
  23220808.79306 123954235.76006     -3318.00406        42.613    23220816.19806
  96408874.47606     -2580.67206        41.732  
  19855112.53709 106211495.71509     -1433.17209        48.950    19855114.59306
  82608964.50906     -1114.69106        42.860  
 09 07 27 08 59  0.0000000  0 18G13G25G07G16G11G06G22G18G08G03G23G19            
                                R24R13R07R08R22R23                              
  24133889.81447 126824457.70247     -2300.82847        44.707    24133890.51942
  98824241.75442     -1792.85542        34.436  
  21186949.56849 111338189.58549       471.55949        50.003    21186948.92747
  86757051.96547       367.44547        44.951  
  21858493.98149 114867174.82349      1979.56649        48.725    21858493.07346
  89506895.13846      1542.51646        43.181  
  22400679.82248 109695188.83448     -1959.46548        47.566    22400679.79445
  85454388.29845     -1526.85545        39.575  
  23422173.57847 123084378.76947      3655.01647        44.233    23422173.23342
  95909927.82142      2848.05942        34.110  
  21273065.33549 103769547.29749     -1747.46149        50.821    21273064.92747
  80837018.29947     -1361.65647        44.505  
  24918900.15046 130949686.98146      1530.51646        42.798    24918899.88742
 102038732.52842      1192.60942        33.917  
  25696360.51744 135035285.96244       510.28144        38.240    25696359.48341
 105222295.10841       397.60941        29.859  
  25036764.29146 131569106.33146      3677.33646        42.230    25036765.54542
 102521364.88042      2865.46542        34.224  
  20268435.15049  98490190.51849     -1197.94149        51.449    20268434.41048
  76723237.39048      -933.46548        46.421  
  24910683.50545 122885320.99245     -2772.27345        41.019    24910684.15242
  95732399.13742     -2160.21542        33.579  
  20410123.44349 107255973.89949       116.57849        50.662    20410120.39949
  83576095.60449        90.83649        47.920  
  20968560.66508 112128367.32808      1772.79708        46.928    20968563.85505
  87211005.83005      1378.84405        40.917  
  19310529.56109 103117177.52109      -686.85909        49.638    19310534.94008
  80202309.62608      -534.22708        45.781  
  23771748.60004 127252042.37704      1129.05904        38.349    23771750.06504
  98973912.27304       878.14804        37.746  
  24330486.04005 130288658.64705      3104.34005        40.322    24330492.64505
 101335722.80005      2414.48405        39.430  
  23239449.87106 124053741.75906     -3315.94506        42.270    23239456.61805
  96486267.97705     -2579.07405        40.447  
  19863180.32609 106254652.79509     -1444.09409        48.731    19863182.38206
  82642531.12006     -1123.18806        42.878  
 09 07 27 08 59 30.0000000  0 18G13G25G07G16G11G06G22G18G08G03G23G19            
                                R24R13R07R08R22R23                              
  24147046.76047 126893595.33847     -2308.28947        44.948    24147047.12442
  98878115.18642     -1798.67242        33.689  
  21184308.86249 111324312.50149       453.59049        49.780    21184308.43447
  86746238.63947       353.44147        44.995  
  21847239.64949 114808032.54549      1963.35549        48.888    21847238.66546
  89460810.22846      1529.88346        42.772  
  22411886.00749 109754076.21149     -1966.32449        48.641    22411885.50844
  85500274.53844     -1532.20344        38.722  
  23401320.54647 122974797.59947      3650.30947        44.292    23401321.00143
  95824540.02943      2844.39843        35.140  
  21283055.93649 103822047.69649     -1752.46149        50.759    21283055.42847
  80877927.69747     -1365.55947        44.823  
  24910186.66747 130903896.53747      1522.35547        44.121    24910186.41242
 102003051.66742      1186.24642        34.292  
  25693484.52544 135020173.64344       497.72744        37.764    25693484.17642
 105210519.27842       387.83642        34.067  
  25015783.49546 131458851.80146      3673.06646        41.935    25015785.25443
 102435452.28643      2862.13343        35.749  
  20275299.47749  98526262.90549     -1206.85949        51.384    20275298.71548
  76751345.73048      -940.41448        46.373  
  24926499.16946 122968431.83546     -2768.62946        41.638    24926500.35042
  95797160.80042     -2157.37542        33.633  
  20409490.20449 107252645.77949       105.32049        50.618    20409487.12449
  83573502.26849        82.06249        48.030  
  20958651.05708 112075376.20708      1759.89508        46.859    20958654.13706
  87169790.52806      1368.80506        41.583  
  19314462.13309 103138176.39709      -713.29709        49.822    19314467.47808
  80218642.07108      -554.78508        46.018  
  23765475.69405 127218464.55905      1109.74205        39.548    23765477.80804
  98947796.11904       863.13304        38.492  
  24313103.93505 130195578.59605      3101.14505        40.687    24313110.94305
 101263327.25705      2411.99605        38.898  
  23258078.01306 124153179.93506     -3313.23806        42.618    23258084.05405
  96563608.70505     -2576.96905        40.258  
  19871308.18009 106298131.47509     -1454.24609        48.613    19871310.30406
  82676347.86306     -1131.08606        42.997  
 09 07 27 09 00  0.0000000  0 18G13G25G07G16G11G06G22G18G08G03G23G19            
                                R24R13R07R08R22R23                              
  24160248.82347 126962969.94247     -2316.31647        45.268    24160248.92943
  98932173.26043     -1804.92643        35.239  
  21181772.18649 111310982.68549       435.16849        49.796    21181771.97547
  86735851.75247       339.09047        45.183  
  21836079.62549 114749386.80049      1946.54749        48.119    21836078.88247
  89415112.21347      1516.78547        43.572  
  22423133.55148 109813181.56648     -1973.91048        47.013    22423132.59545
  85546330.64045     -1538.11345        39.786  
  23380497.57747 122865374.22447      3644.84447        43.697    23380498.61842
  95739275.16742      2840.14142        34.126  
  21293077.34749 103874710.56049     -1758.14849        50.629    21293076.88547
  80918963.67247     -1369.98847        45.365  
  24901522.25247 130858362.71047      1513.30547        44.773    24901521.70543
 101967570.78843      1179.19943        35.819  
  25690681.31544 135005448.84044       483.94944        36.770    25690681.78643
 105199045.44943       377.09043        34.445  
  24994830.63745 131348744.29345      3667.61345        40.506    24994832.58743
 102349654.36143      2857.87943        36.022  
  20282216.73549  98562613.73349     -1216.33649        51.248    20282216.16348
  76779671.04348      -947.79748        46.662  
  24942297.69547 123051452.58447     -2765.64147        43.462    24942298.67442
  95861852.20542     -2155.04742        33.739  
  20408923.63249 107249668.80749        93.39149        50.522    20408920.71849
  83571182.55149        72.77049        48.433  
  20948815.76108 112022784.81208      1746.50408        46.471    20948819.46906
  87128886.15706      1358.39106        41.310  
  19318545.06809 103159978.01609      -740.18409        49.817    19318550.30608
  80235598.88108      -575.69908        45.915  
  23759315.23105 127185484.06505      1089.52305        40.563    23759316.72305
  98922144.61205       847.40205        39.020  
  24295742.52405 130102606.84905      3097.00005        41.066    24295749.20305
 101191015.87105      2408.77305        39.157  
  23276693.43707 124252548.21507     -3310.95307        43.920    23276698.84005
  96640895.12105     -2575.19105        40.844  
  19879495.55109 106341928.71009     -1465.19109        48.693    19879497.81506
  82710412.38006     -1139.59806        43.065  
 09 07 27 09 00 30.0000000  0 18G13G25G07G16G11G06G22G18G08G03G23G19            
                                R24R13R07R08R22R23                              
  24173495.13147 127032578.16147     -2324.42247        45.367    24173495.02043
  98986413.41243     -1811.24243        35.059  
  21179339.89349 111298200.57549       416.71549        49.825    21179339.54247
  86725891.65847       324.70747        45.092  
  21825014.18649 114691239.77149      1929.66849        47.958    21825014.00447
  89369802.85847      1503.63347        43.555  
  22434422.14549 109872504.89549     -1981.28549        47.986    22434421.14144
  85592556.58244     -1543.86344        38.430  
  23359705.15947 122756110.58747      3639.08247        44.013    23359706.39743
  95654134.71843      2835.64843        35.689  
  21303129.41549 103927534.65449     -1763.70749        50.817    21303129.03747
  80960125.29547     -1374.32047        45.415  
  24892907.15347 130813087.77747      1504.63747        44.638    24892905.68142
 101932291.61942      1172.44142        34.347  
  25687952.39244 134991112.58144       471.00044        36.775    25687953.56143
 105187874.30343       367.00443        34.488  
  24973906.03446 131238786.41146      3662.57446        41.652    24973908.39241
 102263972.96441      2853.95341        30.836  
  20289186.63149  98599241.29249     -1225.74249        51.066    20289186.28848
  76808211.99448      -955.12548        46.579  
  24958078.76646 123134380.75646     -2762.96946        42.503    24958079.12141
  95926471.52041     -2152.96541        31.780  
  20408423.55449 107247041.60249        81.53949        50.408    20408420.89649
  83569135.38749        63.53549        48.046  
  20939055.26508 111970592.02208      1732.95308        46.998    20939059.00805
  87088291.76305      1347.85205        41.004  
  19322778.00509 103182581.75609      -766.99609        49.982    19322783.19607
  80253179.55707      -596.55507        45.538  
  23753266.84506 127153103.57906      1069.18806        41.974    23753268.00105
  98896959.87905       831.59405        39.019  
  24278402.53006 130009748.35906      3092.98806        42.484    24278408.47404
 101118792.55204      2405.65604        37.316  
  23295295.39106 124351845.00006     -3308.89106        42.708    23295300.75305
  96718125.92905     -2573.58605        39.618  
  19887741.97009 106386041.93209     -1475.82409        48.531    19887744.22806
  82744722.65606     -1147.86706        42.514  
 09 07 27 09 01  0.0000000  0 18G13G25G07G16G11G06G22G18G08G03G23G19            
                                R24R13R07R08R22R23                              
  24186785.36648 127102415.90148     -2331.56248        45.634    24186785.06842
  99040832.44242     -1816.80142        34.311  
  21177011.75649 111285966.09349       398.84849        49.919    21177011.24947
  86716358.29047       310.78547        45.483  
  21814044.30849 114633592.88349      1913.41449        48.505    21814044.37246
  89324883.20146      1490.96946        43.312  
  22445752.20448 109932045.56748     -1988.09048        46.609    22445751.69545
  85638951.86445     -1549.16445        40.801  
  23338943.87847 122647008.37247      3634.27747        45.428    23338944.77743
  95569120.02743      2831.90243        35.168  
  21313211.76049 103980517.88049     -1768.59449        50.680    21313211.49347
  81001410.91847     -1378.12947        44.999  
  24884341.27247 130768073.28547      1496.49647        43.794    24884339.32842
 101897215.41842      1166.09842        34.349  
  25685298.62244 134977165.06644       458.34844        38.787    25685299.92441
 105177005.71041       357.14141        31.433  
  24953010.52445 131128980.38945      3657.94945        41.040    24953012.88142
 102178409.88542      2850.35242        34.368  
  20296208.77049  98636143.22749     -1234.43049        51.161    20296208.32548
  76836966.74948      -961.89548        46.608  
  24973841.50946 123217212.72446     -2759.10546        43.201    24973841.26342
  95991015.83842     -2149.95742        33.801  
  20407989.62849 107244762.17749        70.44549        50.354    20407987.09549
  83567359.23049        54.89149        48.351  
  20929369.46308 111918797.36508      1720.07408        46.576    20929373.07106
  87048007.03706      1337.83606        41.602  
  19327161.04609 103205986.52609      -793.31209        49.852    19327166.14408
  80271383.26008      -617.02308        45.954  
  23747330.34106 127121323.88206      1049.36306        41.496    23747330.98004
  98872242.37104       816.17204        38.544  
  24261083.86006 129917006.11906      3089.63706        41.791    24261089.13904
 101046659.67404      2403.04304        37.777  
  23313883.17307 124451068.37707     -3306.02307        43.782    23313888.24305
  96795299.62505     -2571.35505        39.925  
  19896046.90609 106430467.92009     -1485.84409        47.805    19896049.11506
  82779276.19206     -1155.66006        42.315  
 09 07 27 09 01 30.0000000  0 18G13G25G07G16G11G06G22G18G08G03G23G19            
                                R24R13R07R08R22R23                              
  24200117.57847 127172478.14747     -2339.34047        44.307    24200117.66243
  99095426.36343     -1822.86743        35.109  
  21174787.60049 111274277.91049       380.32449        49.803    21174787.05947
  86707250.59747       296.35247        45.441  
  21803170.13449 114576446.61049      1896.51649        49.002    21803170.00146
  89280353.63746      1477.80146        42.757  
  22457123.68049 109991801.47949     -1995.61349        47.935    22457123.19345
  85685514.92045     -1555.02345        39.683  
  23318213.46047 122538068.12647      3628.41847        44.838    23318213.98243
  95484231.55843      2827.33643        35.500  
  21323323.67349 104033657.28249     -1774.07449        50.477    21323323.58847
  81042818.22847     -1382.39847        45.343  
  24875825.04847 130723320.36747      1487.37947        43.538    24875823.14944
 101862343.02644      1158.99644        36.786  
  25682719.55344 134963607.19144       445.09844        38.745    25682720.33841
 105166441.20641       346.83241        31.442  
  24932144.16045 131019327.16045      3652.47745        40.402    24932146.74843
 102092965.89743      2846.03943        35.854  
  20303282.58849  98673316.80349     -1243.78149        51.079    20303282.00348
  76865933.16948      -969.18448        46.674  
  24989584.57647 123299943.65347     -2755.86347        43.386    24989584.09042
  96055481.43742     -2147.43042        33.183  
  20407621.30949 107242827.57449        58.62149        50.225    20407618.71749
  83565851.75649        45.68049        48.350  
  20919757.55308 111867398.30308      1706.52008        46.062    20919761.45206
  87008030.02406      1327.29306        41.900  
  19331693.72409 103230190.26109      -820.20709        49.690    19331699.01008
  80290208.37008      -637.94108        46.009  
  23741506.36006 127090145.74506      1029.03906        42.333    23741506.27604
  98847992.72004       800.36304        38.233  
  24243787.51606 129824382.95306      3085.59806        42.861    24243792.44204
 100974619.46104      2399.91404        38.557  
  23332456.88407 124550214.81207     -3303.84807        43.477    23332461.30805
  96872413.48705     -2569.66405        40.495  
  19904409.42308 106475202.04008     -1496.42608        47.756    19904411.39606
  82814069.38206     -1163.89106        42.283  
 09 07 27 09 02  0.0000000  0 18G13G25G07G16G11G06G22G18G08G03G23G19            
                                R24R13R07R08R22R23                              
  24213492.72547 127242766.36647     -2346.72747        44.709    24213493.04243
  99150196.39343     -1828.62143        34.946  
  21172668.27349 111263141.20849       361.99249        49.915    21172667.88047
  86698572.63047       282.06647        45.222  
  21792392.28849 114519807.61649      1879.37549        48.746    21792391.97047
  89236219.33747      1464.44547        43.566  
  22468537.26349 110051777.46749     -2002.88349        47.996    22468536.09845
  85732249.40845     -1560.69145        39.267  
  23297514.79147 122429296.78347      3622.81247        44.421    23297515.55244
  95399474.74444      2822.97344        36.801  
  21333466.08749 104086956.13549     -1779.29349        50.773    21333465.93147
  81084349.79747     -1386.46147        44.545  
  24867359.54446 130678836.07546      1478.32846        43.178    24867358.36343
 101827679.96943      1151.94143        34.647  
  25680215.20646 134950444.11246       432.14146        41.293    25680215.63041
 105156184.39741       336.73441        31.381  
  24911308.24846 130909833.99746      3646.93846        41.386    24911310.44142
 102007646.54142      2841.77042        34.221  
  20310408.74049  98710765.10149     -1252.91849        51.084    20310408.20248
  76895113.65448      -976.30548        46.251  
  25005309.06947 123382575.48747     -2752.55947        43.549    25005308.21742
  96119869.79242     -2144.85942        33.917  
  20407319.43849 107241241.71049        46.97749        50.354    20407316.75548
  83564616.01848        36.60548        47.526  
  20910220.34808 111816399.01908      1693.34008        46.583    20910224.53706
  86968363.95106      1317.04306        42.045  
  19336376.77909 103255197.29909      -847.00809        49.709    19336382.10808
  80309658.27408      -658.78508        46.185  
  23735795.53505 127059576.50305      1009.12905        39.804    23735795.83804
  98824216.65504       784.87504        37.991  
  24226515.08906 129731887.50306      3080.87506        41.902    24226519.77304
 100902678.50404      2396.23004        38.600  
  23351016.61306 124649287.69106     -3301.26206        41.862    23351021.35905
  96949470.12005     -2567.65605        41.102  
  19912830.01909 106520247.03009     -1506.87509        47.926    19912832.07706
  82849104.37506     -1172.01606        42.634  
 09 07 27 09 02 30.0000000  0 18G13G25G07G16G11G06G22G18G08G03G23G19            
                                R24R13R07R08R22R23                              
  24226909.85447 127313276.27847     -2354.06647        44.046    24226910.78043
  99205139.09843     -1834.34043        34.747  
  21170653.85149 111252555.64649       343.46549        49.848    21170653.51147
  86690324.13047       267.63347        45.129  
  21781710.90749 114463677.36949      1862.47349        48.410    21781710.56647
  89192481.48347      1451.27347        43.666  
  22479992.20348 110111972.89748     -2010.20348        46.698    22479990.85745
  85779154.92745     -1566.39545        39.025  
  23276848.55647 122320695.58647      3617.18847        44.543    23276849.38443
  95314850.48943      2818.58643        35.469  
  21343638.62749 104140412.31149     -1784.54749        50.752    21343638.19747
  81126003.95747     -1390.55947        44.525  
  24858945.57847 130634621.92247      1469.07847        43.798    24858944.69644
 101793227.46144      1144.73444        36.671  
  25677785.49344 134937675.69944       419.02344        38.110    25677785.75841
 105146235.13741       326.50841        26.847  
  24890503.44546 130800503.21546      3641.50046        42.264    24890505.24443
 101922453.76543      2837.53143        36.090  
  20317586.76149  98748485.86549     -1261.93049        51.164    20317586.26848
  76924506.45248      -983.32448        46.280  
  25021013.90446 123465104.76746     -2749.64146        43.077    25021013.55242
  96184178.26242     -2142.58242        33.936  
  20407083.54749 107240002.46049        35.48449        50.279    20407080.95049
  83563650.36749        27.64549        47.923  
  20900758.02908 111765798.67008      1679.91008        46.947    20900762.00906
  86929008.13906      1306.59406        41.976  
  19341209.96509 103281006.01509      -873.68809        49.519    19341215.16208
  80329731.70708      -679.53908        46.001  
  23730198.58905 127029617.63205       988.37105        40.263    23730199.36004
  98800915.30204       768.73004        37.091  
  24209267.09505 129639523.76005      3076.59405        40.936    24209271.52704
 100830840.05004      2392.90604        38.612  
  23369561.61506 124748284.82406     -3298.70306        41.434    23369567.45306
  97026467.80806     -2565.66406        41.267  
  19921307.92408 106565599.13508     -1516.97308        47.666    19921310.38206
  82884378.23406     -1179.87106        42.794  
 09 07 27 09 03  0.0000000  0 18G13G25G07G16G11G06G22G18G08G03G23G19            
                                R24R13R07R08R22R23                              
  24240368.68647 127384002.11847     -2360.99647        44.449    24240368.93241
  99260250.15641     -1839.73841        32.141  
  21168743.96549 111242519.01449       325.49649        50.074    21168743.60847
  86682503.36447       253.62947        44.945  
  21771126.27449 114408055.33549      1845.75049        48.871    21771125.73246
  89149139.64246      1438.24246        42.979  
  22491487.81348 110172385.51248     -2017.44148        46.650    22491487.13345
  85826229.64045     -1572.03545        38.971  
  23256215.00447 122212264.32947      3611.77747        44.747    23256215.13941
  95230358.63541      2814.36741        31.744  
  21353840.17649 104194021.93649     -1789.45749        50.434    21353839.86147
  81167777.67147     -1394.38747        45.038  
  24850583.28846 130590677.72146      1460.35546        43.188    24850582.60243
 101758985.20943      1137.93443        35.126  
  25675430.21145 134925301.06945       405.84445        39.892    25675430.51041
 105136592.65141       316.23841        31.509  
  24869729.41546 130691334.78046      3636.30146        42.947    24869730.94242
 101837387.49042      2833.48042        32.934  
  20324815.95149  98786475.33749     -1270.65249        51.250    20324815.35748
  76954108.63948      -990.12148        46.460  
  25036698.03646 123547525.90946     -2745.27746        42.442    25036698.00342
  96248402.45742     -2139.18442        34.324  
  20406912.94149 107239105.90449        24.33649        50.439    20406910.42049
  83562951.76749        18.96149        48.206  
  20891369.60508 111715593.68508      1666.85508        46.016    20891373.44506
  86889959.82306      1296.44106        42.364  
  19346192.69909 103307613.49209      -900.10909        49.471    19346197.75108
  80350426.40108      -700.09008        45.743  
  23724715.94405 127000269.26905       968.10505        41.050    23724716.12904
  98778088.79204       752.96904        36.764  
  24192043.84906 129547293.23306      3072.03106        41.243    24192048.22305
 100759105.26105      2389.35905        40.112  
  23388091.69505 124847202.19005     -3295.66405        41.089    23388098.00705
  97103403.40005     -2563.29305        40.591  
  19929842.33509 106611253.30509     -1526.64509        47.803    19929845.28706
  82919887.02606     -1187.39506        42.625  
 09 07 27 09 03 30.0000000  0 18G13G25G07G16G11G06G22G18G08G03G23G19            
                                R24R13R07R08R22R23                              
  24253868.05047 127454942.07447     -2367.84447        44.423    24253868.19742
  99315528.02942     -1845.07442        32.894  
  21166938.78649 111233032.81849       307.38349        50.309    21166938.23347
  86675111.51347       239.51647        44.435  
  21760639.18249 114352944.27849      1828.83649        49.287    21760638.28947
  89106195.93047      1425.06247        43.537  
  22503025.25848 110233016.16548     -2024.09848        46.731    22503024.84045
  85873474.26445     -1577.22345        40.678  
  23235613.97747 122104006.23447      3605.95347        44.168    23235614.11541
  95146001.74241      2809.83241        32.006  
  21364070.75849 104247784.75649     -1794.28949        50.550    21364070.70547
  81209670.76647     -1398.14847        45.300  
  24842272.90946 130547007.09646      1451.35546        42.447    24842272.45643
 101724956.20443      1130.92243        35.801  
  25673150.85746 134913322.25546       393.13346        42.004    25673150.93142
 105127258.58242       306.34042        32.673  
  24848987.42446 130582332.84846      3630.77746        42.864    24848988.04842
 101752450.93242      2829.24642        34.266  
  20332096.16449  98824732.93749     -1279.32049        51.401    20332095.45048
  76983919.75048      -996.87548        46.365  
  25052361.48747 123629836.87247     -2741.29747        43.860    25052361.49943
  96312540.78243     -2136.07843        35.274  
  20406807.65549 107238551.86249        13.12949        50.729    20406805.00249
  83562520.05049        10.23049        47.947  
  20882054.65907 111665784.38607      1654.11307        45.338    20882059.06606
  86851219.30106      1286.53106        42.411  
  19351325.08209 103335019.79709      -926.44909        49.789    19351330.11408
  80371742.40008      -720.57408        45.983  
  23719348.10805 126971533.84605       948.05505        40.169    23719348.22504
  98755738.99304       737.37104        37.613  
  24174845.94705 129455200.81405      3067.56605        40.837    24174850.83505
 100687477.89405      2385.88705        39.632  
  23406607.09005 124946039.27405     -3292.84005        40.583    23406613.73905
  97180276.46105     -2561.11305        40.645  
  19938433.09909 106657207.87209     -1536.41409        48.195    19938436.26806
  82955629.47106     -1194.99206        42.808  
 09 07 27 09 04  0.0000000  0 18G13G25G07G16G11G06G22G18G08G03G23G19            
                                R24R13R07R08R22R23                              
  24267407.65347 127526092.68647     -2375.29747        43.823    24267407.73142
  99370970.01542     -1850.88742        34.253  
  21165238.52049 111224097.57449       288.59849        50.129    21165237.68147
  86668148.98447       224.87947        44.725  
  21750249.83949 114298346.68149      1811.17249        49.569    21750248.82146
  89063652.35146      1411.30546        43.293  
  22514604.86949 110293865.04949     -2031.94549        48.359    22514604.27944
  85920888.96244     -1583.34044        38.879  
  23215046.49247 121995923.56847      3599.70747        44.474    23215047.00944
  95061781.47544      2804.96544        36.756  
  21374330.37449 104301699.71049     -1799.74649        50.420    21374330.28747
  81251682.40847     -1402.39847        44.887  
  24834014.92546 130503612.26246      1441.78546        42.620    24834014.82843
 101691142.10043      1123.46943        34.950  
  25670947.22444 134901740.40644       379.53144        38.630    25670947.43941
 105118233.67441       295.73441        28.143  
  24828277.49846 130473500.56546      3624.56646        42.814    24828277.84044
 101667646.58244      2824.33244        38.132  
  20339427.17949  98863257.27049     -1288.63749        51.507    20339426.34648
  77013938.70948     -1004.13748        46.393  
  25068003.60647 123712035.67547     -2738.09447        43.800    25068003.51243
  96376591.70343     -2133.58643        35.588  
  20406767.37849 107238339.46449         1.24649        50.739    20406764.66949
  83562354.54449         0.96949        48.016  
  20872813.64308 111616370.49908      1640.40608        46.681    20872818.38106
  86812786.31806      1275.87106        42.512  
  19356607.07509 103363224.96509      -953.59009        49.862    19356612.01008
  80393679.74608      -741.68408        46.013  
  23714095.02706 126943413.90706       926.92606        41.623    23714095.41204
  98733867.95504       720.93804        38.199  
  24157675.11506 129363251.53406      3062.34006        41.906    24157680.04205
 100615961.83105      2381.81605        39.170  
  23425107.01206 125044795.75406     -3290.69106        41.389    23425115.20306
  97257087.17106     -2559.43006        42.182  
  19947079.61409 106703460.65209     -1546.93809        48.196    19947082.64906
  82991603.85206     -1203.17606        42.738  
 09 07 27 09 04 30.0000000  0 18G13G25G07G16G11G06G22G18G08G03G23G19            
                                R24R13R07R08R22R23                              
  24280986.47546 127597451.68946     -2382.34046        42.589    24280987.33043
  99426574.36943     -1856.37143        34.656  
  21163643.16849 111215714.42149       269.93449        50.116    21163642.42347
  86661616.64347       210.33247        45.015  
  21739958.80049 114244265.13649      1793.83649        49.703    21739957.73947
  89021510.89847      1397.78947        43.699  
  22526226.04848 110354933.43448     -2039.43848        46.667    22526225.35745
  85968474.69145     -1589.17645        40.263  
  23194513.29147 121888019.39447      3593.57847        45.178    23194513.84544
  94977700.31744      2800.18844        37.039  
  21384618.78149 104355766.33549     -1804.94949        50.263    21384618.66547
  81293812.23347     -1406.45747        44.524  
  24825810.17446 130460496.64246      1432.10946        41.895    24825809.86142
 101657545.53242      1115.92642        33.093  
  25668819.62744 134890557.84244       365.65244        38.738    25668818.93441
 105109520.01041       284.92641        27.223  
  24807600.20246 130364840.80046      3618.89146        41.518    24807600.26244
 101582976.66544      2819.91444        36.770  
  20346808.91549  98902048.03949     -1297.67249        51.483    20346808.04348
  77044165.28248     -1011.17648        46.532  
  25083623.60846 123794120.04546     -2734.34446        42.080    25083624.07542
  96440553.45342     -2130.66442        32.505  
  20406791.80049 107238468.11349       -10.36749        50.401    20406789.37349
  83562454.80649        -8.07849        48.032  
  20863647.69008 111567352.52208      1627.04708        47.536    20863651.68706
  86774661.22206      1265.47706        42.436  
  19362038.60709 103392228.87109      -980.30109        49.461    19362043.38208
  80416238.32908      -762.46108        45.743  
  23708957.58206 126915913.12306       905.97306        41.468    23708958.10505
  98712478.49305       704.64505        39.109  
  24140531.92105 129271450.11305      3057.39105        39.801    24140536.62505
 100544560.76105      2377.96905        39.947  
  23443591.94706 125143470.15206     -3288.04306        42.583    23443600.64705
  97333833.89605     -2557.37105        40.654  
  19955781.62009 106750010.12109     -1556.82009        47.894    19955784.36806
  83027808.98306     -1210.86306        42.415  
 09 07 27 09 05  0.0000000  0 18G13G25G07G16G11G06G22G18G08G03G23G19            
                                R24R13R07R08R22R23                              
  24294603.89846 127669014.77646     -2389.18046        41.617    24294605.26943
  99482337.75943     -1861.70343        34.668  
  21162152.69249 111207882.93149       251.53949        50.003    21162152.29148
  86655514.17348       196.00048        45.638  
  21729766.15649 114190701.09249      1776.58649        49.973    21729765.06947
  88979772.69947      1384.35247        43.896  
  22537888.20848 110416219.88748     -2046.84848        47.597    22537887.80345
  86016230.33945     -1594.94945        39.453  
  23174013.94247 121780295.32547      3587.43847        44.194    23174014.62444
  94893759.60044      2795.41044        37.210  
  21394935.76349 104409982.48649     -1809.94549        50.483    21394935.85347
  81336058.57047     -1410.35247        45.105  
  24817658.81147 130417662.11047      1422.93047        43.948    24817658.16643
 101624168.04243      1108.77743        35.187  
  25666767.47045 134879775.15145       352.44945        39.528    25666766.97741
 105101118.08741       274.64141        32.181  
  24786956.30146 130256355.91946      3612.66046        42.089    24786956.39841
 101498443.01441      2815.05941        31.692  
  20354240.86749  98941103.07849     -1306.46149        51.424    20354240.10448
  77074597.77248     -1018.02748        46.660  
  25099221.16947 123876086.38847     -2730.78147        43.547    25099222.23043
  96504423.22843     -2127.88743        34.555  
  20406880.64949 107238935.90449       -21.52349        50.385    20406878.55849
  83562819.32849       -16.77349        48.283  
  20854555.24408 111518728.83808      1613.85208        46.685    20854558.60306
  86736842.80506      1255.21506        41.952  
  19367619.28409 103422029.96109     -1006.84009        49.473    19367624.19208
  80439416.93008      -783.10208        45.649  
  23703936.08906 126889032.73306       885.26606        41.979    23703936.59104
  98691571.56304       688.53904        38.193  
  24123416.82605 129179800.32505      3052.23805        40.275    24123422.04805
 100473277.64505      2373.96505        39.268  
  23462061.68706 125242060.70206     -3285.22306        41.503    23462069.39405
  97410515.44705     -2555.17605        39.908  
  19964538.48108 106796852.60908     -1566.57808        47.635    19964540.83306
  83064242.02706     -1218.44906        41.826  
 09 07 27 09 05 30.0000000  0 18G13G25G07G16G11G06G22G18G08G03G23G19            
                                R24R13R07R08R22R23                              
  24308260.01246 127740780.56346     -2395.46546        42.694    24308262.16942
  99538259.06742     -1866.60242        33.738  
  21160767.67849 111200605.24749       233.52749        50.116    21160767.62947
  86649843.24747       181.96947        45.227  
  21719672.38649 114137658.58249      1759.53949        49.153    21719671.35347
  88938440.87347      1371.06647        43.341  
  22549592.33648 110477726.16548     -2053.57448        47.069    22549592.07545
  86064157.26645     -1600.19145        40.370  
  23153549.24747 121672754.97747      3581.71547        44.332    23153550.14744
  94809961.99344      2790.94544        37.367  
  21405281.38949 104464348.68949     -1814.43049        50.241    21405281.63447
  81378421.83347     -1413.84447        44.775  
  24809562.03047 130375112.61547      1413.95747        44.106    24809561.03342
 101591012.60842      1101.78542        33.978  
  25664791.29345 134869394.52445       339.41445        38.963    25664791.56441
 105093029.34541       264.48041        30.543  
  24766346.51446 130148050.63046      3607.37146        42.623    24766346.91844
 101414049.32244      2810.93844        36.806  
  20361723.08349  98980422.56449     -1314.85549        51.499    20361722.40848
  77105236.33048     -1024.56248        46.636  
  25114796.38346 123957933.81646     -2726.09446        42.336    25114796.90442
  96568200.31542     -2124.23842        32.742  
  20407034.28749 107239743.48449       -32.48449        50.551    20407032.27249
  83563448.61149       -25.31249        47.865  
  20845535.92908 111470500.72108      1601.16408        46.156    20845539.50106
  86699332.08306      1245.34806        41.616  
  19373349.47409 103452629.08209     -1033.06609        49.516    19373354.48407
  80463216.24807      -803.50007        45.500  
  23699031.95806 126862776.76806       864.83606        42.944    23699032.16004
  98671150.49804       672.65604        38.595  
  24106331.23406 129088308.04906      3047.18006        42.476    24106336.10705
 100402117.05605      2370.02705        40.324  
  23480515.06205 125340567.44205     -3281.68805        40.462    23480522.72205
  97487131.71505     -2552.43005        40.230  
  19973350.11009 106843987.73209     -1575.95709        47.931    19973351.92906
  83100902.66406     -1225.75006        41.525  
 09 07 27 09 06  0.0000000  0 18G13G25G07G16G11G06G22G18G08G03G23G19            
                                R24R13R07R08R22R23                              
  24321954.52146 127812744.25446     -2402.31646        43.058    24321956.58243
  99594334.67843     -1871.93443        35.003  
  21159487.91849 111193880.30349       214.57449        50.082    21159488.10347
  86644603.00547       167.19547        45.280  
  21709677.51749 114085137.94449      1741.62949        49.314    21709676.73247
  88897515.70947      1357.11347        43.461  
  22561338.37649 110539451.02949     -2061.45749        48.111    22561338.04545
  86112254.54045     -1606.33645        39.451  
  23133120.10947 121565399.66747      3575.07047        44.619    23133120.84143
  94726308.53243      2785.76643        36.336  
  21415654.94649 104518862.51449     -1819.76249        50.198    21415655.24547
  81420900.12247     -1418.00047        44.907  
  24801519.49747 130332849.20247      1403.69947        44.343    24801518.52142
 101558080.11942      1093.79342        34.086  
  25662891.79844 134859416.07744       325.80544        37.343    25662892.84742
 105085253.89742       253.86742        33.165  
  24745771.00846 130039926.43346      3600.75446        42.883    24745771.06742
 101329796.70942      2805.77342        33.887  
  20369255.16949  99020004.01349     -1324.04749        51.444    20369254.62548
  77136079.01248     -1031.73048        47.017  
  25130347.86745 124039658.27945     -2722.29745        40.740    25130348.19841
  96631881.55341     -2121.28541        23.986  
  20407252.03549 107240888.27149       -44.03949        50.048    20407249.91849
  83564340.66249       -34.31649        48.106  
  20836590.61708 111422666.38408      1587.72308        46.485    20836593.82305
  86662127.60205      1234.89105        41.035  
  19379228.71409 103484024.34309     -1060.16809        49.602    19379233.96208
  80487634.77208      -824.57808        45.612  
  23694243.76606 126837144.83606       843.79706        42.541    23694243.63604
  98651214.60104       656.28504        38.148  
  24089275.90406 128996976.34006      3041.39106        41.375    24089279.99905
 100331081.30605      2365.52705        39.663  
  23498952.65305 125438988.34905     -3279.31205        40.949    23498959.73705
  97563681.29205     -2550.58205        40.304  
  19982215.73508 106891411.44308     -1585.98808        47.630    19982217.19006
  83137787.77506     -1233.54706        41.611  
 09 07 27 09 06 30.0000000  0 18G13G25G07G16G11G06G22G18G08G03G23G19            
                                R24R13R07R08R22R23                              
  24335685.70246 127884901.45846     -2408.24646        42.901    24335687.54443
  99650560.97443     -1876.56243        36.101  
  21158313.26549 111187706.94649       196.76649        50.521    21158313.48547
  86639792.59147       153.32447        45.358  
  21699782.42449 114033139.53649      1724.66049        49.606    21699781.60947
  88856997.46547      1343.89147        43.815  
  22573126.10649 110601393.23749     -2068.13349        48.160    22573125.46145
  86160521.15445     -1611.53545        40.364  
  23112726.47347 121458230.03447      3569.66047        44.559    23112727.09243
  94642799.77443      2781.55543        35.832  
  21426056.11049 104573521.12049     -1824.18449        50.241    21426056.40047
  81463491.23047     -1421.44547        44.876  
  24793531.72847 130290872.71347      1394.73447        44.726    24793531.04442
 101525371.22542      1086.80542        33.030  
  25661068.80744 134849839.23444       312.55544        38.326    25661069.74542
 105077791.43342       243.54742        33.543  
  24725230.23746 129931984.84146      3595.07846        42.316    24725230.35941
 101245686.43841      2801.35941        27.729  
  20376836.53449  99059844.44949     -1332.19549        51.627    20376836.15148
  77167123.50748     -1038.07848        46.704  
  25145875.44046 124121255.60646     -2717.79346        41.756    25145874.98841
  96695463.80841     -2117.76241        31.317  
  20407533.41549 107242367.78449       -54.62549        50.118    20407531.34248
  83565493.53748       -42.56648        47.760  
  20827718.75208 111375223.41108      1575.15608        46.493    20827721.60406
  86625227.52606      1225.11706        41.638  
  19385256.47709 103516213.01209     -1085.98009        49.216    19385261.78208
  80512670.39208      -844.65608        45.647  
  23689572.53106 126812138.60106       823.31206        41.478    23689572.27704
  98631765.25204       640.35204        38.843  
  24072250.89405 128905808.18105      3036.46105        39.996    24072254.89505
 100260172.78605      2361.68805        39.962  
  23517373.83005 125537320.35505     -3276.11705        39.735    23517380.04805
  97640161.69405     -2548.09805        39.816  
  19991134.36608 106939119.76508     -1594.91408        47.185    19991135.91706
  83174894.22306     -1240.49206        41.867  
 09 07 27 09 07  0.0000000  0 18G13G25G07G16G11G06G22G18G08G03G23G19            
                                R24R13R07R08R22R23                              
  24349453.42247 127957247.90347     -2414.38747        44.659    24349454.61641
  99706934.79541     -1881.34441        30.497  
  21157243.49249 111182084.53049       178.36749        50.560    21157243.72247
  86635411.48447       138.98847        45.401  
  21689987.28849 113981664.64849      1707.35949        50.219    21689986.21147
  88816887.15747      1330.40647        43.769  
  22584954.85249 110663552.26849     -2075.45749        48.359    22584954.04345
  86208956.75445     -1617.24245        39.166  
  23092368.40847 121351247.40747      3562.94147        45.203    23092368.70943
  94559436.74643      2776.31643        34.592  
  21436484.52949 104628322.60449     -1828.89849        50.374    21436484.93147
  81506193.66847     -1425.11747        44.894  
  24785598.73447 130249184.80747      1384.89147        45.040    24785597.81942
 101492887.16742      1079.13342        32.434  
  25659323.62745 134840664.74445       299.35545        39.791    25659324.21041
 105070642.51141       233.26241        31.244  
  24704724.49446 129824227.84046      3589.29346        42.891    24704724.68241
 101161719.93441      2796.84841        29.761  
  20384466.83349  99099941.93549     -1340.72349        51.590    20384466.47948
  77198368.29948     -1044.71948        46.980  
  25161378.33844 124202722.02144     -2713.23444        38.819    25161377.89441
  96758944.06041     -2114.20741        28.915  
  20407878.23649 107244179.91349       -65.73049        50.496    20407876.24249
  83566905.58549       -51.22349        47.815  
  20818919.29007 111328170.45007      1562.27007        45.464    20818922.59506
  86588630.81106      1215.09806        41.765  
  19391432.49309 103549193.88209     -1112.31609        49.266    19391438.02108
  80538322.15708      -865.14108        45.588  
  23685017.45205 126787758.09905       802.38305        41.010    23685018.13205
  98612802.67105       624.07005        39.610  
  24055256.68205 128814806.78605      3030.74605        39.523    24055261.13705
 100189394.01705      2357.24605        39.693  
  23535777.14205 125635561.44705     -3273.12505        40.090    23535783.98505
  97716571.36205     -2545.77005        41.071  
  20000105.51108 106987109.71008     -1604.18408        47.165    20000107.51106
  83212219.73906     -1247.69906        42.171  
 09 07 27 09 07 30.0000000  0 19G13G25G07G16G11G06G22G18G08G03G23G19            
                                R24R13R07R08R22R17R23                           
  24363256.49447 128029781.27847     -2421.09047        44.351    24363256.50943
  99763454.23843     -1886.56643        35.485  
  21156278.68649 111177014.20849       159.55149        50.423    21156279.12647
  86631460.57847       124.32047        45.404  
  21680292.35749 113930716.12949      1689.27349        50.033    21680291.05747
  88777187.00347      1316.31647        43.696  
  22596824.49248 110725928.72448     -2083.08248        47.566    22596823.85144
  86257561.74744     -1623.18444        38.450  
  23072046.68948 121244454.53148      3556.44148        46.391    23072046.58143
  94476221.54143      2771.25443        36.570  
  21446940.08049 104683266.45649     -1834.10949        50.362    21446940.56347
  81549007.04147     -1429.18047        45.458  
  24777721.69047 130207788.84947      1374.66447        45.300    24777720.43543
 101460630.57543      1071.16443        34.616  
  25657655.56545 134831894.04345       285.64845        39.902    25657655.08841
 105063808.22141       222.57841        31.531  
  24684255.00946 129716659.08746      3582.26646        42.798    24684255.36542
 101077900.11942      2791.44142        32.550  
  20392145.82549  99140295.55749     -1349.63349        51.490    20392145.51848
  77229812.66848     -1051.66448        46.775  
  25176855.59845 124284055.97745     -2709.37145        39.679    25176855.01941
  96822320.88941     -2111.20741        31.893  
  20408286.32049 107246324.08849       -77.27049        50.533    20408284.20149
  83568576.39349       -60.21149        47.914  
  20810192.62508 111281507.78208      1548.83208        46.282    20810196.48006
  86552337.65106      1204.64806        41.760  
  19397756.85709 103582966.46609     -1139.27309        49.381    19397762.51408
  80564589.70908      -886.10508        45.599  
  23680580.03805 126764008.18205       780.59805        39.980    23680581.42605
  98594330.55505       607.13305        39.843  
  24038294.05805 128723977.71705      3024.64505        39.624    24038299.36005
 100118749.28505      2352.50005        39.789  
  23554163.94805 125733711.14905     -3270.40605        39.624    23554171.29206
  97792909.84406     -2543.64806        41.329  
  24695574.57904 132151009.31214      3021.49204        38.402    24695577.70104
 102784144.43214      2350.05104        36.727  
  20009128.82808 107035379.15108     -1613.94508        46.711    20009131.06406
  83249762.63906     -1255.29306        41.726  
 09 07 27 09 08  0.0000000  0 18G13G25G07G16G11G06G22G18G08G03G23G19            
                                R24R13R07R08R22R23                              
  24377095.03247 128102499.14447     -2427.06247        43.785    24377094.49341
  99820117.48341     -1891.22341        32.186  
  21155419.12349 111172497.19949       141.56649        50.683    21155419.59947
  86627940.81347       110.30947        45.363  
  21670697.83249 113880296.92549      1671.96549        50.042    21670696.87947
  88737899.31747      1302.82847        43.667  
  22608735.49348 110788523.69648     -2090.14148        47.033    22608735.33945
  86306337.02145     -1628.68445        39.485  
  23051761.70448 121137854.97048      3550.10248        46.221    23051761.17042
  94393156.95442      2766.30942        33.921  
  21457422.75249 104738352.53849     -1838.41449        50.479    21457423.08447
  81591931.25347     -1432.53147        45.102  
  24769900.49647 130166687.79747      1365.22347        45.468    24769899.36842
 101428603.82342      1063.80542        33.698  
  25656064.65145 134823529.54945       272.44145        39.399    25656063.12642
 105057290.46042       212.28942        34.320  
  24663822.17546 129609282.04346      3576.33246        42.930    24663822.48543
 100994229.72843      2786.75043        35.349  
  20399873.58749  99180905.42049     -1357.74249        51.500    20399873.26348
  77261456.71348     -1057.98448        46.791  
  25192307.47545 124365255.54445     -2704.47745        40.069    25192307.02141
  96885593.15641     -2107.39141        26.460  
  20408757.56149 107248800.30649       -87.84849        50.528    20408755.16348
  83570505.92448       -68.45348        47.756  
  20801539.56608 111235235.69708      1535.95308        46.119    20801543.23606
  86516348.27306      1194.62906        41.747  
  19404229.66209 103617530.87309     -1165.07409        49.363    19404235.50108
  80591473.11908      -906.17208        46.120  
  23676260.81905 126740890.51105       760.29305        39.417    23676262.96505
  98576350.20505       591.33605        39.521  
  24021364.87106 128633326.20106      3018.84406        42.002    24021370.78405
 100048242.55705      2347.98405        40.421  
  23572534.26205 125831769.51005     -3266.94505        40.459    23572541.70706
  97869177.44006     -2540.96106        41.521  
  20018204.01908 107083927.15308     -1622.66808        46.854    20018206.42806
  83287522.19506     -1262.07806        42.268  
 09 07 27 09 08 30.0000000  0 19G13G25G07G16G11G06G22G18G08G03G23G19            
                                R24R13R07R08R22R17R23                           
  24390968.31846 128175402.59846     -2433.68846        43.000    24390967.56541
  99876925.29641     -1896.37941        31.357  
  21154665.73149 111168537.73349       122.03149        50.664    21154666.07247
  86624855.51347        95.08647        44.920  
  21661205.19049 113830413.05649      1653.21149        49.756    21661204.65447
  88699028.78247      1288.21147        44.246  
  22620688.94848 110851341.26248     -2098.25448        47.019    22620689.00845
  86355285.73745     -1635.00845        39.255  
  23031514.39348 121031455.23048      3542.65648        45.674    23031513.87843
  94310248.09343      2760.50843        35.357  
  21467932.90049 104793583.71249     -1844.07849        50.152    21467933.24347
  81634968.51547     -1436.94947        44.890  
  24762136.52347 130125888.47047      1354.42647        44.971    24762135.64544
 101396812.19544      1055.39844        36.737  
  25654551.31043 134815576.14043       257.61343        36.599    25654550.27941
 105051093.02441       200.73441        31.854  
  24643427.23147 129502104.08447      3568.60547        43.750    24643427.24942
 100910714.46242      2780.69542        33.621  
  20407650.65849  99221774.14349     -1367.20349        51.498    20407650.24848
  77293302.46848     -1065.35548        46.779  
  25207734.39344 124446322.46344     -2700.77744        38.487    25207734.37841
  96948762.01941     -2104.51241        30.066  
  20409292.59349 107251611.21849       -99.78549        50.633    20409290.05848
  83572696.24948       -77.75848        47.552  
  20792960.37408 111189357.92408      1521.94508        45.792    20792963.66706
  86480665.57306      1183.73006        41.349  
  19410851.45909 103652890.35609     -1192.50009        49.398    19410857.41208
  80618974.91608      -927.50408        45.845  
  23672061.63705 126718411.30605       737.93805        41.059    23672063.17804
  98558866.39104       573.94904        38.683  
  24004471.33106 128542860.89406      3011.77006        42.074    24004477.15805
  99977880.66505      2342.48805        40.498  
  23590887.81506 125929738.95306     -3264.66406        41.445    23590895.28105
  97945375.87605     -2539.18805        41.062  
  24661761.14003 131970063.19613      3009.09803        35.668    24661762.87103
 102643480.82413      2340.40603        36.362  
  20027331.65008 107132754.89408     -1632.83608        46.812    20027334.15506
  83325499.32706     -1269.98806        41.553  
 09 07 27 09 09  0.0000000  0 19G13G25G07G16G11G06G22G18G08G03G23G19            
                                R24R13R07R08R22R17R23                           
  24404875.23546 128248485.04546     -2439.28946        43.148    24404874.98441
  99933872.64641     -1900.74241        32.189  
  21154017.96049 111165132.91749       103.98849        50.731    21154018.03447
  86622202.40647        81.02747        45.502  
  21651814.12649 113781063.14549      1635.79349        49.730    21651813.88447
  88660574.31047      1274.64147        44.867  
  22632684.50948 110914378.01848     -2105.18048        47.650    22632684.36845
  86404405.26645     -1640.40245        39.422  
  23011304.99048 120925254.27548      3536.63348        45.667    23011304.48344
  94227494.13944      2755.81644        37.410  
  21478469.90249 104848955.69049     -1848.30949        50.102    21478470.19447
  81678115.49847     -1440.24647        45.405  
  24754429.87047 130085389.88047      1344.65647        44.169    24754429.06644
 101365254.89844      1047.78144        36.928  
  25653115.44144 134808031.88144       244.93444        38.466    25653114.66243
 105045214.37143       190.85243        35.710  
  24623070.15847 129395124.95747      3562.60247        44.553    24623070.02643
 100827354.12243      2776.05143        35.484  
  20415476.10649  99262896.96049     -1375.20749        51.456    20415475.66948
  77325346.20848     -1071.59448        46.952  
  25223135.00845 124527250.93845     -2695.19945        40.006    25223134.98341
  97011822.99441     -2100.16441        22.934  
  20409890.58649 107254752.85649      -110.40649        50.612    20409887.85949
  83575144.27849       -86.03549        47.925  
  20784454.07908 111143870.49808      1509.66008        46.227    20784457.16606
  86445286.47006      1174.17606        41.925  
  19417621.48209 103689040.69809     -1218.36709        49.717    19417627.30908
  80647091.83708      -947.62108        45.775  
  23667981.29306 126696568.95006       717.23806        41.686    23667982.49504
  98541877.92804       557.85204        37.961  
  23987613.09206 128452583.04006      3005.73406        41.998    23987618.12705
  99907664.61605      2337.78905        40.756  
  23609223.53406 126027615.59806     -3261.16806        41.746    23609230.78906
  98021502.11106     -2536.46906        41.421  
  24644904.48502 131879860.65402      3003.62502        32.689    24644906.55803
 102573323.36403      2336.15203        35.076  
  20036510.71508 107181856.90708     -1641.57008        46.468    20036512.99206
  83363689.77206     -1276.78106        41.745  
 09 07 27 09 09 30.0000000  0 19G13G25G07G16G11G06G22G18G08G03G23G19            
                                R24R13R07R08R22R17R23                           
  24418815.56346 128321742.08646     -2444.66046        42.906    24418815.49743
  99990955.96143     -1904.93443        34.959  
  21153475.46649 111162282.08749        85.88349        50.650    21153475.62147
  86619980.97147        66.91847        45.189  
  21642524.88149 113732248.47949      1618.10949        49.848    21642524.68047
  88622536.90947      1260.86347        44.715  
  22644721.75548 110977633.37448     -2111.98048        47.385    22644721.34645
  86453695.13245     -1645.70345        39.457  
  22991133.64648 120819253.15248      3530.02348        45.727    22991133.37043
  94144895.91543      2750.66843        34.932  
  21489033.26449 104904466.44449     -1852.59849        49.787    21489033.35047
  81721370.62147     -1443.58647        45.412  
  24746780.19246 130045193.72146      1334.82446        42.044    24746779.99544
 101333933.27944      1040.12144        37.978  
  25651757.42045 134800896.84445       231.16845        40.178    25651757.17642
 105039654.61442       180.12542        34.385  
  24602751.23147 129288346.54847      3555.76647        44.306    24602750.66542
 100744150.20342      2770.72742        33.343  
  20423349.45849  99304271.63149     -1383.25449        51.516    20423349.05748
  77357586.20848     -1077.86348        47.096  
  25238508.20045 124608036.98745     -2690.47345        40.955    25238507.76741
 103347470.93151     -2096.48841        27.178  
  20410550.85949 107258222.84149      -120.97349        50.211    20410548.00249
  83577848.17749       -94.26649        47.895  
  20776020.45708 111098771.68808      1496.76608        47.005    20776023.62406
  86410209.64006      1164.15206        41.992  
  19424539.20209 103725979.81409     -1244.29309        49.623    19424544.67608
  80675822.24708      -967.78908        45.641  
  23664020.31506 126675365.16506       695.91406        41.336    23664021.48804
  98525386.08704       541.26604        37.799  
  23970790.28206 128362495.78206      2999.81206        42.866    23970794.52205
  99837596.81805      2333.18805        40.230  
  23627541.44806 126125397.02806     -3257.63306        42.474    23627548.52206
  98097554.21606     -2533.72706        41.550  
  24628080.21101 131789836.93111      2999.12901        31.036    24628083.97103
 102503215.24113      2332.67203        35.463  
  20045740.59008 107231229.99208     -1650.14108        46.792    20045742.57306
  83402091.05006     -1283.44506        41.628  
 09 07 27 09 10  0.0000000  0 19G13G25G07G16G11G06G22G18G08G03G23G19            
                                R24R13R07R08R22R17R23                           
  24432789.25947 128395173.48047     -2450.13747        43.570    24432789.12442
 100048175.16542     -1909.20742        32.308  
  21153038.81449 111159987.81449        67.34449        50.778    21153039.12847
  86618193.21947        52.47347        44.982  
  21633338.47749 113683973.14849      1600.06649        50.255    21633337.98747
  88584919.76847      1246.80147        44.206  
  22656801.13848 111041109.84348     -2119.24248        47.543    22656800.78645
  86503157.29145     -1651.36345        39.631  
  22971001.16948 120713456.88448      3523.30148        45.705    22971001.34544
  94062457.33544      2745.43044        36.978  
  21499623.14149 104960117.26149     -1857.19149        49.944    21499623.23347
  81764734.86847     -1447.16847        45.296  
  24739189.21346 130005304.32846      1324.60946        42.270    24739189.00744
 101302850.65544      1032.16444        37.431  
  25650477.96043 134794174.68543       216.89543        36.312    25650477.99642
 105034416.58142       169.00442        33.909  
  24582471.38447 129181774.36747      3549.11347        44.887    24582470.65541
 100661106.98241      2765.53941        31.967  
  20431271.05349  99345899.74949     -1391.55549        51.587    20431270.62148
  77390023.68448     -1084.33248        46.832  
  25253854.65745 124688680.90345     -2685.73445        40.824    25253854.81341
 103410310.16841     -2092.78141        31.897  
  20411273.79149 107262022.82049      -131.98849        50.559    20411270.96248
  83580809.20648      -102.85248        47.419  
  20767660.18808 111054063.78008      1483.81208        46.511    20767663.36106
  86375436.85506      1154.07806        41.616  
  19431604.77409 103763709.13409     -1270.55909        49.512    19431610.10208
  80705167.25308      -988.21508        45.912  
  23660179.92006 126654804.75306       674.87506        42.044    23660180.49405
  98509394.65705       524.90205        38.900  
  23954004.23006 128272606.36006      2993.27306        41.929    23954008.36206
  99767682.83906      2328.10206        41.371  
  23645841.71306 126223085.05006     -3254.68006        42.794    23645849.00506
  98173533.76806     -2531.41006        41.432  
  24611290.93902 131699993.27102      2992.78902        33.384    24611294.62803
 102433336.92403      2327.74603        35.243  
  20055021.16208 107280874.41308     -1659.13308        46.410    20055022.90806
  83440703.37206     -1290.44106        41.783  
 09 07 27 09 10 30.0000000  0 18G13G25G07G16G11G06G22G18G08G03G23G19            
                                R24R13R07R08R22R23                              
  24446794.61847 128468771.33547     -2456.10547        43.751    24446794.32743
 100105524.10943     -1913.84843        35.203  
  21152707.27749 111158245.59049        48.68449        50.759    21152707.47847
  86616835.63647        37.93447        45.105  
  21624254.29749 113636234.44649      1582.11749        50.060    21624253.39047
  88547720.76247      1232.81647        44.554  
  22668921.38948 111104802.66848     -2126.81648        46.559    22668921.34344
  86552788.01244     -1657.26244        38.784  
  22950907.29047 120607862.95947      3516.25447        45.390    22950907.10144
  93980176.39044      2739.93844        38.018  
  21510238.63449 105015902.32749     -1861.87149        50.004    21510238.94247
  81808203.74447     -1450.81247        45.444  
  24731656.61146 129965720.01046      1314.18846        42.828    24731656.21245
 101272005.71345      1024.04345        38.896  
  25649276.18243 134787861.36743       203.15243        36.561    25649276.99841
 105029497.16741       158.30541        31.973  
  24562230.19446 129075406.82346      3541.99646        43.205    24562229.56143
 100578223.20943      2759.98843        35.289  
  20439239.77449  99387775.28149     -1400.16849        51.594    20439239.32948
  77422653.96048     -1091.04348        47.392  
  25269172.60446 124769175.61146     -2680.86746        42.516    25269172.08742
 103473033.10242     -2088.99642        32.259  
  20412058.58949 107266146.73649      -143.05549        50.642    20412055.75949
  83584022.64949      -111.47349        48.232  
  20759371.88108 111009741.14408      1470.94508        47.013    20759374.60706
  86340963.69006      1144.06606        41.583  
  19438817.21809 103802222.72509     -1296.99209        49.826    19438822.62908
  80735122.25408     -1008.77708        45.785  
  23656458.63307 126634883.89007       653.10507        43.434    23656459.12005
  98493900.66205       507.96905        40.494  
  23937254.88806 128182914.20806      2986.24606        42.703    23937259.16606
  99697922.33506      2322.63706        41.938  
  23664123.46206 126320673.16706     -3251.91006        42.705    23664130.45305
  98249435.49205     -2529.28105        39.259  
  20064351.00508 107330782.93508     -1668.31208        46.987    20064352.92706
  83479521.11106     -1297.54706        41.907  
 09 07 27 09 11  0.0000000  0 19G13G25G07G16G11G06G22G18G08G03G23G19            
                                R24R13R07R08R22R17R23                           
  24460831.46145 128542536.09045     -2461.96545        40.790    24460831.28743
 100163003.08843     -1918.41443        35.288  
  21152481.55349 111157059.43149        30.40649        50.475    21152481.55047
  86615911.35047        23.68847        44.648  
  21615273.13849 113589038.17949      1564.30549        49.794    21615271.95847
  88510944.45247      1218.93447        43.932  
  22681083.44548 111168715.76248     -2134.05948        46.462    22681083.35245
  86602590.39145     -1662.90645        39.560  
  22930853.12847 120502477.52347      3509.35547        45.543    22930852.43343
  93898057.91043      2734.56243        36.542  
  21520880.15249 105071824.50049     -1866.34449        49.532    21520880.71947
  81851779.45547     -1454.29747        45.138  
  24724183.44547 129926446.92747      1303.93847        44.518    24724183.15844
 101241403.30544      1016.05144        38.594  
  25648153.35445 134781961.64645       189.47745        38.959    25648154.12042
 105024899.97542       147.64542        34.247  
  24542029.00946 128969250.73646      3534.89546        42.349    24542028.97042
 100495504.23542      2754.46542        32.799  
  20447256.23449  99429901.09649     -1408.26649        51.540    20447255.71748
  77455479.26548     -1097.35548        47.021  
  25284462.02744 124849522.51744     -2675.98844        37.592    25284461.73241
 103535640.88941     -2085.20741        14.776  
  20412905.61149 107270597.13049      -153.66849        50.746    20412902.94449
  83587490.49649      -119.74249        47.849  
  20751155.97808 110965806.63508      1458.12108        46.522    20751158.58406
  86306792.41306      1134.09406        41.446  
  19446177.03509 103841523.21709     -1323.07809        49.700    19446182.03507
  80765689.29107     -1029.06607        45.194  
  23652858.38306 126615609.06906       631.85206        43.133    23652858.74305
  98478909.15805       491.43805        39.813  
  23920543.98806 128093427.73506      2979.43406        41.644    23920548.34006
  99628321.76906      2317.33606        41.500  
  23682387.21806 126418165.14406     -3248.07006        43.163    23682394.16705
  98325262.61405     -2526.27705        40.685  
  24577811.22202 131520833.16212      2980.37102        32.223    24577815.16302
 102293995.86712      2318.06602        33.295  
  20073730.61608 107380956.95608     -1676.80508        47.216    20073732.50906
  83518545.34406     -1304.18406        41.734  
 09 07 27 09 11 30.0000000  0 19G13G25G07G16G11G06G22G18G08G03G23G19            
                                R24R13R07R08R22R17R23                           
  24474898.28846 128616461.71146     -2466.82446        41.435    24474898.74643
 100220607.38243     -1922.20343        34.943  
  21152360.99549 111156426.72549        11.96949        50.553    21152361.04847
  86615418.32147         9.32447        44.503  
  21606394.75649 113542383.52149      1546.21149        49.762    21606393.82947
  88474590.18747      1204.84047        44.174  
  22693287.29148 111232846.46648     -2141.12148        47.323    22693286.86744
  86652562.34644     -1668.40644        38.725  
  22910838.41548 120397300.12548      3502.48448        46.585    22910837.78743
  93816101.53543      2729.20743        35.795  
  21531547.07949 105127879.92149     -1870.60549        49.682    21531547.51447
  81895458.98947     -1457.61347        44.873  
  24716769.41447 129887484.36047      1293.59047        44.519    24716768.92143
 101211042.89643      1007.99243        36.358  
  25647109.27544 134776474.16044       176.18044        38.627    25647109.72042
 105020623.99542       137.28542        33.111  
  24521868.17847 128863306.28747      3527.99247        44.130    24521868.12743
 100412950.15843      2749.09043        34.561  
  20455319.40549  99472272.66049     -1416.35549        51.633    20455318.78648
  77488496.05248     -1103.65648        46.658  
  25299721.79846 124929715.54246     -2670.41846        41.298    25299722.24841
 103598128.64441     -2080.85241        28.570  
  20413813.98049 107275370.21449      -164.40649        50.629    20413811.38049
  83591209.78549      -128.11349        48.098  
  20743011.76508 110922257.40308      1445.27708        46.093    20743014.66205
  86272920.83005      1124.10505        40.943  
  19453683.41509 103881606.67109     -1349.02009        49.857    19453688.28807
  80796865.29807     -1049.24207        45.199  
  23649378.28307 126596978.78007       610.36707        43.464    23649378.04605
  98464418.90905       474.72705        40.597  
  23903871.50905 128004148.69105      2972.60205        39.647    23903876.15805
  99558882.56705      2312.02305        41.021  
  23700632.11906 126515556.58806     -3244.57006        42.740    23700639.06005
  98401011.47305     -2523.55905        40.221  
  24561121.76202 131431522.78012      2973.99202        34.077    24561125.71103
 102224534.64613      2313.10903        34.870  
  20083158.90808 107431391.65608     -1685.24208        47.351    20083160.87906
  83557772.33206     -1310.74606        41.800  
 09 07 27 09 12  0.0000000  0 18G13G25G07G16G11G06G22G18G08G03G23G19            
                                R24R13R07R08R22R23                              
  24488995.51645 128690547.13145     -2472.00845        39.906    24488997.21843
 100278336.25143     -1926.23843        36.195  
  21152346.16749 111156349.34849        -6.85549        50.381    21152346.21547
  86615358.01847        -5.34847        44.305  
  21597620.39749 113496273.83649      1527.78149        50.007    21597619.54047
  88438660.56247      1190.47747        44.316  
  22705532.92948 111297196.92448     -2148.82048        47.094    22705532.29845
  86702705.54645     -1674.40645        39.126  
  22890864.28848 120292334.98948      3495.19548        46.015    22890863.95444
  93734310.55344      2723.52744        38.330  
  21542239.51049 105184069.18949     -1875.41449        49.628    21542239.71347
  81939242.83247     -1461.36347        44.032  
  24709414.84947 129848836.49247      1282.90647        44.092    24709414.56644
 101180927.77044       999.66844        38.211  
  25646144.00744 134771402.03644       162.30144        37.059    25646144.24042
 105016671.66242       126.46142        34.404  
  24501748.67046 128757578.26646      3520.53546        43.064    24501748.76043
 100330564.72843      2743.27743        34.616  
  20463429.45949  99514890.54449     -1424.84849        51.630    20463428.57548
  77521704.78248     -1110.27348        46.480  
  25314952.76545 125009754.35845     -2665.78945        40.236    25314953.09941
 103660496.45441     -2077.23441        29.887  
  20414783.84649 107280466.72149      -175.37549        50.642    20414781.04849
  83595181.09449      -136.66049        47.817  
  20734939.75508 110879094.51708      1432.26608        46.368    20734942.75205
  86239349.71605      1113.98005        41.020  
  19461336.44309 103922474.06109     -1375.49209        49.349    19461341.45907
  80828651.03007     -1069.83207        45.304  
  23646018.98105 126578996.50605       588.33205        40.570    23646018.50404
  98450432.63104       457.58604        38.119  
  23887238.82205 127915083.28805      2965.33205        40.253    23887243.86405
  99489609.55305      2306.37105        40.884  
  23718858.07906 126612848.19406     -3241.46106        41.233    23718864.86905
  98476682.59105     -2521.14505        39.102  
  20092635.74608 107482086.08008     -1694.37108        47.038    20092637.93406
  83597201.31906     -1317.84806        42.415  
 09 07 27 09 12 30.0000000  0 19G13G25G07G16G11G06G22G18G08G03G23G19            
                                R24R13R07R08R22R17R23                           
  24503123.09347 128764790.11347     -2477.07047        43.523    24503125.52341
 100336187.81541     -1930.18841        31.532  
  21152437.23549 111156828.42749       -24.75849        50.316    21152437.29547
  86615731.32047       -19.29747        44.846  
  21588950.44949 113450712.22349      1510.16449        49.652    21588949.61947
  88403157.99547      1176.74647        44.978  
  22717820.42548 111361767.53548     -2155.38748        47.292    22717819.81345
  86753020.28245     -1679.52745        39.489  
  22870930.99347 120187585.09647      3488.68847        44.481    22870930.88944
  93652687.29644      2718.45744        37.987  
  21552957.40449 105240392.36749     -1879.17649        49.403    21552957.53547
  81983131.01447     -1464.29747        44.202  
  24702120.41447 129810507.12347      1273.00047        43.614    24702120.99343
 101151060.78043       991.94943        36.286  
  25645257.89244 134766747.35044       148.73444        37.404    25645258.36441
 105013044.85741       115.89841        31.398  
  24481670.90546 128652070.32246      3513.54746        42.613    24481671.32343
 100248350.76443      2737.83243        36.383  
  20471586.22849  99557754.93849     -1432.39849        51.202    20471585.34648
  77555105.60348     -1116.16048        46.646  
  25330154.57446 125089638.00046     -2659.50846        43.093    25330154.55141
 103722743.19441     -2072.34841        30.297  
  20415815.06649 107285886.14749      -185.53149        50.584    20415812.28849
  83599404.02849      -144.57049        47.935  
  20726940.29208 110836318.23008      1420.03108        46.476    20726943.18505
  86206079.29005      1104.46905        41.008  
  19469136.07109 103964124.78609     -1400.80109        49.316    19469141.24007
  80861046.02107     -1089.51607        45.392  
  23642780.86505 126561665.96805       567.13305        39.290    23642781.46704
  98436953.26404       441.10204        38.854  
  23870647.63506 127826237.03406      2958.18806        41.260    23870652.00906
  99420506.91506      2300.81206        41.244  
  23737065.48606 126710040.38206     -3237.71506        41.111    23737072.21804
  98552276.59504     -2518.22304        38.832  
  24527844.49102 131253451.06812      2962.39102        32.585    24527848.89203
 102086033.22513      2304.08603        35.893  
  20102160.97208 107533039.25008     -1702.19108        47.406    20102163.56706
  83636831.56706     -1323.92606        42.841  
 09 07 27 09 13  0.0000000  0 19G13G25G07G16G11G06G22G18G08G03G23G19            
                                R24R13R07R08R22R17R23                           
  24517279.62346 128839181.81846     -2482.09846        41.196    24517282.02143
 100394155.34743     -1934.10543        34.584  
  21152633.26449 111157858.81849       -43.47349        50.626    21152633.29947
  86616534.21447       -33.87547        44.280  
  21580383.98549 113405695.28349      1491.52749        49.913    21580383.25447
  88368079.84347      1162.22747        44.868  
  22730148.79148 111426553.22548     -2163.01248        47.478    22730148.36044
  86803502.61444     -1685.46944        38.222  
  22851037.59647 120083047.77747      3481.16047        44.571    22851038.19644
  93571229.71144      2712.59444        37.795  
  21563699.68649 105296843.06549     -1883.72749        49.547    21563699.62047
  82027118.56347     -1467.84447        43.982  
  24694886.31046 129772492.95146      1261.95346        42.220    24694887.30643
 101121439.40443       983.34043        34.877  
  25644450.46345 134762504.56545       134.43045        40.048    25644450.50741
 105009738.80741       104.75041        31.367  
  24461634.57846 128546780.52146      3505.98846        42.542    24461635.15343
 100166306.78643      2731.93443        34.767  
  20479788.42649  99600858.91849     -1440.69949        51.406    20479787.85248
  77588693.09948     -1122.62548        46.641  
  25345325.11645 125169358.15945     -2654.46145        39.969    25345325.03241
 103784862.63941     -2068.41041        29.863  
  20416906.51849 107291622.38349      -196.34449        50.571    20416903.98848
  83603873.83248      -152.99648        47.712  
  20719011.97008 110793922.40508      1406.91808        46.991    20719014.78406
  86173104.77306      1094.26606        41.172  
  19477081.27609 104006552.19709     -1427.12509        49.419    19477086.61207
  80894045.09907     -1109.98807        45.449  
  23639663.97305 126544982.85705       545.22305        40.647    23639664.90704
  98423977.52004       424.06204        38.099  
  23854096.84705 127737608.96305      2950.78905        40.706    23854100.96005
  99351574.02805      2295.05905        40.281  
  23755252.65303 126807126.03903     -3234.09803        35.885    23755259.56904
  98627787.30304     -2515.41004        38.406  
  24511256.76702 131164683.22312      2956.14102        34.255    24511261.13403
 102016994.20213      2299.21103        34.798  
  20111733.03508 107584243.27908     -1710.96908        47.261    20111736.06706
  83676656.91706     -1330.75806        42.923  
