     2.11           OBSERVATION DATA    M (MIXED)           RINEX VERSION / TYPE
teqc  2007Jun25                         20080118 19:15:59UTCPGM / RUN BY / DATE
MSXP|IAx86-PII|bcc32 5.0|MSWin95->XP|486/DX+                COMMENT
-Unknown-                                                   MARKER NAME
-Unknown-           -Unknown-                               OBSERVER / AGENCY
-Unknown-           U-BLOX              -Unknown-           REC # / TYPE / VERS
-Unknown-           -Unknown-                               ANT # / TYPE
        0.0000        0.0000        0.0000                  APPROX POSITION XYZ
        0.0000        0.0000        0.0000                  ANTENNA: DELTA H/E/N
     1     0                                                WAVELENGTH FACT L1/2
     4    L1    C1    S1    D1                              # / TYPES OF OBSERV
 SNR is mapped to RINEX snr flag value [0-9]                COMMENT
  L1 & L2: min(max(int(snr_dBHz/6), 0), 9)                  COMMENT
  2007     8    29    13     8   35.0010000     GPS         TIME OF FIRST OBS
    14                                                      LEAP SECONDS
                                                            END OF HEADER
 07  8 29 13  8 35.0010000  0  9G20G28G17G11G 4G19G23G 1S37
 108614771.948 8  20668710.381          50.000       -1896.714
 110087406.651 8  20948942.044          50.000       -2552.746
 113756833.466 8  21647213.596          51.000         308.674
 115448082.879 8  21969039.562          51.000       -3969.879
 124754313.675 7  23739961.642          46.000         738.281
 131496362.989 6  25022914.293          40.000       -4556.176
 130832879.888 6  24896691.674          39.000         914.759
 133143326.667 6  25336333.189          39.000       -1798.837
 196428951.924 7  37379186.242          45.000       -1841.924
 07  8 29 13  8 36.0010000  0  9G20G28G17G11G 4G19G23G 1S37
 108616667.620 8  20669071.043          50.000       -1894.105
 110089957.847 8  20949427.458          50.000       -2549.491
 113756523.125 8  21647154.528          51.000         311.851
 115452050.886 8  21969794.792          51.000       -3966.398
 124753573.788 7  23739820.680          46.000         741.570
 131500918.271 6  25023780.820          40.000       -4553.632
 130831961.968 6  24896517.069          39.000         920.522
 133145123.419 6  25336675.127          39.000       -1796.040
 196430792.528 7  37379536.468          45.000       -1839.683
 07  8 29 13  8 37.0010000  0  9G20G28G17G11G 4G19G23G 1S37
 108618560.384 8  20669431.548          50.000       -1891.093
 110092506.130 8  20949912.435          50.000       -2546.877
 113756209.430 8  21647094.605          51.000         315.150
 115456015.451 8  21970549.497          51.000       -3962.890
 124752830.556 7  23739679.544          46.000         744.543
 131505470.105 6  25024646.335          40.000       -4549.353
 130831040.413 6  24896342.010          39.000         923.398
 133146917.164 6  25337015.722          38.000       -1791.818
 196432629.613 7  37379885.980          44.000       -1835.679
 07  8 29 13  8 38.0010000  0  9G20G28G17G11G 4G19G23G 1S37
 108620450.134 8  20669791.094          50.000       -1888.052
 110095051.388 8  20950396.907          50.000       -2543.830
 113755892.247 8  21647033.967          51.000         319.006
 115459976.490 8  21971303.139          51.000       -3959.190
 124752083.866 7  23739537.274          46.000         748.590
 131510018.397 6  25025511.413          39.000       -4547.365
 130830115.166 6  24896165.397          39.000         926.520
 133148707.763 6  25337355.252          37.000       -1789.185
 196434462.825 7  37380234.741          44.000       -1832.498
 07  8 29 13  8 39.0010000  0  9G20G28G17G11G 4G19G23G 1S37
 108622336.806 8  20670149.522          50.000       -1885.069
 110097593.557 8  20950880.837          50.000       -2540.380
 113755571.517 8  21646972.648          50.000         322.861
 115463933.920 8  21972056.327          51.000       -3955.199
 124751333.600 7  23739394.620          46.000         751.955
 131514563.141 6  25026376.631          39.000       -4543.935
 130829186.136 6  24895989.640          39.000         931.150
 133150495.167 6  25337694.433          36.000       -1785.557
 196436292.407 7  37380582.805          43.000       -1827.378
 07  8 29 13  8 40.0010000  0  9G20G28G17G11G 4G19G23G 1S37
 108624220.541 8  20670507.864          50.000       -1881.436
 110100132.789 8  20951363.913          50.000       -2537.340
 113755247.394 8  21646911.120          50.000         326.490
 115467887.903 8  21972808.991          51.000       -3952.051
 124750579.963 7  23739251.163          46.000         755.597
 131519104.404 6  25027240.470          39.000       -4540.302
 130828253.486 6  24895811.999          38.000         934.806
 133152279.481 6  25338033.545          36.000       -1782.323
 196438118.497 7  37380930.275          44.000       -1824.566
 07  8 29 13  8 41.0010000  0  9G20G28G17G11G 4G19G23G 1S37
 108626101.347 8  20670866.030          49.000       -1879.167
 110102669.080 8  20951846.639          50.000       -2534.648
 113754919.873 8  21646848.737          50.000         329.650
 115471838.432 8  21973560.887          51.000       -3949.103
 124749822.933 7  23739107.148          46.000         759.036
 131523642.241 6  25028103.978          38.000       -4535.944
 130827317.229 6  24895634.827          38.000         936.672
 133154060.743 6  25338371.958          36.000       -1780.208
 196439940.891 7  37381277.222          43.000       -1819.438
 07  8 29 13  8 42.0010000  0  9G20G28G17G11G 4G19G23G 1S37
 108627979.177 8  20671223.360          50.000       -1876.358
 110105202.385 8  20952328.720          50.000       -2532.019
 113754588.925 8  21646785.534          50.000         332.927
 115475785.479 8  21974312.364          51.000       -3945.061
 124749062.466 7  23738962.417          46.000         762.427
 131528176.586 6  25028966.701          38.000       -4531.469
 130826377.319 6  24895456.226          38.000         941.582
 133155838.926 6  25338710.109          36.000       -1776.924
 196441759.787 7  37381623.261          43.000       -1817.033
 07  8 29 13  8 43.0010000  0  9G20G28G17G11G 4G19G23G 1S37
 108629854.027 8  20671580.148          50.000       -1873.246
 110107732.699 8  20952810.086          50.000       -2528.619
 113754254.512 8  21646721.789          50.000         336.319
 115479728.990 8  21975062.969          51.000       -3941.589
 124748298.567 7  23738817.494          46.000         765.547
 131532707.438 6  25029829.319          38.000       -4528.576
 130825433.708 6  24895276.455          37.000         944.106
 133157613.948 6  25339047.615          37.000       -1773.384
 196443575.141 7  37381968.829          44.000       -1814.307
 07  8 29 13  8 44.0010000  0  9G20G28G17G11G 4G19G23G 1S37
 108631726.085 8  20671936.133          49.000       -1870.529
 110110260.221 8  20953291.259          50.000       -2525.962
 113753916.855 8  21646657.399          50.000         339.889
 115483669.219 8  21975812.702          51.000       -3938.336
 124747531.418 7  23738671.315          47.000         769.472
 131537234.952 6  25030691.221          38.000       -4526.956
 130824486.649 6  24895095.987          38.000         950.046
 133159386.088 6  25339384.929          36.000       -1770.960
 196445386.903 7  37382313.559          43.000       -1810.353
 07  8 29 13  8 45.0010000  0  9G20G28G17G11G 4G19G23G 1S37
 108633595.102 8  20672291.857          49.000       -1867.756
 110112784.690 8  20953771.769          50.000       -2523.131
 113753575.694 8  21646592.433          50.000         342.713
 115487605.883 8  21976562.033          51.000       -3934.779
 124746760.750 7  23738524.647          46.000         772.686
 131541758.957 6  25031552.740          39.000       -4522.783
 130823535.843 6  24894915.693          38.000         953.348
 133161155.056 6  25339722.278          37.000       -1767.523
 196447194.948 7  37382657.609          43.000       -1806.435
 07  8 29 13  8 46.0010000  0  9G20G28G17G11G 4G19G23G 1S37
 108635461.161 8  20672647.354          50.000       -1864.549
 110115306.186 8  20954251.634          50.000       -2520.184
 113753231.097 8  21646526.699          50.000         346.015
 115491539.071 8  21977310.439          51.000       -3931.255
 124745986.682 7  23738377.141          46.000         775.436
 131546279.503 6  25032413.543          39.000       -4518.774
 130822581.403 6  24894734.508          39.000         956.885
 133162920.889 6  25340058.666          37.000       -1765.859
 196448999.444 7  37383001.083          44.000       -1803.069
 07  8 29 13  8 47.0010000  0  9G20G28G17G11G 4G19G23G 1S37
 108637324.394 8  20673001.839          49.000       -1862.033
 110117824.861 8  20954730.783          50.000       -2517.182
 113752883.216 8  21646460.355          50.000         349.458
 115495468.899 8  21978058.636          51.000       -3928.002
 124745209.343 7  23738229.235          46.000         779.154
 131550796.672 6  25033273.160          39.000       -4515.084
 130821623.409 6  24894551.649          39.000         960.510
 133164683.814 6  25340394.463          37.000       -1759.918
 196450800.394 7  37383343.772          44.000       -1800.564
 07  8 29 13  8 48.0010000  0  9G20G28G17G11G 4G19G23G 1S37
 108639184.780 8  20673355.975          50.000       -1859.045
 110120340.682 8  20955209.636          50.000       -2514.011
 113752532.019 8  21646393.452          50.000         352.929
 115499395.367 8  21978805.699          51.000       -3924.747
 124744428.715 7  23738080.770          46.000         782.859
 131555310.470 6  25034132.986          39.000       -4511.541
 130820661.934 6  24894368.876          39.000         963.054
 133166443.764 6  25340729.019          37.000       -1757.859
 196452597.917 7  37383686.094          44.000       -1796.045
 07  8 29 13  8 49.0010000  0  9G20G28G17G11G 4G19G23G 1S37
 108641042.400 8  20673709.395          50.000       -1855.855
 110122853.727 8  20955687.651          50.000       -2511.211
 113752177.599 8  21646326.113          50.000         356.493
 115503318.552 8  21979552.011          51.000       -3921.319
 124743644.848 7  23737931.624          46.000         785.735
 131559821.024 6  25034991.433          40.000       -4507.766
 130819696.977 6  24894184.534          38.000         967.475
 133168200.784 6  25341063.576          36.000       -1754.985
 196454392.003 7  37384027.352          44.000       -1791.966
 07  8 29 13  8 50.0010000  0  9G20G28G17G11G 4G19G23G 1S37
 108642897.100 8  20674062.309          50.000       -1853.525
 110125363.848 8  20956165.386          50.000       -2508.500
 113751819.793 8  21646258.058          50.000         359.577
 115507238.294 8  21980297.677          51.000       -3918.131
 124742857.604 7  23737781.675          46.000         788.824
 131564328.140 6  25035849.182          40.000       -4504.668
 130818728.391 6  24894000.121          39.000         970.313
 133169954.796 6  25341396.981          36.000       -1752.134
 196456182.310 7  37384368.157          43.000       -1786.869
 07  8 29 13  8 51.0010000  0  9G20G28G17G11G 4G19G23G 1S37
 108644748.992 8  20674414.945          50.000       -1850.250
 110127871.159 8  20956642.197          50.000       -2505.739
 113751458.714 8  21646189.410          50.000         362.655
 115511154.721 8  21981042.855          51.000       -3914.586
 124742067.099 7  23737631.099          46.000         792.107
 131568831.913 6  25036706.425          40.000       -4502.104
 130817756.362 6  24893815.237          40.000         974.065
 133171705.855 6  25341729.863          37.000       -1748.933
 196457968.910 7  37384708.210          44.000       -1785.746
 07  8 29 13  8 52.0010000  0  9G20G28G17G11G 4G19G23G 1S37
 108646598.134 8  20674766.881          50.000       -1847.948
 110130375.710 8  20957118.764          50.000       -2502.587
 113751094.429 8  21646120.239          50.000         366.090
 115515067.869 8  21981787.597          51.000       -3911.194
 124741273.345 7  23737479.946          46.000         795.464
 131573332.447 6  25037563.197          40.000       -4498.358
 130816780.895 6  24893630.197          40.000         977.290
 133173453.996 6  25342062.045          37.000       -1747.879
 196459752.514 7  37385047.548          44.000       -1782.352
 07  8 29 13  8 53.0010000  0  9G20G28G17G11G 4G19G23G 1S37
 108648444.556 8  20675118.278          50.000       -1845.255
 110132877.518 8  20957594.789          51.000       -2500.716
 113750726.954 8  21646050.370          50.000         369.327
 115518977.768 8  21982531.588          51.000       -3908.355
 124740476.445 7  23737328.130          46.000         798.673
 131577829.758 6  25038419.516          40.000       -4494.938
 130815802.003 6  24893445.051          40.000         980.213
 133175199.359 6  25342394.194          37.000       -1744.152
 196461532.873 7  37385386.328          43.000       -1778.406
 07  8 29 13  8 54.0010000  0  9G20G28G17G11G 4G19G23G 1S37
 108650288.344 8  20675469.168          50.000       -1842.159
 110135376.693 8  20958070.308          51.000       -2497.639
 113750356.390 8  21645979.802          50.000         372.517
 115522884.527 8  21983274.934          51.000       -3905.102
 124739676.471 7  23737175.861          46.000         801.636
 131582323.897 6  25039275.275          40.000       -4492.417
 130814819.794 6  24893258.527          40.000         984.570
 133176941.947 6  25342724.703          36.000       -1740.143
 196463309.987 7  37385724.357          45.000       -1777.110
 07  8 29 13  8 55.0010000  0  9G20G28G17G11G 4G19G23G 1S37
 108652129.318 8  20675819.325          50.000       -1839.263
 110137873.042 8  20958545.322          51.000       -2494.638
 113749982.537 8  21645908.746          50.000         375.534
 115526787.942 8  21984017.826          51.000       -3901.812
 124738873.204 7  23737023.051          46.000         804.897
 131586814.741 6  25040130.128          41.000       -4489.898
 130813834.087 6  24893071.287          40.000         985.979
 133178681.544 6  25343055.629          37.000       -1738.385
 196465083.802 7  37386061.724          45.000       -1772.411
 07  8 29 13  8 56.0010000  0  9G20G28G17G11G 4G19G23G 1S37
 108653967.631 8  20676169.238          50.000       -1836.880
 110140366.720 8  20959019.515          51.000       -2492.327
 113749605.577 8  21645836.730          50.000         378.390
 115530688.179 8  21984760.159          51.000       -3898.280
 124738066.785 7  23736869.734          46.000         808.169
 131591302.402 6  25040983.951          41.000       -4485.400
 130812845.037 6  24892883.437          40.000         991.267
 133180418.397 6  25343386.679          37.000       -1735.452
 196466854.114 7  37386398.636          44.000       -1768.734
 07  8 29 13  8 57.0010000  0  9G20G28G17G11G 4G19G23G 1S37
 108655803.173 8  20676518.662          51.000       -1834.043
 110142857.622 8  20959493.447          51.000       -2489.221
 113749225.367 8  21645764.261          50.000         382.203
 115534585.122 8  21985501.411          51.000       -3895.101
 124737257.144 7  23736715.615          47.000         811.183
 131595786.769 6  25041837.408          40.000       -4481.928
 130811852.506 6  24892694.574          41.000         993.648
 133182152.348 6  25343717.693          37.000       -1732.303
 196468620.993 7  37386734.886          44.000       -1765.119
 07  8 29 13  8 58.0010000  0  9G20G28G17G11G 4G19G23G 1S37
 108657636.237 8  20676867.091          51.000       -1831.991
 110145346.094 8  20959966.994          51.000       -2487.104
 113748842.238 8  21645691.459          51.000         384.736
 115538479.046 8  21986242.208          51.000       -3892.612
 124736444.655 7  23736561.060          46.000         814.105
 131600268.144 6  25042689.938          41.000       -4480.857
 130810856.823 6  24892505.415          41.000         997.176
 133183883.561 6  25344047.869          38.000       -1730.556
 196470384.557 7  37387070.368          44.000       -1761.838
 07  8 29 13  8 59.0010000  0  9G20G28G17G11G 4G19G23G 1S37
 108659467.571 8  20677215.503          50.000       -1830.546
 110147831.068 8  20960440.176          51.000       -2481.751
 113748456.393 8  21645618.100          51.000         387.939
 115542371.841 8  21986982.656          51.000       -3893.033
 124735627.501 7  23736405.284          46.000         821.925
 131604747.752 6  25043542.068          39.000       -4478.941
 130809858.139 7  24892315.122          42.000        1000.715
 133185614.823 6  25344379.213          40.000       -1732.445
 196472144.177 7  37387405.379          44.000       -1757.628
 07  8 29 13  9  0.0010000  0  9G20G28G17G11G 4G19G23G 1S37
 108661297.544 8  20677563.687          50.000       -1829.417
 110150310.848 8  20960912.485          51.000       -2477.405
 113748067.364 8  21645543.990          51.000         390.776
 115546265.132 8  21987723.505          51.000       -3893.455
 124734803.048 7  23736248.636          47.000         828.425
 131609226.555 6  25044393.045          37.000       -4479.244
 130808856.507 7  24892124.043          43.000        1003.011
 133187348.305 6  25344710.766          41.000       -1735.535
 196473899.181 7  37387739.291          44.000       -1751.856
 07  8 29 13  9 41.0010000  0 10G20G28G17G11G 4G19G23G 1S37S29
 108734268.966 8  20691449.682          49.000       -1733.371
 110249787.231 8  20979842.168          50.000       -2383.456
 113729731.874 8  21642054.727          50.000         515.018
 115703513.297 8  22017648.040          50.000       -3769.533
 124698403.247 7  23729323.090          47.000         942.456
 131790262.59627  25078852.941          44.000       -4366.230
 130765117.799 7  24883771.976          44.000        1116.299
 133256486.95026  25357867.419          41.000       -1621.908
 196543055.518 7  37400898.316          44.000       -1639.200
 196227245.139 7  37340805.978          44.000       -1638.933
 07  8 29 13  9 42.0010000  0 10G20G28G17G11G 4G19G23G 1S37S29
 108736000.685 8  20691779.231          49.000       -1729.388
 110252169.567 8  20980295.823          50.000       -2381.202
 113729216.201 8  21641956.901          50.000         516.381
 115707281.404 8  22018364.879          50.000       -3765.988
 124697459.944 8  23729143.632          48.000         944.273
 131794627.19827  25079683.853          46.000       -4360.081
 130763998.981 7  24883558.998          44.000        1121.956
 133258109.39436  25358176.463          40.000       -1620.139
 196544692.410 7  37401209.752          44.000       -1634.335
 196228883.623 7  37341117.849          44.000       -1636.663
 07  8 29 13  9 43.0010000  0 10G20G28G17G11G 4G19G23G 1S37S29
 108737729.353 8  20692107.959          49.000       -1726.731
 110254549.848 8  20980748.604          50.000       -2379.510
 113728699.630 8  21641858.500          51.000         517.242
 115711046.310 8  22019081.369          51.000       -3762.727
 124696515.479 7  23728963.983          47.000         945.525
 131798986.502 7  25080513.315          45.000       -4356.059
 130762874.401 7  24883345.113          45.000        1126.706
 133259728.94026  25358484.756          40.000       -1619.061
 196546324.438 7  37401520.333          43.000       -1629.523
 196230517.249 7  37341428.814          43.000       -1631.998
 07  8 29 13  9 44.0010000  0 10G20G28G17G11G 4G19G23G 1S37S29
 108739454.788 8  20692436.356          49.000       -1723.291
 110256928.086 8  20981201.298          50.000       -2377.772
 113728182.344 8  21641759.888          50.000         516.730
 115714807.872 8  22019797.457          51.000       -3759.573
 124695569.725 7  23728784.019          47.000         945.809
 131803340.076 7  25081342.674          47.000       -4349.477
 130761743.581 7  24883130.251          45.000        1134.488
 133261345.83726  25358792.056          38.000       -1615.378
 196547951.167 7  37401829.657          43.000       -1623.410
 196232146.710 7  37341739.029          43.000       -1624.681
 07  8 29 13  9 45.0010000  0 10G20G28G17G11G 4G19G23G 1S37S29
 108741176.994 8  20692763.880          49.000       -1720.931
 110259304.489 8  20981653.644          51.000       -2375.546
 113727665.079 8  21641661.365          50.000         518.390
 115718566.206 8  22020512.690          51.000       -3756.883
 124694623.536 7  23728604.509          47.000         946.770
 131807687.514 7  25082169.188          46.000       -4345.738
 130760606.123 7  24882913.765          45.000        1139.293
 133262959.95126  25359099.966          39.000       -1612.139
 196549573.110 7  37402138.283          44.000       -1621.513
 196233770.861 7  37342048.161          44.000       -1621.583
 07  8 29 13  9 46.0010000  0 10G20G28G17G11G 4G19G23G 1S37S29
 108742896.909 8  20693091.387          50.000       -1718.750
 110261678.882 8  20982105.309          50.000       -2373.071
 113727145.776 8  21641562.493          50.000         520.674
 115722321.847 8  22021227.609          52.000       -3754.034
 124693675.154 7  23728424.127          46.000         949.831
 131812031.581 7  25082995.510          46.000       -4341.661
 130759465.101 7  24882696.721          45.000        1143.138
 133264571.77527  25359407.178          42.000       -1609.385
 196551192.292 7  37402446.403          44.000       -1617.016
 196235391.872 7  37342356.751          45.000       -1620.045
 07  8 29 13  9 47.0010000  0 10G20G28G17G11G 4G19G23G 1S37S29
 108744614.246 8  20693418.492          49.000       -1716.138
 110264050.961 8  20982557.026          51.000       -2370.925
 113726624.126 8  21641463.534          50.000         523.017
 115726074.480 8  22021941.656          51.000       -3751.174
 124692724.305 7  23728243.588          47.000         951.897
 131816372.156 7  25083821.534          47.000       -4339.110
 130758320.305 7  24882479.275          47.000        1146.638
 133266181.03127  25359713.762          43.000       -1607.766
 196552807.828 7  37402753.807          44.000       -1613.581
 196237009.391 7  37342664.627          45.000       -1615.578
 07  8 29 13  9 48.0010000  0 10G20G28G17G11G 4G19G23G 1S37S29
 108746329.496 8  20693744.673          49.000       -1713.872
 110266421.002 8  20983007.923          51.000       -2369.047
 113726100.092 8  21641364.033          50.000         525.267
 115729824.525 8  22022655.161          51.000       -3748.828
 124691771.060 7  23728062.264          47.000         954.335
 131820710.026 7  25084646.861          46.000       -4336.447
 130757172.618 7  24882260.991          47.000        1148.914
 133267788.09527  25360019.543          42.000       -1605.648
 196554420.230 7  37403060.583          43.000       -1611.197
 196238624.404 7  37342972.031          43.000       -1614.764
 07  8 29 13  9 49.0010000  0 10G20G28G17G11G 4G19G23G 1S37S29
 108748042.679 8  20694070.539          49.000       -1711.827
 110268788.977 8  20983458.383          51.000       -2367.109
 113725573.534 8  21641263.957          50.000         527.615
 115733571.974 8  22023368.580          51.000       -3745.912
 124690815.324 7  23727880.678          47.000         957.368
 131825045.307 7  25085471.716          47.000       -4334.237
 130756022.199 7  24882042.411          47.000        1151.729
 133269393.477 7  25360324.853          42.000       -1602.957
 196556030.108 7  37403366.835          43.000       -1608.604
 196240236.607 7  37343278.807          44.000       -1610.584
 07  8 29 13  9 50.0010000  0 10G20G28G17G11G 4G19G23G 1S37S29
 108749753.759 8  20694396.317          49.000       -1710.092
 110271154.832 8  20983908.862          51.000       -2364.684
 113725044.410 8  21641163.323          50.000         530.400
 115737316.791 8  22024081.178          51.000       -3743.440
 124689857.000 7  23727698.307          47.000         959.785
 131829377.972 7  25086296.187          47.000       -4331.925
 130754868.986 7  24881823.255          47.000        1154.703
 133270996.140 7  25360630.354          42.000       -1601.127
 196557637.194 7  37403672.581          42.000       -1606.743
 196241845.902 7  37343585.060          43.000       -1607.569
 07  8 29 13  9 51.0010000  0 10G20G28G17G11G 4G19G23G 1S37S29
 108751462.839 8  20694721.608          49.000       -1708.165
 110273518.682 8  20984358.781          51.000       -2362.851
 113724512.829 8  21641062.462          50.000         532.819
 115741059.107 8  22024793.514          51.000       -3740.601
 124688896.219 7  23727515.551          47.000         962.096
 131833708.130 7  25087119.961          47.000       -4328.352
 130753713.108 7  24881603.191          47.000        1157.501
 133272596.671 7  25360935.350          43.000       -1599.566
 196559241.912 7  37403977.962          43.000       -1602.547
 196243453.187 7  37343890.928          44.000       -1605.279
 07  8 29 13  9 52.0010000  0 10G20G28G17G11G 4G19G23G 1S37S29
 108753169.848 8  20695046.305          49.000       -1706.054
 110275880.466 8  20984808.003          51.000       -2360.949
 113723978.719 8  21640960.867          50.000         535.025
 115744798.818 8  22025505.257          52.000       -3738.581
 124687932.926 8  23727332.482          48.000         964.240
 131838035.711 7  25087943.612          47.000       -4326.497
 130752554.475 7  24881382.517          47.000        1160.260
 133274195.004 7  25361239.805          43.000       -1597.687
 196560843.991 7  37404282.835          44.000       -1599.911
 196245057.243 7  37344196.169          45.000       -1600.537
 07  8 29 13  9 53.0010000  0 10G20G28G17G11G 4G19G23G 1S37S29
 108754875.006 8  20695370.548          49.000       -1704.651
 110278240.371 8  20985257.068          51.000       -2358.989
 113723442.296 8  21640858.837          50.000         537.702
 115748536.154 8  22026216.441          52.000       -3736.143
 124686967.325 8  23727148.784          48.000         966.618
 131842360.912 7  25088766.321          46.000       -4324.381
 130751393.298 8  24881161.406          48.000        1162.466
 133275791.354 7  25361543.614          44.000       -1595.707
 196562443.392 7  37404587.290          43.000       -1598.187
 196246658.820 7  37344501.094          43.000       -1600.141
 07  8 29 13  9 54.0010000  0 10G20G28G17G11G 4G19G23G 1S37S29
 108756578.236 8  20695694.599          49.000       -1702.233
 110280598.349 8  20985705.975          51.000       -2356.540
 113722903.493 8  21640755.882          50.000         540.407
 115752271.045 8  22026927.225          52.000       -3733.481
 124685999.356 8  23726964.790          48.000         969.590
 131846683.689 7  25089589.013          46.000       -4320.595
 130750229.504 8  24880939.824          48.000        1164.961
 133277385.650 7  25361847.423          44.000       -1591.989
 196564040.145 7  37404891.239          43.000       -1595.189
 196248257.908 7  37344805.497          45.000       -1597.351
 07  8 29 13  9 55.0010000  0 10G20G28G17G11G 4G19G23G 1S37S29
 108758279.339 8  20696018.180          49.000       -1699.716
 110282954.179 8  20986154.220          51.000       -2354.816
 113722362.096 8  21640652.909          50.000         542.947
 115756003.275 8  22027637.764          52.000       -3730.566
 124685028.808 8  23726780.098          48.000         971.875
 131851003.816 7  25090411.006          46.000       -4318.867
 130749062.912 7  24880717.876          47.000        1168.197
 133278977.681 7  25362150.726          44.000       -1590.666
 196565634.291 7  37405194.664          43.000       -1593.105
 196249853.917 7  37345109.202          44.000       -1594.320
 07  8 29 13  9 56.0010000  0 10G20G28G17G11G 4G19G23G 1S37S29
 108759978.548 8  20696341.568          49.000       -1697.718
 110285308.130 8  20986602.133          51.000       -2352.717
 113721818.358 8  21640549.482          50.000         545.306
 115759733.103 8  22028347.622          52.000       -3728.146
 124684055.909 7  23726595.040          47.000         974.509
 131855321.553 7  25091232.615          46.000       -4316.533
 130747893.753 7  24880495.247          47.000        1170.826
 133280567.735 7  25362453.715          44.000       -1588.425
 196567225.954 7  37405497.497          43.000       -1589.592
 196251447.358 7  37345412.540          43.000       -1591.286
 07  8 29 13  9 57.0010000  0 10G20G28G17G11G 4G19G23G 1S37S29
 108761675.730 8  20696664.589          49.000       -1696.228
 110287660.026 8  20987049.609          51.000       -2350.581
 113721272.124 8  21640445.480          50.000         547.376
 115763460.381 8  22029056.678          52.000       -3725.822
 124683080.498 7  23726409.300          47.000         976.611
 131859636.739 7  25092053.736          46.000       -4313.966
 130746721.889 7  24880272.426          47.000        1173.217
 133282155.597 7  25362755.919          44.000       -1586.793
 196568814.917 7  37405799.928          42.000       -1585.587
 196253037.831 7  37345715.215          44.000       -1588.879
 07  8 29 13  9 58.0010000  0 10G20G28G17G11G 4G19G23G 1S37S29
 108763371.022 8  20696987.349          49.000       -1694.341
 110290010.033 8  20987496.929          51.000       -2349.077
 113720723.560 8  21640340.989          50.000         549.843
 115767185.257 8  22029765.698          51.000       -3723.529
 124682102.762 7  23726223.229          47.000         978.731
 131863949.541 7  25092874.630          46.000       -4311.382
 130745547.458 7  24880049.169          47.000        1176.163
 133283741.481 7  25363057.511          43.000       -1585.022
 196570400.939 7  37406101.887          43.000       -1584.858
 196254626.238 7  37346017.611          45.000       -1585.754
 07  8 29 13  9 59.0010000  0 10G20G28G17G11G 4G19G23G 1S37S29
 108765064.172 8  20697309.760          49.000       -1691.850
 110292357.886 8  20987943.603          51.000       -2346.823
 113720172.380 8  21640236.079          50.000         552.674
 115770907.451 8  22030473.969          52.000       -3720.603
 124681122.420 7  23726036.618          47.000         982.217
 131868259.681 7  25093695.123          46.000       -4308.395
 130744370.196 7  24879825.039          47.000        1178.598
 133285325.068 7  25363358.965          44.000       -1582.368
 196571984.107 7  37406403.270          42.000       -1582.830
 196256211.825 7  37346319.396          43.000       -1583.103
 07  8 29 13 10  0.0010000  0 10G20G28G17G11G 4G19G23G 1S37S29
 108766755.526 8  20697631.386          49.000       -1690.545
 110294703.944 8  20988390.085          51.000       -2344.842
 113719618.963 8  21640130.751          50.000         554.721
 115774627.348 8  22031181.803          52.000       -3718.459
 124680139.820 7  23725849.552          47.000         983.473
 131872567.525 7  25094514.866          46.000       -4306.080
 130743190.467 7  24879600.857          47.000        1180.958
 133286906.749 7  25363659.825          44.000       -1580.665
 196573564.913 7  37406704.044          44.000       -1578.526
 196257794.497 7  37346620.552          45.000       -1581.077
 07  8 29 13 10  1.0010000  0 10G20G28G17G11G 4G19G23G 1S37S29
 108768445.178 8  20697952.959          49.000       -1688.347
 110297048.288 8  20988836.008          51.000       -2343.304
 113719063.377 8  21640024.619          50.000         556.997
 115778345.013 8  22031889.131          52.000       -3716.458
 124679155.089 8  23725661.876          48.000         986.029
 131876873.154 7  25095334.329          46.000       -4303.802
 130742008.363 7  24879375.995          47.000        1183.346
 133288486.596 7  25363960.457          44.000       -1579.666
 196575143.278 7  37407004.362          43.000       -1577.529
 196259375.093 7  37346921.290          44.000       -1579.370
 07  8 29 13 10  2.0010000  0 10G20G28G17G11G 4G19G23G 1S37S29
 108770132.868 8  20698274.166          49.000       -1686.631
 110299390.655 8  20989281.862          51.000       -2341.329
 113718505.371 8  21639918.488          50.000         559.143
 115782060.189 8  22032596.267          52.000       -3713.885
 124678167.922 8  23725473.886          48.000         988.839
 131881176.316 7  25096153.146          46.000       -4301.483
 130740823.620 8  24879150.713          48.000        1185.841
 133290064.361 7  25364260.445          44.000       -1576.709
 196576718.889 7  37407304.124          43.000       -1572.699
 196260952.869 7  37347221.575          44.000       -1575.628
 07  8 29 13 10  3.0010000  0 10G20G28G17G11G 4G19G23G 1S37S29
 108771818.719 8  20698595.251          49.000       -1684.942
 110301731.176 8  20989727.262          51.000       -2339.609
 113717945.075 8  21639812.042          50.000         561.706
 115785773.013 8  22033302.688          51.000       -3711.427
 124677178.454 7  23725285.407          47.000         991.201
 131885477.125 7  25096971.545          46.000       -4299.244
 130739636.360 8  24878924.542          48.000        1189.183
 133291640.170 7  25364560.433          44.000       -1574.973
 196578292.087 7  37407603.536          43.000       -1570.197
 196262528.017 7  37347521.458          44.000       -1573.874
 07  8 29 13 10  4.0010000  0 10G20G28G17G11G 4G19G23G 1S37S29
 108773502.659 8  20698915.830          49.000       -1682.840
 110304069.775 8  20990172.226          50.000       -2337.417
 113717382.410 8  21639705.265          50.000         563.836
 115789483.413 8  22034008.707          51.000       -3709.311
 124676186.638 7  23725096.771          47.000         992.956
 131889775.516 7  25097789.577          46.000       -4297.652
 130738446.506 8  24878698.249          48.000        1190.989
 133293213.930 7  25364859.932          44.000       -1572.635
 196579862.801 7  37407902.337          43.000       -1567.730
 196264101.072 7  37347821.061          42.000       -1572.208
 07  8 29 13 10  5.0010000  0 10G20G28G17G11G 4G19G23G 1S37S29
 108775184.676 8  20699235.902          49.000       -1680.853
 110306406.468 8  20990616.702          51.000       -2335.425
 113716817.387 8  21639597.790          50.000         566.284
 115793191.384 8  22034714.081          51.000       -3706.492
 124675192.454 8  23724907.594          48.000         995.535
 131894071.473 7  25098607.138          46.000       -4294.239
 130737254.080 8  24878471.240          48.000        1193.910
 133294785.652 7  25365159.012          44.000       -1570.569
 196581431.058 7  37408200.754          42.000       -1565.737
 196265671.499 7  37348119.950          43.000       -1568.412
 07  8 29 13 10  6.0010000  0 10G20G28G17G11G 4G19G23G 1S37S29
 108776864.897 8  20699555.626          49.000       -1679.006
 110308741.360 8  20991061.124          51.000       -2333.749
 113716250.105 8  21639489.635          50.000         568.740
 115796897.042 8  22035419.210          51.000       -3704.295
 124674196.039 8  23724718.068          48.000         997.796
 131898365.132 7  25099424.280          46.000       -4291.837
 130736059.157 8  24878243.987          48.000        1196.365
 133296355.462 7  25365457.830          44.000       -1568.110
 196582996.968 7  37408498.769          43.000       -1564.279
 196267239.355 7  37348418.384          44.000       -1566.665
 07  8 29 13 10  7.0010000  0 10G20G28G17G11G 4G19G23G 1S37S29
 108778543.896 8  20699875.558          49.000       -1678.510
 110311074.732 8  20991505.268          51.000       -2332.162
 113715680.478 8  21639381.323          49.000         572.726
 115800600.865 8  22036123.379          50.000       -3703.101
 124673197.377 7  23724528.351          47.000        1001.189
 131902657.497 7  25100240.758          45.000       -4293.347
 130734862.853 7  24878015.842          47.000        1195.188
 133297923.808 7  25365756.386          43.000       -1568.183
 196584561.254 7  37408796.487          43.000       -1564.578
 196268805.513 7  37348716.469          44.000       -1566.267
 07  8 29 13 10  8.0010000  0 10G20G28G17G11G 4G19G23G 1S37S29
 108780223.015 8  20700194.688          49.000       -1678.475
 110313405.663 8  20991948.941          51.000       -2329.563
 113715103.711 8  21639271.127          51.000         579.466
 115804303.388 8  22036827.723          50.000       -3701.005
 124672192.561 7  23724336.331          46.000        1008.299
 131906954.082 7  25101058.578          46.000       -4298.764
 130733671.308 7  24877788.604          47.000        1190.370
 133299490.930 6  25366053.913          41.000       -1566.724
 196586127.219 7  37409094.519          43.000       -1566.671
 196270373.307 7  37349014.937          43.000       -1567.827
 07  8 29 13 10  9.0010000  0 10G20G28G17G11G 4G19G23G 1S37S29
 108781901.496 8  20700513.922          49.000       -1678.014
 110315734.452 8  20992392.282          50.000       -2327.585
 113714521.678 8  21639160.338          51.000         583.826
 115808004.027 8  22037531.700          51.000       -3698.965
 124671183.295 7  23724143.978          47.000        1011.060
 131911252.297 7  25101876.207          46.000       -4299.823
 130732481.652 7  24877562.152          46.000        1190.515
 133301056.196 7  25366350.846          42.000       -1564.464
 196587693.102 7  37409392.534          43.000       -1565.198
 196271941.074 7  37349313.231          44.000       -1567.465
 07  8 29 13 10 10.0010000  0 10G20G28G17G11G 4G19G23G 1S37S29
 108783578.412 8  20700833.000          49.000       -1675.573
 110318061.268 8  20992834.977          51.000       -2324.946
 113713936.329 8  21639049.024          51.000         586.291
 115811702.364 8  22038235.119          50.000       -3696.941
 124670171.027 8  23723951.311          48.000        1013.121
 131915549.250 7  25102694.764          47.000       -4294.930
 130731290.855 7  24877335.265          45.000        1192.233
 133302619.16636  25366647.187          37.000       -1561.630
 196589257.399 7  37409690.289          43.000       -1561.297
 196273507.012 7  37349611.246          44.000       -1565.742
 07  8 29 13 10 11.0010000  0 10G20G28G17G11G 4G19G23G 1S37S29
 108785253.681 8  20701151.746          49.000       -1675.090
 110320386.619 8  20993277.288          50.000       -2324.967
 113713348.975 8  21638937.535          51.000         589.836
 115815398.486 8  22038938.765          51.000       -3695.041
 124669156.957 8  23723757.946          48.000        1014.381
 131919844.144 7  25103511.836          46.000       -4293.797
 130730097.762 7  24877108.029          45.000        1193.542
 133304180.51636  25366943.563          40.000       -1558.584
 196590819.690 7  37409987.640          44.000       -1562.066
 196275070.885 7  37349908.791          45.000       -1562.943
 07  8 29 13 10 12.0010000  0 10G20G28G17G11G 4G19G23G 1S37S29
 108786927.563 8  20701470.458          49.000       -1672.417
 110322710.770 8  20993719.459          50.000       -2324.225
 113712757.275 8  21638824.844          51.000         594.533
 115819091.507 8  22039641.452          51.000       -3690.729
 124668140.393 7  23723564.511          47.000        1017.082
 131924138.850 7  25104329.291          46.000       -4294.517
 130728905.385 7  24876881.193          46.000        1192.044
 133305738.62626  25367240.060          41.000       -1556.382
 196592382.015 7  37410284.817          45.000       -1564.093
 196276634.884 7  37350206.474          45.000       -1564.738
 07  8 29 13 10 13.0010000  0 10G20G28G17G11G 4G19G23G 1S37S29
 108788599.461 8  20701788.175          49.000       -1669.758
 110325035.455 8  20994161.822          51.000       -2324.889
 113712161.702 8  21638711.523          51.000         596.698
 115822779.372 8  22040342.866          51.000       -3685.147
 124667124.191 8  23723371.250          48.000        1016.057
 131928431.650 7  25105146.329          43.000       -4290.545
 130727713.096 7  24876654.358          46.000        1193.435
 133307290.66127  25367535.251          43.000       -1549.166
 196593945.260 7  37410582.256          45.000       -1563.487
 196278199.191 7  37350504.141          44.000       -1562.187
 07  8 29 13 10 14.0010000  0 10G20G28G17G11G 4G19G23G 1S37S29
 108790268.544 8  20702105.596          49.000       -1667.253
 110327361.473 8  20994604.306          50.000       -2327.024
 113711563.640 8  21638597.661          51.000         598.365
 115826461.200 8  22041043.338          50.000       -3678.235
 124666110.315 8  23723178.685          48.000        1012.003
 131932720.457 7  25105962.827          45.000       -4285.159
 130726519.039 7  24876428.099          47.000        1195.761
 133308835.44727  25367828.540          43.000       -1539.438
 196595508.642 7  37410879.765          44.000       -1562.827
 196279764.017 7  37350801.944          44.000       -1566.138
 07  8 29 13 10 15.0010000  0 10G20G28G17G11G 4G19G23G 1S37S29
 108791934.267 8  20702422.912          49.000       -1663.786
 110329688.724 8  20995047.018          49.000       -2328.410
 113710965.176 8  21638483.851          51.000         598.515
 115830137.118 8  22041742.919          51.000       -3672.368
 124665099.765 7  23722986.505          47.000        1008.490
 131937002.918 7  25106778.645          46.000       -4279.167
 130725320.189 7  24876200.236          47.000        1201.052
 133310373.33627  25368120.956          43.000       -1533.683
 196597069.848 7  37411176.943          44.000       -1558.993
 196281327.950 7  37351099.629          42.000       -1563.816
 07  8 29 13 10 16.0010000  0 10G20G28G17G11G 4G19G23G 1S37S29
 108793596.019 8  20702739.320          49.000       -1660.058
 110332017.882 8  20995490.113          50.000       -2330.126
 113710366.177 8  21638370.110          52.000         599.684
 115833805.736 8  22042440.949          50.000       -3663.674
 124664093.854 7  23722794.951          47.000        1003.079
 131941278.102 7  25107592.456          44.000       -4270.592
 130724116.371 7  24875971.675          47.000        1206.247
 133311902.79227  25368410.841          43.000       -1527.945
 196598629.253 7  37411473.650          44.000       -1557.970
 196282890.214 7  37351396.894          44.000       -1561.387
 07  8 29 13 10 17.0010000  0 10G20G28G17G11G 4G19G23G 1S37S29
 108795253.314 8  20703054.613          49.000       -1655.363
 110334349.694 8  20995933.662          50.000       -2332.552
 113709767.889 8  21638256.387          51.000         597.330
 115837466.396 8  22043137.267          50.000       -3656.341
 124663094.123 7  23722604.305          46.000         996.189
 131945544.219 6  25108404.661          41.000       -4264.341
 130722906.009 7  24875742.104          47.000        1214.892
 133313422.75736  25368698.897          40.000       -1514.013
 196600186.372 7  37411770.077          44.000       -1556.281
 196284450.787 7  37351693.862          43.000       -1560.287
 07  8 29 13 10 18.0010000  0 10G20G28G17G11G 4G19G23G 1S37S29
 108796905.966 8  20703369.050          48.000       -1650.939
 110336684.041 8  20996378.065          49.000       -2335.317
 113709171.308 8  21638142.977          51.000         596.991
 115841119.321 8  22043832.347          50.000       -3648.858
 124662100.980 7  23722414.898          45.000         989.224
 131949800.08037  25109214.287          43.000       -4251.510
 130721687.682 7  24875510.874          45.000        1222.431
 133314933.77026  25368985.974          41.000       -1505.608
 196601740.087 7  37412065.651          44.000       -1551.944
 196286008.952 7  37351990.186          44.000       -1556.471
 07  8 29 13 10 19.0010000  0 10G20G28G17G11G 4G19G23G 1S37S29
 108798554.574 8  20703683.086          49.000       -1646.674
 110339019.979 8  20996822.260          50.000       -2336.034
 113708575.262 8  21638029.498          51.000         596.503
 115844765.597 8  22044526.135          50.000       -3643.571
 124661112.332 7  23722225.929          44.000         986.828
 131954048.05337  25110022.723          43.000       -4243.174
 130720462.838 7  24875277.548          45.000        1225.933
 133316437.19926  25369272.089          39.000       -1501.471
 196603290.745 7  37412360.770          44.000       -1548.573
 196287565.306 7  37352286.439          43.000       -1555.309
 07  8 29 13 10 20.0010000  0 10G20G28G17G11G 4G19G23G 1S37S29
 108800200.269 8  20703996.300          49.000       -1644.998
 110341356.513 8  20997266.874          50.000       -2336.401
 113707977.673 8  21637915.985          51.000         598.266
 115848406.575 8  22045219.207          50.000       -3640.056
 124660125.578 7  23722037.763          46.000         986.391
 131958291.05736  25110829.307          40.000       -4244.069
 130719234.673 7  24875043.001          45.000        1230.347
 133317934.62926  25369556.600          41.000       -1495.218
 196604839.965 7  37412655.574          44.000       -1549.013
 196289120.739 7  37352582.446          43.000       -1556.054
 07  8 29 13 10 21.0010000  0 10G20G28G17G11G 4G19G23G 1S37S29
 108801843.776 8  20704309.253          49.000       -1643.209
 110343692.264 8  20997711.472          50.000       -2335.135
 113707377.815 8  21637802.176          51.000         600.435
 115852043.895 8  22045911.511          50.000       -3635.634
 124659138.060 7  23721849.825          46.000         989.195
 131962531.60837  25111637.202          44.000       -4239.659
 130718004.243 7  24874809.850          44.000        1232.674
 133319428.21926  25369840.882          41.000       -1494.005
 196606387.587 7  37412950.117          44.000       -1547.055
 196290674.416 7  37352878.246          43.000       -1552.593
 07  8 29 13 10 22.0010000  0 10G20G28G17G11G 4G19G23G 1S37S29
 108803485.340 8  20704621.526          49.000       -1640.653
 110346027.371 8  20998156.103          50.000       -2334.882
 113706775.775 8  21637687.773          51.000         603.352
 115855677.915 8  22046603.326          50.000       -3631.128
 124658149.940 7  23721661.851          46.000         988.612
                  25112443.019          37.000       -4235.541
 130716771.58937  24874576.158          44.000        1235.304
 133320918.41626  25370124.834          41.000       -1489.430
 196607933.971 7  37413244.415          44.000       -1546.471
 196292226.638 7  37353173.592          45.000       -1549.628
 07  8 29 13 10 23.0010000  0 10G20G28G17G11G 4G19G23G 1S37S29
 108805124.330 8  20704933.467          49.000       -1637.975
 110348362.731 8  20998600.577          50.000       -2335.425
 113706171.604 8  21637572.847          51.000         605.212
 115859307.116 8  22047293.711          50.000       -3626.942
 124657162.768 7  23721474.173          46.000         986.489
 131971016.25336  25113249.553          40.000       -4230.332
 130715536.68137  24874341.367          44.000        1239.552
 133322403.29826  25370407.547          40.000       -1482.717
 196609479.362 7  37413538.504          44.000       -1544.525
 196293778.188 7  37353468.973          45.000       -1548.575
 07  8 29 13 10 24.0010000  0 10G20G28G17G11G 4G19G23G 1S37S29
 108806760.864 8  20705245.007          48.000       -1634.954
 110350698.130 8  20999045.104          50.000       -2335.788
 113705565.444 8  21637457.310          51.000         607.116
 115862931.865 8  22047983.415          50.000       -3622.430
 124656176.202 7  23721286.478          46.000         986.518
 131975246.37227  25114054.759          42.000       -4228.352
 130714298.98627  24874106.784          45.000        1240.376
 133323883.18926  25370688.986          39.000       -1477.141
 196611023.151 7  37413832.419          43.000       -1542.799
 196295328.515 7  37353764.091          43.000       -1549.085
 07  8 29 13 10 25.0010000  0 10G20G28G17G11G 4G19G23G 1S37S29
 108808394.991 8  20705555.901          48.000       -1632.230
 110353033.446 8  20999489.614          50.000       -2335.385
 113704957.230 8  21637341.616          51.000         609.387
 115866552.269 8  22048672.631          50.000       -3618.047
 124655190.061 7  23721098.662          46.000         986.368
 131979472.70827  25114859.861          44.000       -4224.300
 130713058.92327  24873869.688          43.000        1241.702
 133325358.925 6  25370969.692          41.000       -1472.537
 196612565.105 7  37414125.863          43.000       -1540.615
 196296877.983 7  37354059.052          43.000       -1547.666
 07  8 29 13 10 26.0010000  0 10G20G28G17G11G 4G19G23G 1S37S29
 108810026.507 8  20705866.271          49.000       -1630.013
 110355368.729 8  20999934.036          50.000       -2334.655
 113704346.658 8  21637225.538          51.000         611.691
 115870167.952 8  22049360.503          50.000       -3612.926
 124654204.431 7  23720910.984          46.000         985.818
 131983695.60626  25115663.777          39.000       -4218.574
 130711816.38027  24873632.977          44.000        1244.486
 133326828.885 7  25371249.299          42.000       -1466.487
 196614105.820 7  37414419.062          43.000       -1539.370
 196298425.969 7  37354353.735          43.000       -1545.667
 07  8 29 13 10 27.0010000  0 10G20G28G17G11G 4G19G23G 1S37S29
 108811656.040 8  20706176.258          49.000       -1628.702
 110357702.904 8  21000378.214          50.000       -2333.526
 113703734.092 8  21637108.971          51.000         613.474
 115873780.671 8  22050047.902          50.000       -3612.119
 124653217.645 7  23720722.872          45.000         988.531
 131987914.76236  25116465.580          39.000       -4220.015
 130710571.33237  24873395.865          45.000        1248.506
 133328295.974 6  25371528.241          41.000       -1466.160
 196615644.508 7  37414711.946          44.000       -1538.599
 196299972.363 7  37354648.102          43.000       -1546.384
 07  8 29 13 10 28.0010000  0 10G20G28G17G11G 4G19G23G 1S37S29
 108813283.805 8  20706485.877          49.000       -1626.819
 110360036.072 8  21000822.340          51.000       -2333.177
 113703119.438 8  21636991.759          51.000         615.682
 115877390.608 8  22050735.006          50.000       -3607.958
 124652229.685 7  23720535.177          46.000         987.374
 131992132.62026  25117266.756          41.000       -4214.238
 130709324.31137  24873158.368          42.000        1248.809
 133329760.546 6  25371807.010          41.000       -1463.160
 196617181.577 7  37415004.535          43.000       -1535.764
 196301517.077 7  37354942.331          45.000       -1544.058
 07  8 29 13 10 29.0010000  0 10G20G28G17G11G 4G19G23G 1S37S29
 108814909.118 8  20706795.236          49.000       -1624.224
 110362368.937 8  21001266.134          51.000       -2332.383
 113702502.256 8  21636874.529          51.000         618.045
 115880996.244 8  22051420.941          50.000       -3603.651
 124651241.792 7  23720347.257          46.000         989.359
 131996345.36736  25118067.687          36.000       -4212.468
 130708075.08737  24872919.945          43.000        1248.133
 133331220.431 6  25372084.766          41.000       -1459.509
 196618717.720 7  37415296.757          44.000       -1535.714
 196303060.453 7  37355236.210          43.000       -1544.983
 07  8 29 13 10 30.0010000  0 10G20G28G17G11G 4G19G23G 1S37S29
 108816531.842 8  20707104.263          49.000       -1620.809
 110364701.344 8  21001709.981          51.000       -2331.721
 113701882.683 8  21636756.532          51.000         620.522
 115884597.467 8  22052106.404          50.000       -3599.054
 124650254.009 7  23720159.282          46.000         987.434
 132000558.31736  25118869.945          38.000       -4207.536
 130706825.61836  24872681.891          36.000        1253.031
 133332675.760 7  25372361.826          42.000       -1451.338
 196620252.342 7  37415588.717          45.000       -1533.127
 196304602.716 7  37355529.741          45.000       -1541.194
 07  8 29 13 10 31.0010000  0 10G20G28G17G11G 4G19G23G 1S37S29
 108818152.104 8  20707412.540          48.000       -1617.850
 110367033.152 8  21002153.723          51.000       -2330.842
 113701260.863 8  21636637.924          51.000         623.969
 115888194.691 8  22052790.960          50.000       -3595.561
 124649265.983 7  23719971.728          46.000         988.912
                  25119670.178          36.000       -4205.426
 130705571.65237  24872443.766          42.000        1254.138
 133334126.952 7  25372638.221          43.000       -1449.787
 196621785.103 7  37415880.452          44.000       -1529.235
 196306143.365 7  37355822.994          44.000       -1537.886
 07  8 29 13 10 32.0010000  0 10G20G28G17G11G 4G19G23G 1S37S29
 108819769.877 8  20707720.484          49.000       -1617.493
 110369364.243 8  21002597.429          50.000       -2331.830
 113700636.851 8  21636519.228          51.000         624.678
 115891788.015 8  22053474.801          50.000       -3592.044
 124648277.776 7  23719783.771          47.000         988.781
 132008966.06536  25120471.020          38.000       -4207.357
 130704315.76836  24872203.200          40.000        1263.301
 133335574.310 7  25372913.413          42.000       -1444.915
 196623316.008 7  37416171.817          44.000       -1531.194
 196307682.240 7  37356115.861          43.000       -1537.287
 07  8 29 13 10 33.0010000  0 10G20G28G17G11G 4G19G23G 1S37S29
 108821386.222 8  20708028.184          49.000       -1615.145
 110371695.471 8  21003040.752          50.000       -2330.607
 113700011.412 8  21636400.445          51.000         626.579
 115895378.310 8  22054157.908          50.000       -3588.301
 124647289.568 7  23719595.588          46.000         988.380
 132013169.30835  25121271.518          35.000       -4196.849
 130703057.13037  24871962.857          42.000        1259.980
 133337018.242 6  25373188.167          40.000       -1442.346
 196624845.987 7  37416462.870          44.000       -1529.961
 196309220.002 7  37356408.589          43.000       -1535.387
 07  8 29 13 10 34.0010000  0 11G20G28G17G11G 4G19G23G 1S37S29S27
 108823000.833 8  20708335.361          49.000       -1613.200
 110374026.496 8  21003484.372          50.000       -2330.367
 113699384.105 8  21636280.894          51.000         628.384
 115898965.272 8  22054840.597          50.000       -3584.977
 124646301.074 7  23719407.493          46.000         989.591
 132017370.32136  25122070.091          36.000       -4200.519
                  24871723.040          38.000        1262.023
 133338458.434 6  25373461.893          40.000       -1437.876
 196626374.710 7  37416753.818          44.000       -1528.028
 196310756.977 7  37356701.089          44.000       -1537.158
 215346932.89726  40979158.794          38.000       -1483.635
 07  8 29 13 10 35.0010000  0 11G20G28G17G11G 4G19G23G 1S37S29S27
 108824613.841 8  20708642.136          49.000       -1612.911
 110376357.450 8  21003927.991          50.000       -2331.375
 113698754.804 8  21636161.396          51.000         630.591
 115902548.907 8  22055522.640          50.000       -3581.748
 124645312.228 7  23719219.396          46.000         989.045
                  25122866.644          38.000       -4193.065
                  24871483.534          38.000        1258.940
 133339894.786 6  25373734.955          41.000       -1435.491
 196627902.420 7  37417044.451          44.000       -1528.025
 196312293.203 7  37356993.555          45.000       -1534.549
 215348416.99136  40979450.021          39.000       -1483.145
 07  8 29 13 10 36.0010000  0 11G20G28G17G11G 4G19G23G 1S37S29S27
 108826225.543 8  20708949.052          49.000       -1610.810
 110378687.472 8  21004371.489          50.000       -2329.469
 113698123.631 8  21636041.112          51.000         631.881
 115906130.266 8  22056204.264          50.000       -3579.906
 124644321.812 7  23719030.830          45.000         991.204
 132025744.04836  25123663.787          40.000       -4194.335
 130699255.14437  24871241.432          45.000        1265.174
 133341328.792 7  25374008.000          43.000       -1432.867
 196629428.350 7  37417334.824          44.000       -1524.105
 196313827.754 7  37357285.568          44.000       -1532.928
 215349899.15136  40979736.223          37.000       -1479.885
 07  8 29 13 10 37.0010000  0 11G20G28G17G11G 4G19G23G 1S37S29S27
 108827836.016 8  20709255.687          49.000       -1608.999
 110381017.379 8  21004815.004          50.000       -2329.331
 113697491.433 8  21635920.968          51.000         633.622
 115909709.197 8  22056885.207          50.000       -3576.474
 124643331.081 7  23718842.246          46.000         991.015
 132029936.09926  25124462.137          38.000       -4187.654
 130697988.05627  24871001.023          45.000        1270.424
 133342760.148 7  25374280.521          43.000       -1428.779
 196630952.920 7  37417625.075          44.000       -1522.518
 196315361.484 7  37357577.458          43.000       -1533.119
                  40980019.823          29.000       -1481.800
 07  8 29 13 10 38.0010000  0 11G20G28G17G11G 4G19G23G 1S37S29S27
 108829443.780 8  20709561.398          49.000       -1607.269
 110383346.740 8  21005257.908          50.000       -2329.322
 113696857.659 8  21635800.422          51.000         633.794
 115913284.002 8  22057565.715          50.000       -3573.486
 124642340.549 7  23718653.382          46.000         991.198
 132034123.51827  25125260.310          43.000       -4187.254
 130696717.21137  24870759.931          43.000        1271.774
 133344187.313 7  25374552.467          42.000       -1424.664
 196632475.105 7  37417914.836          44.000       -1519.778
 196316892.515 7  37357868.860          43.000       -1531.308
                  40980304.887          35.000       -1490.788
 07  8 29 13 10 39.0010000  0 11G20G28G17G11G 4G19G23G 1S37S29S27
 108831049.285 8  20709867.040          49.000       -1603.902
 110385675.132 8  21005701.197          50.000       -2326.548
 113696222.233 8  21635679.860          51.000         637.405
 115916855.507 8  22058245.088          50.000       -3569.705
 124641349.230 7  23718464.624          46.000         993.280
 132038307.55937  25126057.123          43.000       -4183.150
 130695443.12827  24870518.230          45.000        1277.743
 133345611.183 7  25374823.225          43.000       -1424.525
 196633995.031 7  37418204.075          44.000       -1517.499
 196318421.145 7  37358159.704          43.000       -1528.414
 215354453.20735  40980589.887          35.000       -1481.441
 07  8 29 13 10 40.0010000  0 11G20G28G17G11G 4G19G23G 1S37S29S27
 108832652.697 8  20710172.053          49.000       -1603.055
 110388001.381 8  21006143.891          50.000       -2325.862
 113695584.990 8  21635558.267          51.000         639.155
 115920424.787 8  22058924.338          50.000       -3568.346
 124640355.696 7  23718275.377          46.000         994.771
 132042488.79836  25126853.275          41.000       -4175.903
 130694165.75037  24870275.533          46.000        1279.551
 133347033.451 6  25375093.775          40.000       -1419.557
 196635511.487 7  37418492.493          45.000       -1515.420
 196319946.855 7  37358450.024          44.000       -1525.365
                  40980899.163          37.000       -1467.958
 07  8 29 13 10 41.0010000  0 11G20G28G17G11G 4G19G23G 1S37S29S27
 108834253.746 8  20710476.596          49.000       -1599.244
 110390326.088 8  21006585.976          50.000       -2324.346
 113694946.352 8  21635436.849          51.000         639.496
 115923991.263 8  22059602.926          50.000       -3564.859
 124639360.988 7  23718085.920          46.000         995.646
 132046666.38936  25127648.481          41.000       -4175.893
 130692884.66537  24870031.999          45.000        1281.461
 133348453.586 7  25375364.602          42.000       -1419.288
 196637024.583 7  37418780.441          45.000       -1510.238
 196321469.370 7  37358739.909          44.000       -1519.708
 215357645.77436  40981197.505          37.000       -1478.525
 07  8 29 13 10 42.0010000  0 11G20G28G17G11G 4G19G23G 1S37S29S27
 108835851.897 8  20710780.248          49.000       -1596.148
 110392649.082 8  21007028.200          50.000       -2322.319
 113694305.57938  21635314.785          51.000         640.410
 115927554.296 8  22060280.537          51.000       -3560.427
 124638365.311 7  23717896.586          46.000         996.575
 132050839.89636  25128441.369          40.000       -4170.182
 130691599.37237  24869787.681          45.000        1288.707
 133349870.835 6  25375634.437          41.000       -1413.980
 196638534.49437  37419067.864          43.000       -1507.876
 196322987.56837  37359029.043          43.000       -1516.626
                  40981493.622          39.000       -1466.252
 07  8 29 13 10 43.0010000  0 11G20G28G17G11G 4G19G23G 1S37S29S27
 108837446.864 8  20711084.162          49.000       -1592.931
 110394970.407 8  21007470.110          50.000       -2320.447
 113693664.24228  21635192.739          51.000         642.080
 115931113.733 8  22060957.991          51.000       -3557.010
 124637369.128 7  23717707.094          46.000         996.688
 132055008.57036  25129234.500          41.000       -4167.918
 130690309.10537  24869542.333          44.000        1292.461
 133351285.132 7  25375903.537          42.000       -1413.287
 196640040.148 7  37419354.294          43.000       -1503.576
 196324502.93927  37359317.269          43.000       -1513.784
 215360698.60536  40981778.459          37.000       -1475.532
 07  8 29 13 10 44.0010000  0 11G20G28G17G11G 4G19G23G 1S37S29S27
 108839039.072 8  20711387.134          49.000       -1590.596
 110397290.222 8  21007911.531          50.000       -2318.864
 113693021.95828  21635070.256          51.000         643.608
 115934669.952 8  22061634.624          50.000       -3554.396
 124636372.233 7  23717517.515          46.000         997.732
 132059172.70436  25130027.441          40.000       -4159.835
 130689014.07837  24869295.972          43.000        1295.794
 133352696.631 6  25376171.731          41.000       -1409.747
 196641541.886 7  37419639.885          43.000       -1500.590
 196326015.136 7  37359604.956          42.000       -1508.038
                  40982068.887          38.000       -1509.254
 07  8 29 13 10 45.0010000  0 11G20G28G17G11G 4G19G23G 1S37S29S27
 108840629.286 8  20711689.843          48.000       -1589.516
 110399608.368 8  21008352.795          50.000       -2317.817
 113692378.85928  21634947.913          50.000         643.802
 115938224.106 8  22062311.169          50.000       -3553.589
 124635373.797 7  23717327.778          46.000         997.064
 132063333.17036  25130819.296          40.000       -4160.030
                  24869049.035          43.000        1300.530
 133354106.768 6  25376440.098          41.000       -1409.026
 196643039.839 7  37419924.883          42.000       -1498.949
 196327522.960 7  37359891.873          42.000       -1504.811
 215363810.56035  40982370.564          35.000       -1469.497
 07  8 29 13 10 46.0010000  0 11G20G28G17G11G 4G19G23G 1S37S29S27
 108842217.439 8  20711992.361          49.000       -1586.295
 110401925.038 8  21008793.449          49.000       -2315.953
 113691734.11828  21634825.290          50.000         644.930
 115941775.693 8  22062987.088          50.000       -3549.698
 124634374.237 7  23717137.468          43.000        1001.160
 132067490.75536  25131610.614          36.000       -4154.527
 130686430.55637  24868800.965          43.000        1305.831
 133355514.763 6  25376708.099          39.000       -1406.743
 196644535.396 6  37420209.480          41.000       -1494.367
 196329028.702 7  37360178.441          42.000       -1504.963
                  40982652.131          29.000       -1451.229
 07  8 29 13 10 47.0010000  0 11G20G28G17G11G 4G19G23G 1S37S29S27
 108843803.995 8  20712294.373          48.000       -1585.347
 110404240.562 8  21009234.137          49.000       -2314.692
                  21634702.158          48.000         634.611
 115945325.159 8  22063662.464          50.000       -3548.848
 124633373.189 7  23716947.016          42.000         999.602
                  25132401.196          35.000       -4153.626
 130685124.87736  24868552.422          40.000        1305.238
 133356920.919 6  25376975.943          37.000       -1406.808
 196646028.727 7  37420493.832          42.000       -1492.747
 196330531.943 6  37360464.346          41.000       -1502.059
                  40982922.716          28.000       -1398.405
 07  8 29 13 10 48.0010000  0 10G20G28G17G11G 4G19G23G 1S37S29
 108845389.136 8  20712595.774          48.000       -1582.888
 110406554.060 8  21009674.372          50.000       -2313.243
 113690480.04828  21634579.121          50.000         647.058
 115948873.578 8  22064337.910          50.000       -3546.816
 124632371.52636  23716754.663          37.000        1003.220
 132075805.15836  25133190.104          37.000       -4151.751
 130683814.14336  24868302.133          39.000        1305.709
 133358326.804 5  25377242.915          35.000       -1403.598
 196647518.308 7  37420777.383          43.000       -1487.256
 196332031.158 7  37360749.660          43.000       -1496.468
 07  8 29 13 10 49.0010000  0 10G20G28G17G11G 4G19G23G 1S37S29
 108846972.723 8  20712896.895          49.000       -1582.434
 110408866.053 8  21010114.380          50.000       -2310.752
 113689833.15928  21634456.290          50.000         650.052
 115952420.472 8  22065013.094          50.000       -3545.549
 124631364.86635  23716563.723          35.000        1003.398
                  25133978.228          37.000       -4145.242
 130682502.03336  24868051.777          41.000        1310.212
 133359731.709 6  25377511.142          36.000       -1403.806
 196649004.390 7  37421060.217          42.000       -1484.317
 196333527.166 7  37361034.256          42.000       -1493.491
 07  8 29 13 10 50.0010000  0 10G20G28G17G11G 4G19G23G 1S37S29
 108848554.624 8  20713197.877          49.000       -1580.588
 110411176.620 8  21010554.004          50.000       -2310.182
 113689185.28428  21634332.951          49.000         648.451
 115955965.333 8  22065687.563          50.000       -3543.830
 124630358.32126  23716371.756          40.000        1010.607
 132084089.63136  25134766.578          36.000       -4141.617
 130681184.89036  24867800.671          41.000        1317.983
 133361134.45036  25377777.992          37.000       -1400.294
 196650487.223 7  37421342.405          42.000       -1481.891
 196335020.316 7  37361318.364          42.000       -1490.935
 07  8 29 13 10 51.0010000  0 10G20G28G17G11G 4G19G23G 1S37S29
 108850134.840 8  20713498.492          49.000       -1579.295
 110413485.754 8  21010993.279          50.000       -2308.858
 113688536.12038  21634209.422          50.000         650.279
 115959508.189 8  22066361.649          50.000       -3541.016
 124629350.33836  23716179.907          37.000        1007.232
                  25135556.199          31.000       -4143.115
                  24867549.563          40.000        1319.584
 133362535.99526  25378044.650          37.000       -1396.465
 196651967.251 7  37421624.000          43.000       -1479.876
 196336510.789 7  37361601.914          42.000       -1487.957
 07  8 29 13 10 52.0010000  0 10G20G28G17G11G 4G19G23G 1S37S29
 108851712.991 8  20713799.265          49.000       -1577.407
 110415794.046 8  21011432.675          50.000       -2308.009
 113687886.03627  21634085.368          47.000         648.658
 115963048.136 8  22067035.159          50.000       -3538.216
 124628341.44136  23715988.409          41.000        1009.167
                  25136344.707          31.000       -4138.656
                  24867296.450          39.000        1324.826
 133363935.29235  25378310.522          33.000       -1396.450
 196653444.531 7  37421904.950          43.000       -1475.868
 196337998.755 7  37361884.991          43.000       -1488.376
 07  8 29 13 10 53.0010000  0 10G20G28G17G11G 4G19G23G 1S37S29
 108853288.860 8  20714099.009          49.000       -1574.073
 110418101.484 8  21011871.619          50.000       -2306.216
 113687234.36628  21633961.124          49.000         652.289
 115966584.795 8  22067708.267          50.000       -3534.085
 124627332.61626  23715796.649          40.000        1010.458
                  25137134.520          30.000       -4140.172
 130677190.17136  24867042.517          39.000        1332.148
                  25378576.308          33.000       -1391.181
 196654919.448 7  37422185.655          43.000       -1474.044
 196339483.846 7  37362167.668          43.000       -1485.498
 07  8 29 13 10 54.0010000  0 10G20G28G17G11G 4G19G23G 1S37S29
 108854862.879 8  20714398.472          49.000       -1572.715
 110420408.189 8  21012310.457          50.000       -2306.785
 113686581.19728  21633837.420          51.000         654.779
 115970118.480 8  22068380.782          50.000       -3532.541
 124626322.73326  23715604.940          39.000        1008.347
                  25137922.941          27.000       -4133.573
                  24866790.014          34.000        1336.546
 133366710.98835  25378841.343          35.000       -1389.139
 196656392.680 7  37422465.889          43.000       -1470.385
 196340967.565 7  37362450.067          43.000       -1481.499
 07  8 29 13 10 55.0010000  0 10G20G28G17G11G 4G19G23G 1S37S29
 108856435.284 8  20714697.849          49.000       -1572.100
 110422713.346 8  21012749.017          50.000       -2303.289
 113685925.72028  21633712.547          48.000         656.295
 115973649.911 8  22069052.668          50.000       -3531.272
 124625310.82827  23715412.397          42.000        1014.759
                  25138708.568          25.000       -4132.218
                  24866537.367          30.000        1330.004
 133368101.79136  25379105.644          38.000       -1389.453
 196657863.856 7  37422745.896          43.000       -1469.016
 196342449.445 7  37362731.819          42.000       -1479.266
 07  8 29 13 10 56.0010000  0 10G20G28G17G11G 4G19G23G 1S37S29
 108858006.775 8  20714996.998          49.000       -1570.949
 110425016.141 8  21013187.332          50.000       -2301.895
 113685267.58337  21633587.517          46.000         657.818
 115977180.555 8  22069724.659          50.000       -3529.735
 124624295.77237  23715219.502          42.000        1015.177
                  25139496.117          27.000       -4122.989
                  24866286.186          28.000        1323.370
 133369492.96326  25379371.148          38.000       -1390.245
 196659332.874 7  37423025.415          43.000       -1466.904
 196343929.138 7  37363013.536          42.000       -1476.919
 07  8 29 13 10 57.0010000  0 10G20G28G17G11G 4G19G23G 1S37S29
 108859577.026 8  20715295.746          49.000       -1569.643
 110427316.120 8  21013625.003          50.000       -2297.325
 113684606.79138  21633461.755          50.000         662.888
 115980710.378 8  22070396.370          50.000       -3530.023
 124623276.69036  23715025.337          37.000        1023.633
                  25140280.606          28.000       -4131.998
                  24866038.511          26.000        1313.495
 133370884.38435  25379635.640          35.000       -1394.356
 196660799.352 7  37423304.583          43.000       -1466.210
 196345405.817 7  37363294.729          42.000       -1477.500
 07  8 29 13 10 58.0010000  0 10G20G28G17G11G 4G19G23G 1S37S29
 108861146.060 8  20715594.163          49.000       -1568.737
 110429612.244 8  21014062.131          50.000       -2294.892
 113683943.39328  21633335.485          51.000         663.980
 115984240.278 8  22071068.012          51.000       -3529.751
 124622252.16936  23714829.896          38.000        1028.490
                  25141066.093          26.000       -4130.362
                  24865785.792          30.000        1344.924
                  25379900.309          31.000       -1389.483
 196662262.602 7  37423583.039          43.000       -1459.084
 196346878.988 7  37363574.929          43.000       -1470.860
 07  8 29 13 10 59.0010000  0 10G20G28G17G11G 4G19G23G 1S37S29
 108862713.777 8  20715892.195          49.000       -1567.980
 110431904.060 8  21014498.406          50.000       -2290.760
 113683276.77328  21633208.711          51.000         667.984
 115987770.244 8  22071740.107          50.000       -3528.894
 124621222.36727  23714633.165          45.000        1034.064
                  25141850.552          30.000       -4126.577
                  24865529.045          37.000        1339.746
                  25380166.126          33.000       -1396.185
 196663722.216 7  37423860.812          43.000       -1458.562
 196348347.983 7  37363854.360          43.000       -1470.074
 07  8 29 13 11  0.0010000  0 10G20G28G17G11G 4G19G23G 1S37S29
 108864280.982 8  20716190.542          50.000       -1566.874
 110434191.921 8  21014933.407          51.000       -2286.116
 113682607.34928  21633081.238          51.000         671.241
 115991301.119 8  22072412.045          51.000       -3530.718
 124620186.79327  23714436.468          45.000        1039.703
                  25142635.932          28.000       -4129.709
                  24865270.922          36.000        1342.923
                  25380431.647          32.000       -1399.293
 196665178.774 7  37424138.028          44.000       -1455.032
 196349813.266 7  37364133.513          44.000       -1464.204
 07  8 29 13 11  1.0010000  0 10G20G28G17G11G 4G19G23G 1S37S29
 108865847.956 8  20716488.993          50.000       -1567.008
 110436476.086 8  21015368.111          51.000       -2281.934
 113681935.65528  21632953.364          51.000         673.279
 115994833.317 8  22073084.052          51.000       -3533.348
 124619145.61627  23714238.585          46.000        1044.895
                  25143422.218          27.000       -4138.819
                  24865015.957          32.000        1342.619
 133376469.00236  25380698.285          37.000       -1403.362
 196666631.976 7  37424414.491          43.000       -1455.332
 196351275.271 7  37364411.637          43.000       -1458.859
 07  8 29 13 11  3.0010000  0 10G20G28G17G11G 4G19G23G 1S37S29
 108868982.696 8  20717085.232          50.000       -1568.286
 110441032.925 8  21016235.390          51.000       -2273.554
 113680585.08028  21632696.446          50.000         677.248
 116001903.247 8  22074429.200          51.000       -3538.383
 124617044.59527  23713839.154          45.000        1057.364
                  25144996.837          26.000       -4143.965
 130663861.01135  24864504.804          35.000        1338.575
 133379281.70426  25381232.520          36.000       -1411.656
 196669530.036 7  37424965.905          43.000       -1444.928
 196354189.961 7  37364966.276          42.000       -1454.413
 07  8 29 13 11  4.0010000  0 10G20G28G17G11G 4G19G23G 1S37S29
 108870551.411 8  20717383.996          50.000       -1570.065
 110443305.329 8  21016667.860          51.000       -2270.376
 113679907.15128  21632567.333          51.000         680.263
 116005442.732 8  22075102.777          50.000       -3542.611
 124615983.82027  23713637.572          44.000        1064.565
                  25145785.400          27.000       -4130.750
                  24864250.731          30.000        1344.269
 133380695.34026  25381502.384          36.000       -1420.561
 196670974.415 7  37425240.746          45.000       -1442.356
 196355641.991 7  37365242.707          44.000       -1448.882
 07  8 29 13 11  5.0010000  0 10G20G28G17G11G 4G19G23G 1S37S29
 108872121.822 8  20717682.622          50.000       -1570.780
 110445573.453 8  21017099.527          51.000       -2266.445
 113679227.26128  21632438.237          51.000         680.939
 116008986.397 8  22075776.912          51.000       -3545.577
 124614915.04627  23713434.139          44.000        1070.657
                  25146574.356          30.000       -4138.112
                  24863997.425          28.000        1347.905
 133382114.79226  25381772.495          41.000       -1423.299
 196672416.623 7  37425515.205          44.000       -1439.208
 196357090.990 7  37365518.578          42.000       -1449.391
 07  8 29 13 11  6.0010000  0 10G20G28G17G11G 4G19G23G 1S37S29
 108873693.555 8  20717982.119          50.000       -1572.301
 110447837.325 8  21017530.235          51.000       -2261.534
 113678544.89828  21632308.303          51.000         683.220
 116012533.539 8  22076452.217          51.000       -3549.463
 124613838.75427  23713229.033          44.000        1079.586
                  25147365.581          32.000       -4145.577
                  24863744.864          31.000        1338.590
 133383539.73727  25382043.669          44.000       -1429.656
 196673856.230 7  37425789.227          44.000       -1435.733
 196358536.646 7  37365793.666          42.000       -1440.815
 07  8 29 13 11  7.0010000  0 10G20G28G17G11G 4G19G23G 1S37S29
 108875266.912 8  20718281.721          50.000       -1574.303
 110450096.377 8  21017959.914          51.000       -2255.606
 113677860.490 8  21632177.620          51.000         687.864
 116016084.938 8  22077128.027          51.000       -3553.960
 124612753.868 7  23713022.496          46.000        1089.028
                  25148157.716          33.000       -4144.740
                  24863492.359          32.000        1336.035
 133384970.98937  25382316.135          43.000       -1433.937
 196675293.112 7  37426062.619          45.000       -1436.548
 196359979.212 7  37366068.228          43.000       -1439.977
 07  8 29 13 11  8.0010000  0 10G20G28G17G11G 4G19G23G 1S37S29
 108876841.950 8  20718581.533          50.000       -1574.729
 110452350.389 8  21018388.877          51.000       -2251.267
 113677172.959 8  21632047.267          51.000         688.783
 116019640.855 8  22077804.466          50.000       -3558.243
 124611660.064 7  23712814.667          46.000        1097.960
                  25148942.418          36.000       -4143.324
                  24863242.139          31.000        1333.039
                  25382588.936          43.000       -1430.035
 196676727.305 7  37426335.506          44.000       -1434.666
 196361418.539 7  37366342.128          42.000       -1437.099
 07  8 29 13 11  9.0010000  0 10G20G28G17G11G 4G19G23G 1S37S29
 108878418.393 8  20718881.170          49.000       -1576.785
 110454599.465 8  21018816.880          50.000       -2246.663
 113676482.994 8  21631915.729          50.000         691.058
 116023200.897 8  22078482.108          50.000       -3562.712
 124610557.711 7  23712605.268          46.000        1106.500
                  25149727.689          34.000       -4159.684
                  24862989.968          32.000        1340.111
 133387845.93637  25382863.123          44.000       -1450.694
 196678158.815 7  37426607.714          43.000       -1430.809
 196362854.143 7  37366615.679          42.000       -1433.528
 07  8 29 13 11 10.0010000  0 10G20G28G17G11G 4G19G23G 1S37S29
 108879996.213 8  20719181.435          50.000       -1578.497
 110456843.396 8  21019243.715          50.000       -2242.062
 113675790.419 8  21631783.667          51.000         694.753
 116026765.131 8  22079160.170          50.000       -3566.739
 124609446.69937  23712393.565          45.000        1115.939
 132166859.24426  25150517.174          41.000       -4155.281
 130654559.20035  24862736.048          35.000        1333.838
 133389296.79227  25383139.010          43.000       -1455.271
 196679587.506 7  37426879.711          43.000       -1427.604
 196364286.094 6  37366888.253          41.000       -1428.526
 07  8 29 13 11 11.0010000  0 10G20G28G17G11G 4G19G23G 1S37S29
 108881575.476 8  20719482.242          50.000       -1579.513
 110459082.430 8  21019670.113          50.000       -2236.273
 113675095.463 8  21631652.040          50.000         696.882
 116030333.508 8  22079839.523          51.000       -3570.056
 124608327.25927  23712180.938          45.000        1124.283
 132171017.61125  25151307.474          33.000       -4162.354
 130653219.83636  24862478.083          39.000        1338.651
 133390753.89537  25383416.676          43.000       -1459.904
 196681012.984 7  37427150.924          42.000       -1423.867
 196365714.228 7  37367160.110          43.000       -1427.702
 07  8 29 13 11 12.0010000  0 10G20G28G17G11G 4G19G23G 1S37S29
 108883155.444 8  20719783.973          51.000       -1579.579
 110461318.088 8  21020095.794          50.000       -2234.877
 113674398.569 8  21631519.367          49.000         697.808
 116033904.203 8  22080518.267          49.000       -3570.482
 124607201.89727  23711967.348          47.000        1127.271
 132175177.98935  25152096.521          34.000       -4159.890
 130651880.19126  24862223.991          36.000        1340.106
 133392215.01926  25383695.250          41.000       -1461.271
 196682435.874 7  37427421.578          46.000       -1421.384
 196367139.315 7  37367431.271          43.000       -1424.586
 07  8 29 13 11 13.0010000  0 10G20G28G17G11G 4G19G23G 1S37S29
 108884734.966 8  20720085.392          51.000       -1578.369
 110463552.391 8  21020521.597          50.000       -2233.426
 113673700.347 8  21631386.728          48.000         699.551
 116037474.381 8  22081197.971          49.000       -3568.826
 124606074.38727  23711752.728          47.000        1128.852
 132179337.38625  25152885.621          34.000       -4158.399
 130650539.49525  24861968.625          33.000        1341.242
 133393676.22026  25383974.297          41.000       -1459.731
 196683857.007 7  37427692.109          46.000       -1420.089
 196368562.828 7  37367702.186          42.000       -1423.365
 07  8 29 13 11 14.0010000  0 10G20G28G17G11G 4G19G23G 1S37S29
 108886313.325 8  20720385.954          51.000       -1578.149
 110465785.542 8  21020946.807          51.000       -2232.779
 113673000.505 8  21631253.618          49.000         700.487
 116041042.890 8  22081877.168          50.000       -3567.631
 124604945.28527  23711537.899          47.000        1129.793
 132183495.10325  25153676.099          34.000       -4156.612
 130649197.00225  24861712.928          33.000        1342.419
 133395136.13226  25384252.524          41.000       -1458.831
 196685276.267 7  37427962.152          46.000       -1418.938
 196369984.814 7  37367972.787          42.000       -1421.361
 07  8 29 13 11 15.0010000  0 10G20G28G17G11G 4G19G23G 1S37S29
 108887890.842 8  20720686.221          51.000       -1576.826
 110468017.839 8  21021371.563          51.000       -2231.417
 113672299.380 8  21631120.142          49.000         702.353
 116044610.010 8  22082556.192          50.000       -3566.518
 124603814.88428  23711323.070          48.000        1131.224
 132187651.49325  25154466.473          34.000       -4153.585
 130647852.98925  24861457.143          32.000        1344.174
 133396595.08026  25384530.332          41.000       -1458.051
 196686694.155 7  37428232.073          46.000       -1416.451
 196371404.994 7  37368243.057          43.000       -1418.742
 07  8 29 13 11 16.0010000  0 10G20G28G17G11G 4G19G23G 1S37S29
 108889467.439 8  20720986.382          51.000       -1576.177
 110470249.195 8  21021795.953          51.000       -2231.015
 113671596.878 8  21630986.265          49.000         703.409
 116048175.704 8  22083234.744          50.000       -3564.646
 124602683.12728  23711107.543          48.000        1132.749
 132191806.43425  25155257.195          35.000       -4151.813
 130646507.34025  24861201.254          32.000        1346.554
 133398052.98127  25384808.035          42.000       -1457.124
 196688110.418 7  37428501.801          46.000       -1415.398
 196372823.697 7  37368513.099          44.000       -1418.488
 07  8 29 13 11 17.0010000  0 10G20G28G17G11G 4G19G23G 1S37S29
 108891043.287 8  20721286.160          51.000       -1575.243
 110472479.801 8  21022220.255          51.000       -2230.115
 113670893.181 8  21630852.335          49.000         704.851
 116051740.120 8  22083913.227          50.000       -3563.343
 124601550.14128  23710891.876          48.000        1133.767
 132195960.10225  25156047.568          35.000       -4152.062
 130645160.38025  24860945.119          31.000        1345.919
 133399510.01727  25385085.686          42.000       -1456.624
 196689525.436 7  37428771.233          47.000       -1414.212
 196374240.903 7  37368782.619          44.000       -1414.870
 07  8 29 13 11 18.0010000  0 10G20G28G17G11G 4G19G23G 1S37S29
 108892618.380 8  20721585.623          51.000       -1574.469
 110474709.653 8  21022644.470          51.000       -2228.955
 113670188.271 8  21630717.585          49.000         705.316
 116055303.258 8  22084591.500          50.000       -3562.156
 124600415.94428  23710676.297          48.000        1134.931
 132200112.50425  25156837.819          35.000       -4150.807
 130643811.88335  24860689.405          31.000        1349.599
 133400966.17827  25385363.074          42.000       -1455.927
 196690939.017 7  37429040.420          47.000       -1413.371
 196375656.521 7  37369052.016          44.000       -1414.717
 07  8 29 13 11 19.0010000  0 10G20G28G17G11G 4G19G23G 1S37S29
 108894192.591 8  20721884.807          51.000       -1573.497
 110476938.601 8  21023068.755          51.000       -2228.500
 113669482.046 8  21630583.044          49.000         707.098
 116058864.991 8  22085269.336          50.000       -3560.823
 124599280.419 8  23710460.246          48.000        1136.166
 132204263.506 6  25157628.245          36.000       -4148.718
                  24860434.528          30.000        1350.807
 133402421.836 7  25385640.132          43.000       -1454.071
 196692351.083 7  37429309.190          45.000       -1410.684
 196377070.416 7  37369321.046          43.000       -1412.935
 07  8 29 13 11 20.0010000  0 10G20G28G17G11G 4G19G23G 1S37S29
 108895765.993 8  20722183.957          51.000       -1572.680
 110479166.729 8  21023492.325          51.000       -2227.380
 113668774.547 8  21630448.137          49.000         708.867
 116062425.392 8  22085946.876          50.000       -3559.187
 124598143.606 8  23710244.230          48.000        1137.876
 132208413.192 6  25158418.652          36.000       -4148.332
                  24860184.501          29.000        1349.914
 133403876.053 7  25385917.172          44.000       -1453.614
 196693761.716 7  37429577.801          45.000       -1410.552
 196378483.043 7  37369589.885          43.000       -1412.570
 07  8 29 13 11 21.0010000  0 10G20G28G17G11G 4G19G23G 1S37S29
 108897338.531 8  20722482.984          51.000       -1571.920
 110481393.992 8  21023915.981          51.000       -2226.649
 113668065.738 8  21630312.846          49.000         709.277
 116065984.415 8  22086624.015          50.000       -3558.236
 124597005.487 8  23710027.778          48.000        1138.891
 132212561.484 6  25159209.305          36.000       -4147.604
                  24859933.969          29.000        1353.954
 133405329.294 7  25386194.003          43.000       -1452.791
 196695171.149 7  37429846.151          46.000       -1408.532
 196379894.487 7  37369858.392          43.000       -1410.275
 07  8 29 13 11 22.0010000  0 10G20G28G17G11G 4G19G23G 1S37S29
 108898910.473 8  20722781.750          51.000       -1571.232
 110483620.660 8  21024339.795          51.000       -2226.173
 113667355.894 8  21630177.572          49.000         710.432
 116069542.320 8  22087301.101          50.000       -3557.081
 124595866.326 8  23709811.047          48.000        1140.149
 132216708.724 6  25159999.154          36.000       -4147.071
                  24859683.977          29.000        1352.871
 133406781.819 7  25386470.781          44.000       -1451.490
 196696579.089 7  37430114.152          46.000       -1407.716
 196381304.470 7  37370126.846          43.000       -1409.416
 07  8 29 13 11 23.0010000  0 10G20G28G17G11G 4G19G23G 1S37S29
 108900481.683 8  20723080.742          51.000       -1570.471
 110485846.573 8  21024763.172          50.000       -2225.460
 113666644.859 8  21630042.508          49.000         711.900
 116073098.969 8  22087978.240          50.000       -3555.802
 124594725.976 8  23709594.037          48.000        1141.435
 132220854.714 6  25160788.428          36.000       -4146.104
                  24859434.476          30.000        1356.796
 133408233.490 7  25386747.158          44.000       -1450.965
 196697985.255 7  37430381.787          47.000       -1404.797
 196382712.857 7  37370394.970          44.000       -1407.316
 07  8 29 13 11 24.0010000  0 10G20G28G17G11G 4G19G23G 1S37S29
 108902052.149 8  20723379.455          51.000       -1569.913
 110488071.737 8  21025186.707          51.000       -2224.815
 113665932.634 8  21629906.763          49.000         712.506
 116076654.345 8  22088654.960          50.000       -3554.571
 124593584.414 8  23709377.008          48.000        1142.088
 132224999.415 6  25161577.789          36.000       -4144.517
                  24859183.507          29.000        1358.112
 133409684.302 7  25387023.587          44.000       -1449.702
 196699390.138 7  37430649.229          46.000       -1403.428
 196384120.064 7  37370662.814          44.000       -1405.976
 07  8 29 13 11 25.0010000  0 10G20G28G17G11G 4G19G23G 1S37S29
 108903621.838 8  20723678.325          50.000       -1569.100
 110490296.091 8  21025610.049          50.000       -2224.008
 113665219.165 8  21629770.791          48.000         713.861
 116080208.405 8  22089331.314          50.000       -3553.091
 124592441.619 8  23709159.632          48.000        1144.129
 132229142.838 6  25162366.784          36.000       -4143.376
                  24858933.272          29.000        1362.264
 133411134.195 7  25387299.650          44.000       -1448.497
 196700793.611 7  37430916.270          46.000       -1403.093
 196385526.015 7  37370930.290          43.000       -1406.562
 07  8 29 13 11 26.0010000  0 10G20G28G17G11G 4G19G23G 1S37S29
 108905190.657 8  20723976.672          50.000       -1568.107
 110492519.587 8  21026033.148          50.000       -2223.054
 113664504.379 8  21629634.471          48.000         715.393
 116083761.099 8  22090007.144          50.000       -3552.059
 124591297.490 8  23708942.185          48.000        1144.725
 132233284.878 6  25163154.627          36.000       -4140.421
                  24858683.769          29.000        1360.586
 133412583.101 7  25387575.032          44.000       -1447.955
 196702195.756 7  37431183.137          46.000       -1401.470
 196386930.705 7  37371197.664          42.000       -1403.755
 07  8 29 13 11 27.0010000  0 10G20G28G17G11G 4G19G23G 1S37S29
 108906758.787 8  20724274.896          50.000       -1567.360
 110494742.371 8  21026456.089          50.000       -2222.311
 113663788.453 8  21629498.098          48.000         717.038
 116087312.565 8  22090682.973          50.000       -3551.175
 124590152.265 8  23708724.354          48.000        1145.774
 132237425.712 6  25163942.819          36.000       -4139.496
                  24858433.515          28.000        1360.877
 133414031.192 7  25387850.501          44.000       -1448.615
 196703596.425 7  37431449.812          46.000       -1399.000
 196388333.732 7  37371464.601          42.000       -1400.689
 07  8 29 13 11 28.0010000  0 10G20G28G17G11G 4G19G23G 1S37S29
 108908326.141 8  20724573.208          50.000       -1566.707
 110496964.373 8  21026879.030          50.000       -2221.599
 113663071.299 8  21629361.341          48.000         717.270
 116090862.753 8  22091358.681          50.000       -3549.573
 124589005.789 7  23708506.873          47.000        1147.301
 132241565.278 6  25164730.016          36.000       -4138.276
                  24858211.180          28.000        1401.755
 133415478.390 7  25388125.779          44.000       -1446.307
 196704996.135 7  37431716.190          46.000       -1399.251
 196389735.497 7  37371731.414          42.000       -1401.205
 07  8 29 13 11 29.0010000  0 10G20G28G17G11G 4G19G23G 1S37S29
 108909892.718 8  20724871.101          50.000       -1565.397
 110499186.017 8  21027301.255          50.000       -2222.773
 113662353.191 8  21629224.776          49.000         718.406
 116094411.420 8  22092034.128          51.000       -3546.530
 124587858.758 7  23708288.186          46.000        1145.250
 132245703.468 6  25165518.279          38.000       -4135.336
                  24857975.392          26.000        1354.407
 133416924.333 7  25388400.779          43.000       -1441.064
 196706394.375 7  37431982.219          45.000       -1397.010
 196391136.061 6  37371997.949          41.000       -1402.438
 07  8 29 13 11 30.0010000  0 10G20G28G17G11G 4G19G23G 1S37S29
 108911456.557 8  20725167.948          50.000       -1562.814
 110501410.278 8  21027724.544          51.000       -2225.206
 113661634.709 8  21629088.891          52.000         718.638
 116097954.067 8  22092707.098          50.000       -3540.357
 124586716.391 7  23708070.249          47.000        1142.530
 132249836.38136  25166306.298          39.000       -4128.578
 130627553.01836  24857596.973          41.000        1369.843
 133418363.092 7  25388673.737          44.000       -1436.409
 196707792.582 6  37432248.247          40.000       -1399.593
 196392536.901 6  37372264.605          40.000       -1404.739
 07  8 29 13 11 31.0010000  0 10G20G28G17G11G 4G19G23G 1S37S29
 108913017.334 8  20725464.725          50.000       -1559.120
 110503637.574 8  21028148.653          50.000       -2229.990
 113660915.891 8  21628952.674          51.000         717.956
 116101489.933 8  22093379.807          50.000       -3533.538
 124585579.622 7  23707853.252          46.000        1134.251
 132253966.39936  25167090.494          39.000       -4126.280
 130626183.95737  24857336.370          42.000        1365.939
 133419793.35437  25388945.929          44.000       -1427.379
 196709190.485 7  37432514.467          44.000       -1399.743
 196393937.69837  37372531.279          43.000       -1402.981
 07  8 29 13 11 32.0010000  0 10G20G28G17G11G 4G19G23G 1S37S29
 108914574.806 8  20725761.066          50.000       -1556.848
 110505868.990 8  21028572.971          50.000       -2232.604
 113660197.134 8  21628816.109          51.000         718.696
 116105018.175 8  22094051.609          51.000       -3523.618
 124584449.936 7  23707637.809          47.000        1126.682
                  25167874.483          38.000       -4119.762
                  24857067.589          41.000        1379.796
 133421214.55837  25389215.592          42.000       -1414.773
 196710588.896 7  37432780.668          44.000       -1404.467
 196395340.12427  37372798.146          43.000       -1400.961
 07  8 29 13 11 33.0010000  0 10G20G28G17G11G 4G19G23G 1S37S29
 108916129.485 8  20726057.145          50.000       -1552.639
 110508104.119 8  21028998.266          50.000       -2236.480
 113659478.586 8  21628679.666          51.000         719.345
 116108539.702 8  22094721.612          51.000       -3518.569
 124583326.530 7  23707423.693          47.000        1121.724
 132262187.50637  25168657.494          44.000       -4114.078
                  24856797.631          40.000        1372.539
 133422627.66536  25389484.694          41.000       -1408.445
 196711987.631 7  37433046.821          44.000       -1398.670
 196396744.195 7  37373065.221          43.000       -1403.776
 07  8 29 13 11 34.0010000  0 10G20G28G17G11G 4G19G23G 1S37S29
 108917682.357 8  20726352.734          50.000       -1552.334
 110510339.584 8  21029424.017          50.000       -2235.832
 113658759.200 8  21628542.996          51.000         719.948
 116112057.897 8  22095390.810          51.000       -3518.404
 124582204.275 7  23707209.998          45.000        1123.612
 132266299.30537  25169437.642          43.000       -4110.156
                  24856528.605          41.000        1380.839
 133424037.26836  25389753.375          41.000       -1409.866
 196713385.171 7  37433312.904          44.000       -1394.921
 196398146.803 7  37373332.018          44.000       -1402.275
 07  8 29 13 11 35.0010000  0 10G20G28G17G11G 4G19G23G 1S37S29
 108919233.978 8  20726647.923          50.000       -1549.688
 110512577.379 8  21029849.644          50.000       -2238.469
 113658040.024 8  21628406.239          51.000         719.593
 116115572.439 8  22096059.802          51.000       -3510.621
 124581085.331 7  23706997.242          45.000        1115.852
 132270407.68827  25170219.483          45.000       -4105.481
 130620548.38037  24856263.937          44.000        1381.245
 133425442.38337  25390020.192          42.000       -1401.299
 196714782.673 7  37433578.792          44.000       -1395.756
 196399549.615 7  37373598.971          44.000       -1404.152
 07  8 29 13 11 36.0010000  0 10G20G28G17G11G 4G19G23G 1S37S29
 108920783.265 8  20726942.414          50.000       -1548.536
 110514818.242 8  21030276.318          50.000       -2242.673
 113657320.986 8  21628269.411          51.000         718.601
 116119081.270 8  22096727.781          51.000       -3506.801
 124579971.460 7  23706784.716          46.000        1114.404
                  25171001.029          37.000       -4097.206
 130619164.20537  24855999.586          45.000        1387.395
 133426840.51827  25390286.414          42.000       -1397.024
 196716180.257 7  37433844.768          44.000       -1397.746
 196400953.220 7  37373865.959          43.000       -1403.905
 07  8 29 13 11 37.0010000  0 10G20G28G17G11G 4G19G23G 1S37S29
 108922330.154 8  20727237.097          50.000       -1545.408
 110517061.374 8  21030703.027          50.000       -2244.292
 113656601.882 8  21628132.375          51.000         719.433
 116122584.955 8  22097394.294          50.000       -3501.324
 124578861.83037  23706573.112          45.000        1107.370
                  25171784.004          32.000       -4094.231
 130617777.08337  24855735.512          46.000        1388.199
 133428232.64827  25390550.962          43.000       -1389.381
 196717577.35637  37434110.709          44.000       -1397.229
 196402356.54537  37374133.174          43.000       -1403.730
 07  8 29 13 11 38.0010000  0 10G20G28G17G11G 4G19G23G 1S37S29
 108923875.045 8  20727531.186          50.000       -1543.070
 110519306.782 8  21031130.400          50.000       -2246.224
 113655882.695 8  21627995.461          51.000         719.450
 116126083.937 8  22098060.213          51.000       -3497.162
 124577755.96827  23706362.591          46.000        1103.929
 132282707.05637  25172562.267          43.000       -4091.751
                  24855471.405          31.000        1392.558
 133429619.17727  25390815.038          42.000       -1384.042
 196718974.235 7  37434376.511          43.000       -1398.567
 196403760.56927  37374400.302          42.000       -1404.081
 07  8 29 13 11 39.0010000  0 10G20G28G17G11G 4G19G23G 1S37S29
 108925418.756 8  20727825.065          50.000       -1543.812
 110521552.718 8  21031557.372          50.000       -2246.367
 113655163.028 8  21627858.424          51.000         719.933
 116129580.428 8  22098725.189          50.000       -3495.912
 124576651.02127  23706152.438          46.000        1104.621
                  25173340.251          33.000       -4090.758
 130614997.50537  24855207.698          45.000        1393.320
 133431003.23827  25391078.275          43.000       -1383.745
 196720369.969 7  37434642.016          44.000       -1396.704
 196405163.869 7  37374667.187          43.000       -1400.927
 07  8 29 13 11 40.0010000  0 10G20G28G17G11G 4G19G23G 1S37S29
 108926961.515 8  20728118.596          50.000       -1541.673
 110523799.784 8  21031985.128          50.000       -2247.992
 113654443.142 8  21627721.894          52.000         720.554
 116133074.320 8  22099390.026          51.000       -3491.732
 124575547.73727  23705942.790          46.000        1101.895
 132290888.50735  25174119.056          34.000       -4086.704
 130613604.09827  24854941.322          43.000        1398.085
 133432384.30227  25391341.461          43.000       -1378.009
 196721765.377 7  37434907.487          44.000       -1396.634
 196406566.482 7  37374934.209          42.000       -1403.664
 07  8 29 13 11 41.0010000  0 10G20G28G17G11G 4G19G23G 1S37S29
 108928502.555 8  20728412.196          50.000       -1539.557
 110526048.932 8  21032412.990          50.000       -2249.573
 113653722.836 8  21627584.858          52.000         720.752
 116136563.893 8  22100054.097          51.000       -3485.690
 124574447.59827  23705733.596          46.000        1098.398
                  25174898.191          31.000       -4085.653
 130612208.28437  24854675.328          44.000        1397.469
 133433760.28827  25391603.392          43.000       -1370.073
 196723160.648 7  37435172.958          44.000       -1394.391
 196407969.548 7  37375201.128          43.000       -1403.731
 07  8 29 13 11 42.0010000  0 10G20G28G17G11G 4G19G23G 1S37S29
 108930041.320 8  20728704.558          50.000       -1536.790
 110528299.820 8  21032841.758          50.000       -2251.148
 113653002.267 8  21627447.612          51.000         720.670
 116140048.723 8  22100717.259          50.000       -3481.760
 124573350.77627  23705524.628          46.000        1095.765
                  25175680.841          29.000       -4109.898
                  24854408.898          38.000        1398.260
 133435130.82627  25391864.413          44.000       -1368.481
 196724555.059 7  37435438.201          44.000       -1394.520
 196409372.580 7  37375468.186          43.000       -1402.390
 07  8 29 13 11 43.0010000  0 10G20G28G17G11G 4G19G23G 1S37S29
 108931578.438 8  20728996.937          49.000       -1536.370
 110530552.515 8  21033270.213          50.000       -2253.650
 113652281.438 8  21627310.366          51.000         721.768
 116143529.560 8  22101379.618          50.000       -3478.580
 124572256.80727  23705316.411          46.000        1093.461
                  25176463.048          27.000       -4108.132
 130609395.32835  24854141.638          34.000        1416.016
 133436496.577 7  25392124.092          44.000       -1363.089
 196725948.875 7  37435703.339          43.000       -1394.572
 196410775.810 7  37375735.227          42.000       -1402.065
 07  8 29 13 11 44.0010000  0 10G20G28G17G11G 4G19G23G 1S37S29
 108933114.096 8  20729289.351          49.000       -1535.354
 110532806.026 8  21033698.965          50.000       -2253.392
 113651559.844 8  21627172.823          51.000         721.553
 116147007.190 8  22102041.383          50.000       -3476.940
 124571164.20427  23705108.736          46.000        1092.073
                  25177240.609          38.000       -4071.796
                  24853874.813          28.000        1386.956
 133437858.819 7  25392383.246          44.000       -1360.014
 196727341.937 7  37435968.322          43.000       -1392.584
 196412178.109 7  37376001.920          42.000       -1399.875
 07  8 29 13 11 45.0010000  0 10G20G28G17G11G 4G19G23G 1S37S29
 108934648.939 8  20729581.485          49.000       -1533.607
 110535059.393 8  21034127.891          50.000       -2253.696
 113650837.809 8  21627035.648          50.000         722.965
 116150483.312 8  22102703.062          50.000       -3474.121
 124570071.49027  23704900.764          45.000        1091.048
                  25178013.460          29.000       -4075.853
 130606588.14837  24853607.411          43.000        1401.101
 133439219.926 7  25392642.242          42.000       -1359.908
 196728733.473 7  37436233.217          43.000       -1390.671
 196413579.555 7  37376268.611          42.000       -1400.065
 07  8 29 13 11 46.0010000  0 10G20G28G17G11G 4G19G23G 1S37S29
 108936182.130 8  20729873.289          48.000       -1532.290
 110537313.834 8  21034556.799          49.000       -2254.869
 113650114.689 8  21626898.001          50.000         724.160
 116153955.732 8  22103363.641          49.000       -3470.577
 124568980.43027  23704693.246          45.000        1090.250
 132315409.57936  25178785.356          36.000       -4067.766
                  24853343.354          41.000        1400.299
 133440576.875 7  25392900.403          42.000       -1354.480
 196730124.821 7  37436497.815          43.000       -1389.868
 196414980.422 7  37376535.076          42.000       -1399.645
 07  8 29 13 11 47.0010000  0 10G20G28G17G11G 4G19G23G 1S37S29
 108937713.591 8  20730164.533          48.000       -1530.718
 110539569.135 8  21034986.022          49.000       -2255.837
 113649390.208 8  21626760.092          50.000         724.558
 116157424.362 8  22104023.854          50.000       -3466.831
 124567890.84027  23704485.780          46.000        1089.341
                  25179560.740          26.000       -4063.846
 130603787.99936  24853074.658          41.000        1406.309
 133441929.587 6  25393157.830          38.000       -1350.992
 196731515.922 7  37436762.604          43.000       -1390.847
 196416381.063 7  37376801.505          42.000       -1401.396
 07  8 29 13 11 48.0010000  0  9G20G28G17G11G 4G23G 1S37S29
 108939243.581 8  20730455.534          49.000       -1529.137
 110541824.992 8  21035415.419          49.000       -2255.849
 113648664.527 8  21626621.922          50.000         726.610
 116160889.890 8  22104683.264          50.000       -3464.275
 124566802.22527  23704278.523          45.000        1088.547
                  24852805.542          31.000        1409.444
 133443279.320 6  25393414.490          36.000       -1346.291
 196732906.428 7  37437027.184          43.000       -1389.975
 196417781.512 7  37377067.953          42.000       -1400.349
 07  8 29 13 11 49.0010000  0  9G20G28G17G11G 4G23G 1S37S29
 108940772.227 8  20730746.517          49.000       -1527.801
 110544080.832 8  21035844.643          49.000       -2254.436
 113647937.931 8  21626483.560          50.000         727.905
 116164352.979 8  22105342.377          50.000       -3461.621
 124565713.874 7  23704071.354          46.000        1089.359
                  24852537.873          26.000        1410.683
 133444626.49635  25393671.060          32.000       -1347.901
 196734295.403 7  37437291.451          43.000       -1388.453
 196419180.038 7  37377334.087          42.000       -1398.153
 07  8 29 13 11 50.0010000  0  9G20G28G17G11G 4G23G 1S37S29
 108942299.826 8  20731037.290          49.000       -1526.832
 110546336.783 8  21036273.831          49.000       -2255.526
 113647210.316 8  21626345.249          50.000         727.976
 116167813.864 8  22106000.844          50.000       -3460.327
 124564625.650 7  23703864.342          45.000        1089.121
                  24852269.780          26.000        1396.738
                  25393926.775          31.000       -1347.280
 196735683.363 7  37437555.543          43.000       -1388.937
 196420577.980 6  37377600.133          41.000       -1398.341
 07  8 29 13 11 51.0010000  0  9G20G28G17G11G 4G23G 1S37S29
 108943826.165 8  20731327.784          49.000       -1525.559
 110548592.376 8  21036703.019          49.000       -2255.317
 113646481.858 8  21626206.608          50.000         729.166
 116171272.727 8  22106659.084          50.000       -3458.246
 124563537.333 7  23703657.383          45.000        1089.832
                  24852004.307          25.000        1387.549
 133447327.37035  25394182.073          33.000       -1344.716
 196737069.573 7  37437819.339          43.000       -1385.976
 196421974.826 6  37377865.849          41.000       -1394.797
 07  8 29 13 11 52.0010000  0  9G20G28G17G11G 4G23G 1S37S29
 108945351.792 8  20731617.755          49.000       -1524.900
 110550846.845 8  21037131.998          49.000       -2253.742
 113645752.348 8  21626067.634          50.000         729.921
 116174730.770 8  22107316.976          50.000       -3456.992
 124562447.407 7  23703450.092          45.000        1091.033
                  24851740.545          25.000        1383.977
                  25394437.786          29.000       -1351.136
 196738453.755 7  37438082.680          43.000       -1385.634
 196423369.662 7  37378131.371          42.000       -1395.077
 07  8 29 13 11 53.0010000  0 10G20G28G17G11G 4G19G23G 1S37S29
 108946876.835 8  20731908.074          49.000       -1524.203
 110553101.148 8  21037560.959          49.000       -2254.777
 113645022.062 8  21625928.644          51.000         730.187
 116178187.480 8  22107974.902          50.000       -3454.898
 124561357.007 7  23703242.539          46.000        1089.517
                  25184179.588          30.000       -4059.420
                  24851477.362          27.000        1385.890
 133450012.59236  25394693.070          37.000       -1339.698
 196739836.824 7  37438345.778          43.000       -1382.148
 196424763.263 7  37378396.581          43.000       -1392.556
 07  8 29 13 11 54.0010000  0 10G20G28G17G11G 4G19G23G 1S37S29
 108948401.202 8  20732198.342          49.000       -1522.980
 110555355.683 8  21037989.903          50.000       -2254.535
 113644291.109 8  21625789.775          51.000         731.388
 116181642.405 8  22108632.235          50.000       -3452.782
 124560266.624 7  23703035.004          45.000        1090.229
                  25184953.632          30.000       -4045.356
                  24851203.422          39.000        1414.357
 133451352.86636  25394947.110          38.000       -1338.212
 196741219.315 7  37438608.736          43.000       -1381.457
 196426155.97437  37378661.788          42.000       -1394.867
 07  8 29 13 11 55.0010000  0 10G20G28G17G11G 4G19G23G 1S37S29
 108949925.270 8  20732488.277          49.000       -1523.230
 110557611.342 8  21038419.387          50.000       -2256.850
 113643559.27038  21625650.871          50.000         731.016
 116185095.441 8  22109289.410          50.000       -3452.049
 124559176.995 7  23702827.503          46.000        1088.770
                  25185724.893          29.000       -4055.429
                  24850925.584          43.000        1426.652
 133452690.67927  25395201.588          43.000       -1335.568
 196742601.900 7  37438871.745          44.000       -1384.084
 196427549.662 7  37378926.875          43.000       -1393.277
 07  8 29 13 11 56.0010000  0 10G20G28G17G11G 4G19G23G 1S37S29
 108951449.460 8  20732778.177          49.000       -1524.354
 110559868.400 8  21038849.115          50.000       -2257.914
 113642827.79328  21625511.775          50.000         730.614
 116188546.862 8  22109946.359          51.000       -3450.878
 124558088.122 7  23702620.159          45.000        1089.420
                  25186496.317          36.000       -4051.421
                  24850653.991          30.000        1432.062
 133454026.11727  25395456.327          42.000       -1332.527
 196743984.992 7  37439135.017          44.000       -1380.264
 196428943.429 7  37379192.013          42.000       -1394.230
 07  8 29 13 11 57.0010000  0 10G20G28G17G11G 4G19G23G 1S37S29
 108952973.253 8  20733068.026          49.000       -1522.846
 110562126.367 8  21039278.827          50.000       -2258.122
 113642095.93228  21625372.244          50.000         732.252
 116191996.455 8  22110602.837          51.000       -3448.296
 124556999.83736  23702412.729          39.000        1090.584
 132359965.55236  25187264.090          41.000       -4054.452
 130589619.66737  24850378.380          44.000        1425.467
 133455359.26926  25395710.053          40.000       -1334.142
 196745367.824 7  37439398.131          43.000       -1383.575
 196430336.568 7  37379457.310          42.000       -1390.776
 07  8 29 13 11 58.0010000  0 10G20G28G17G11G 4G19G23G 1S37S29
 108954496.710 8  20733357.804          49.000       -1523.037
 110564385.176 8  21039708.643          50.000       -2258.581
 113641363.65128  21625232.730          51.000         733.342
 116195444.302 8  22111258.862          51.000       -3446.459
 124555912.03236  23702205.978          39.000        1088.132
 132364014.17736  25188033.664          39.000       -4048.608
 130588193.55337  24850105.165          42.000        1435.719
 133456690.30026  25395963.554          40.000       -1329.400
 196746750.315 7  37439661.281          44.000       -1381.335
 196431729.828 7  37379722.396          43.000       -1392.678
 07  8 29 13 11 59.0010000  0 10G20G28G17G11G 4G19G23G 1S37S29
 108956019.021 8  20733647.548          49.000       -1521.420
 110566643.848 8  21040138.547          50.000       -2258.515
 113640629.23328  21625092.763          51.000         736.128
 116198889.592 8  22111914.415          51.000       -3444.083
 124554823.50026  23701998.913          41.000        1087.682
                  25188803.049          39.000       -4036.098
 130586768.68837  24849832.712          44.000        1426.488
 133458018.69327  25396216.583          42.000       -1325.996
 196748132.189 7  37439924.220          43.000       -1383.007
 196433122.526 7  37379987.482          44.000       -1393.383
 07  8 29 13 12  0.0010000  0 10G20G28G17G11G 4G19G23G 1S37S29
 108957540.859 8  20733937.431          49.000       -1520.947
 110568902.867 8  21040568.328          50.000       -2259.344
 113639892.55128  21624952.603          50.000         736.865
 116202332.751 8  22112569.392          51.000       -3441.678
 124553734.36727  23701791.710          45.000        1087.733
                  25189572.582          32.000       -4047.868
 130585343.13937  24849560.924          45.000        1424.345
 133459344.68426  25396468.443          38.000       -1324.222
 196749514.730 7  37440187.231          43.000       -1380.151
 196434515.940 7  37380252.830          44.000       -1394.123
 07  8 29 13 12  1.0010000  0 10G20G28G17G11G 4G19G23G 1S37S29
 108959061.408 8  20734226.390          49.000       -1519.854
 110571162.117 8  21040998.249          50.000       -2258.019
 113639155.74328  21624812.567          48.000         741.474
 116205773.608 8  22113224.282          51.000       -3439.575
 124552646.07727  23701584.838          46.000        1088.691
                  25190344.411          24.000       -4033.500
                  24849289.454          34.000        1432.324
 133460668.527 6  25396720.285          41.000       -1322.283
 196750895.629 7  37440449.978          42.000       -1381.605
 196435907.867 7  37380517.760          43.000       -1391.486
 07  8 29 13 12  2.0010000  0  9G20G28G17G11G 4G23G 1S37S29
 108960580.453 8  20734515.715          49.000       -1518.366
 110573421.246 8  21041428.310          50.000       -2258.926
 113638418.49928  21624672.526          48.000         735.181
 116209212.046 8  22113878.474          51.000       -3437.502
 124551558.43126  23701378.208          40.000        1085.667
                  24849027.589          27.000        1368.496
 133461989.95736  25396971.412          41.000       -1319.687
 196752274.413 7  37440712.292          42.000       -1375.774
 196437298.434 7  37380782.411          43.000       -1388.083
 07  8 29 13 12  3.0010000  0 10G20G28G17G11G 4G19G23G 1S37S29
 108962098.385 8  20734804.534          48.000       -1517.249
 110575679.957 8  21041858.179          51.000       -2258.003
 113637681.15627  21624532.053          46.000         737.563
 116212648.981 8  22114532.509          51.000       -3436.952
                  23701172.386          33.000        1093.307
                  25191901.088          30.000       -4043.124
                  24848774.178          28.000        1324.769
 133463310.48426  25397222.940          41.000       -1320.119
 196753650.95537  37440974.271          43.000       -1377.397
 196438686.35737  37381046.661          43.000       -1386.194
 07  8 29 13 12  4.0010000  0 10G20G28G17G11G 4G19G23G 1S37S29
 108963615.392 8  20735093.458          49.000       -1515.822
 110577937.874 8  21042287.559          51.000       -2258.119
 113636943.49427  21624391.858          42.000         738.282
 116216084.698 8  22115186.160          51.000       -3435.223
                  23700963.386          33.000        1095.408
 132388307.75336  25192657.506          41.000       -4034.119
                  24848523.439          27.000        1288.482
 133464630.32827  25397474.624          45.000       -1320.216
 196755025.45927  37441235.817          44.000       -1372.726
 196440072.23627  37381310.508          43.000       -1385.381
 07  8 29 13 12  5.0010000  0 10G20G28G17G11G 4G19G23G 1S37S29
 108965131.622 8  20735381.857          49.000       -1515.840
 110580195.725 8  21042717.305          51.000       -2257.395
 113636204.65328  21624251.245          51.000         739.103
 116219518.663 8  22115840.142          51.000       -3434.116
 124548310.26236  23700755.498          41.000        1087.347
                  25193418.665          29.000       -4041.798
                  24848270.212          28.000        1270.840
 133465948.62436  25397725.560          41.000       -1315.644
 196756398.856 7  37441497.291          44.000       -1372.409
 196441457.866 7  37381574.322          43.000       -1382.534
 07  8 29 13 12  6.0010000  0 10G20G28G17G11G 4G19G23G 1S37S29
 108966646.85038  20735670.641          48.000       -1515.022
 110582454.28937  21043146.930          44.000       -2257.174
                  21624109.883          49.000         744.368
 116222950.64038  22116493.357          50.000       -3430.148
                  23700548.575          34.000        1091.030
                  25194184.161          39.000       -4022.397
                  24848012.493          28.000        1278.097
 133467265.10237  25397975.884          44.000       -1315.211
 196757773.25337  37441758.399          44.000       -1372.529
 196442842.96737  37381837.733          43.000       -1382.603
 07  8 29 13 12  7.0010000  0 10G20G28G17G11G 4G19G23G 1S37S29
 108968161.35628  20735958.658          49.000       -1513.702
 110584711.73328  21043574.513          50.000       -2256.086
 113634709.96838  21623966.458          52.000         742.470
 116226381.13028  22117145.856          51.000       -3429.499
 124546137.95435  23700342.051          34.000        1090.877
                  25194951.864          33.000       -4027.162
 130575287.97037  24847651.300          45.000        1439.000
 133468580.24727  25398226.382          45.000       -1313.819
 196759144.92527  37442018.460          44.000       -1372.287
 196444226.37327  37382099.923          43.000       -1380.678
 07  8 29 13 12  8.0010000  0 10G20G28G17G11G 4G19G23G 1S37S29
 108969675.18528  20736246.691          49.000       -1513.479
 110586968.52128  21044004.033          50.000       -2256.121
 113633967.91528  21623825.792          51.000         742.657
 116229810.44628  22117798.198          51.000       -3428.817
 124545046.85027  23700132.353          46.000        1092.095
 132404388.38536  25195717.422          41.000       -4027.591
 130573848.63437  24847373.144          43.000        1442.145
 133469894.73727  25398476.391          46.000       -1315.200
 196760515.353 7  37442278.940          44.000       -1369.648
 196445608.567 7  37382362.444          43.000       -1380.237
 07  8 29 13 12  9.0010000  0 10G20G28G17G11G 4G19G23G 1S37S29
 108971188.07128  20736534.446          49.000       -1512.372
 110589224.61528  21044434.337          51.000       -2256.049
 113633224.86528  21623685.807          52.000         743.135
 116233238.25328  22118450.592          52.000       -3427.500
 124543954.74827  23699924.451          47.000        1092.767
 132408415.79537  25196482.823          43.000       -4028.014
 130572405.38127  24847098.810          46.000        1443.892
 133471208.15227  25398726.296          46.000       -1312.398
 196761884.062 7  37442539.472          44.000       -1368.542
 196446988.953 7  37382625.192          43.000       -1380.073
 07  8 29 13 12 10.0010000  0 10G20G28G17G11G 4G19G23G 1S37S29
 108972700.29128  20736822.130          49.000       -1511.353
 110591479.87728  21044864.329          51.000       -2254.387
 113632480.58728  21623544.740          52.000         744.591
 116236664.99228  22119102.899          51.000       -3426.556
 124542861.23627  23699717.108          46.000        1093.826
 132412442.28537  25197248.837          43.000       -4025.238
 130570960.92737  24846825.050          45.000        1442.149
 133472520.99527  25398976.026          43.000       -1313.352
 196763251.587 7  37442799.847          44.000       -1366.725
 196448367.704 7  37382887.382          43.000       -1378.003
 07  8 29 13 12 11.0010000  0 10G20G28G17G11G 4G19G23G 1S37S29
 108974212.00428  20737109.884          49.000       -1512.167
 110593734.43928  21045293.098          50.000       -2253.864
 113631735.18028  21623403.202          52.000         746.394
 116240090.75028  22119754.910          51.000       -3424.575
 124541766.44627  23699509.032          46.000        1095.994
 132416467.83327  25198014.570          42.000       -4024.797
 130569515.27837  24846550.804          46.000        1446.459
 133473833.24327  25399225.757          45.000       -1312.109
 196764617.927 7  37443059.787          44.000       -1364.918
 196449745.502 7  37383149.572          43.000       -1378.137
 07  8 29 13 12 12.0010000  0 10G20G28G17G11G 4G19G23G 1S37S29
 108975722.43428  20737397.430          50.000       -1509.600
 110595987.47028  21045722.235          51.000       -2252.153
 113630987.92228  21623261.140          52.000         748.281
 116243515.04828  22120406.222          52.000       -3423.608
 124540669.84427  23699300.834          47.000        1097.696
 132420492.36737  25198780.512          42.000       -4024.088
 130568068.25227  24846275.946          46.000        1446.635
 133475144.90127  25399475.784          47.000       -1310.922
 196765982.340 7  37443319.394          44.000       -1364.281
 196451120.909 7  37383411.344          44.000       -1374.948
 07  8 29 13 12 13.0010000  0 10G20G28G17G11G 4G19G23G 1S37S29
 108977232.109 8  20737684.695          50.000       -1509.549
 110598239.740 8  21046150.429          51.000       -2251.061
 113630239.18828  21623118.642          51.000         749.047
 116246938.910 8  22121057.621          52.000       -3423.111
 124539571.43527  23699091.607          46.000        1100.111
 132424516.08136  25199546.664          41.000       -4024.598
 130566620.09727  24846000.652          46.000        1448.984
 133476457.020 7  25399725.130          44.000       -1310.456
 196767345.088 7  37443578.792          44.000       -1361.916
 196452494.939 7  37383672.905          43.000       -1374.052
 07  8 29 13 12 14.0010000  0 10G20G28G17G11G 4G19G23G 1S37S29
 108978741.085 8  20737971.682          50.000       -1508.214
 110600490.061 8  21046578.849          51.000       -2249.802
 113629488.19028  21622975.884          52.000         753.381
 116250361.340 8  22121708.846          51.000       -3422.205
 124538470.66827  23698882.450          47.000        1102.332
 132428540.12526  25200313.113          39.000       -4022.828
 130565171.79927  24845725.514          46.000        1448.069
 133477768.299 7  25399974.878          43.000       -1310.683
 196768706.592 7  37443837.894          44.000       -1359.706
 196453867.829 7  37383934.328          43.000       -1371.097
 07  8 29 13 12 15.0010000  0 10G20G28G17G11G 4G19G23G 1S37S29
 108980249.333 8  20738258.825          50.000       -1508.035
 110602739.071 8  21047006.625          51.000       -2247.764
 113628735.29728  21622832.408          52.000         753.438
 116253782.791 8  22122360.037          51.000       -3420.800
 124537367.89727  23698672.786          47.000        1104.523
 132432571.04535  25201080.653          32.000       -4044.224
 130563722.82827  24845449.959          46.000        1449.390
 133479079.390 7  25400224.486          47.000       -1310.492
 196770066.516 7  37444096.715          44.000       -1360.869
 196455239.243 7  37384195.435          43.000       -1372.897
 07  8 29 13 12 16.0010000  0 10G20G28G17G11G 4G19G23G 1S37S29
 108981756.331 8  20738545.690          50.000       -1507.040
 110604986.578 8  21047434.348          51.000       -2246.519
 113627981.19228  21622689.037          52.000         754.364
 116257203.002 8  22123010.895          51.000       -3419.730
 124536263.52227  23698462.668          47.000        1103.576
                  25201846.047          33.000       -4017.542
 130562271.71527  24845173.774          44.000        1450.475
 133480390.222 7  25400473.849          45.000       -1311.175
 196771424.235 7  37444354.981          44.000       -1354.624
 196456608.508 7  37384456.022          44.000       -1366.096
 07  8 29 13 12 17.0010000  0 10G20G28G17G11G 4G19G23G 1S37S29
 108983262.045 8  20738832.031          49.000       -1506.245
 110607232.249 8  21047861.774          51.000       -2245.135
 113627225.54428  21622545.056          52.000         755.715
 116260622.017 8  22123661.405          51.000       -3419.586
 124535157.16527  23698252.080          47.000        1106.324
                  25202611.309          28.000       -4017.690
                  24844897.802          37.000        1457.934
 133481700.954 7  25400723.352          42.000       -1310.391
 196772779.460 7  37444612.843          44.000       -1352.385
 196457975.008 7  37384715.995          44.000       -1366.299
 07  8 29 13 12 18.0010000  0 10G20G28G17G11G 4G19G23G 1S37S29
 108984766.879 8  20739118.268          50.000       -1503.750
 110609476.649 8  21048288.886          51.000       -2242.738
 113626468.38938  21622399.487          51.000         757.329
 116264040.223 8  22124312.055          51.000       -3416.285
 124534049.25927  23698041.177          47.000        1108.991
                  25203376.763          28.000       -4016.797
                  24844624.355          34.000        1451.814
 133483011.847 6  25400973.258          37.000       -1306.827
 196774132.640 7  37444870.234          45.000       -1351.532
 196459339.564 7  37384975.743          44.000       -1363.904
 07  8 29 13 12 19.0010000  0 10G20G28G17G11G 4G19G23G 1S37S29
 108986270.456 8  20739404.260          50.000       -1503.005
 110611719.644 8  21048715.928          51.000       -2242.212
 113625709.93828  21622254.791          52.000         759.497
 116267456.903 8  22124962.233          51.000       -3415.340
 124532939.889 7  23697830.187          46.000        1109.949
                  25204143.536          29.000       -4035.381
                  24844347.982          31.000        1461.246
 133484321.72236  25401222.847          37.000       -1311.580
 196775484.141 7  37445127.521          45.000       -1350.174
 196460702.313 7  37385235.088          44.000       -1361.929
 07  8 29 13 12 20.0010000  0 10G20G28G17G11G 4G19G23G 1S37S29
 108987772.904 8  20739690.234          50.000       -1501.830
 110613960.804 8  21049142.325          50.000       -2240.022
 113624949.86728  21622111.211          52.000         760.733
 116270872.669 8  22125612.305          51.000       -3416.797
 124531828.171 7  23697618.867          45.000        1114.466
                  25204914.775          29.000       -4057.851
                  24844067.630          34.000        1469.387
                  25401472.399          34.000       -1321.569
 196776833.444 7  37445384.441          43.000       -1348.093
 196462062.732 7  37385494.102          43.000       -1360.884
 07  8 29 13 12 21.0010000  0 10G20G28G17G11G 4G19G23G 1S37S29
                  20739975.300          49.000       -1504.935
 110616199.57638  21049568.530          50.000       -2237.962
 113624189.98938  21621967.455          51.000         760.181
 116274289.530 8  22126262.535          51.000       -3417.890
 124530713.870 7  23697406.586          44.000        1117.376
                  25205686.805          27.000       -4063.328
                  24843789.149          31.000        1443.884
                  25401724.764          33.000       -1321.193
 196778180.003 7  37445640.472          43.000       -1344.455
 196463420.110 7  37385752.368          43.000       -1354.644
 07  8 29 13 12 22.0010000  0 10G20G28G17G11G 4G19G23G 1S37S29
 108990799.08638  20740259.600          50.000       -1502.161
 110618435.70728  21049993.863          51.000       -2234.460
 113623430.41428  21621823.107          52.000         759.367
 116277708.045 8  22126912.869          51.000       -3419.980
 124529596.083 7  23697194.078          44.000        1120.739
                  25206457.291          26.000       -4045.413
                  24843517.612          31.000        1413.430
                  25401977.829          31.000       -1317.111
 196779524.40337  37445895.927          43.000       -1342.520
 196464773.24436  37386009.657          37.000       -1348.065
 07  8 29 13 12 23.0010000  0 10G20G28G17G11G 4G19G23G 1S37S29
 108992301.55628  20740545.783          50.000       -1502.949
 110620668.86428  21050418.724          51.000       -2231.607
 113622671.82028  21621678.601          51.000         758.704
 116281129.060 8  22127563.708          51.000       -3422.817
 124528474.357 7  23696980.489          45.000        1123.537
                  25207223.875          24.000       -4010.573
                  24843247.606          30.000        1415.867
 133489618.39235  25402229.844          31.000       -1318.970
 196780862.38627  37446149.655          43.000       -1336.529
 196466120.88827  37386264.814          43.000       -1347.307
 07  8 29 13 12 24.0010000  0 10G20G28G17G11G 4G19G23G 1S37S29
 108993804.69328  20740833.066          50.000       -1503.346
 110622898.76028  21050842.993          51.000       -2227.865
 113621913.09928  21621534.027          51.000         759.708
 116284552.912 8  22128215.299          51.000       -3425.275
 124527347.877 7  23696766.063          47.000        1130.226
                  25207986.085          24.000       -4007.368
                  24842971.671          29.000        1473.860
                  25402485.625          29.000       -1331.012
 196782196.530 7  37446403.190          43.000       -1334.375
 196467465.915 7  37386520.339          43.000       -1342.612
 07  8 29 13 12 25.0010000  0 10G20G28G17G11G 4G19G23G 1S37S29
 108995308.46828  20741119.895          50.000       -1504.682
 110625124.94328  21051266.703          51.000       -2224.232
 113621153.49128  21621389.661          52.000         760.311
 116287979.595 8  22128867.412          51.000       -3428.178
 124526215.911 7  23696550.450          47.000        1134.688
                  25208746.370          27.000       -4015.598
 130549209.95935  24842688.702          31.000        1484.314
                  25402738.581          29.000       -1336.433
 196783527.071 7  37446656.238          44.000       -1328.269
 196468806.901 7  37386775.567          45.000       -1340.138
 07  8 29 13 12 26.0010000  0 10G20G28G17G11G 4G19G23G 1S37S29
 108996813.40628  20741406.479          50.000       -1506.414
 110627346.79628  21051689.576          51.000       -2219.165
 113620391.88928  21621244.250          51.000         763.196
 116291409.859 8  22129520.398          51.000       -3431.874
 124525076.784 7  23696333.774          47.000        1143.754
                  25209510.096          25.000       -4016.680
 130547737.01335  24842408.305          33.000        1466.858
                  25402994.504          27.000       -1342.199
 196784854.731 7  37446908.935          44.000       -1326.501
 196470144.289 7  37387029.853          43.000       -1335.430
 07  8 29 13 12 27.0010000  0 10G20G28G17G11G 4G19G23G 1S37S29
 108998320.54228  20741693.482          50.000       -1507.913
 110629563.75328  21052111.210          51.000       -2214.688
 113619627.77528  21621098.995          51.000         765.619
 116294845.185 8  22130173.959          50.000       -3437.715
 124523928.777 7  23696115.161          47.000        1153.264
                  25210271.917          31.000       -4023.776
                  24842128.229          31.000        1465.851
                  25403253.818          26.000       -1377.428
 196786180.265 7  37447161.126          44.000       -1325.551
 196471478.377 7  37387283.808          43.000       -1331.049
 07  8 29 13 12 28.0010000  0 10G20G28G17G11G 4G19G23G 1S37S29
 108999829.63828  20741980.747          49.000       -1510.462
 110631776.27528  21052532.512          50.000       -2210.838
 113618861.57928  21620953.077          50.000         767.954
 116298285.133 8  22130828.724          50.000       -3442.509
 124522772.816 7  23695895.344          46.000        1160.612
 132484857.87136  25211030.232          40.000       -4028.856
 130544792.52635  24841848.169          32.000        1462.093
                  25403515.979          27.000       -1359.941
 196787503.607 7  37447412.847          44.000       -1322.586
 196472809.084 7  37387536.907          44.000       -1329.332
 07  8 29 13 12 29.0010000  0 10G20G28G17G11G 4G19G23G 1S37S29
 109001340.92228  20742268.360          50.000       -1512.110
 110633984.19228  21052952.803          51.000       -2205.868
 113618092.78328  21620806.619          51.000         770.746
 116301729.878 8  22131484.222          50.000       -3447.958
 124521608.405 7  23695673.398          47.000        1169.576
 132488886.33436  25211785.509          38.000       -4037.120
                  24841568.738          31.000        1461.133
                  25403775.568          27.000       -1361.361
 196788825.141 7  37447664.392          44.000       -1322.432
 196474136.804 7  37387789.569          43.000       -1327.225
 07  8 29 13 12 30.0010000  0 10G20G28G17G11G 4G19G23G 1S37S29
 109002854.95428  20742556.235          49.000       -1515.461
 110636186.52428  21053371.628          51.000       -2199.472
 113617320.59428  21620659.183          51.000         774.117
 116305180.639 8  22132140.923          50.000       -3454.149
 124520433.501 7  23695450.022          47.000        1180.556
 132492924.50727  25212554.381          42.000       -4042.585
                  24841289.746          29.000        1465.428
                  25404032.804          26.000       -1355.942
 196790144.842 7  37447915.624          45.000       -1318.076
 196475462.146 7  37388041.814          43.000       -1323.539
 07  8 29 13 12 31.0010000  0 10G20G28G17G11G 4G19G23G 1S37S29
 109004372.868 8  20742844.686          49.000       -1519.063
 110638383.197 8  21053789.807          51.000       -2192.716
 113616544.735 8  21620513.441          52.000         778.892
 116308638.274 8  22132798.951          50.000       -3462.167
 124519246.681 7  23695224.273          46.000        1192.058
 132496970.42026  25213323.863          37.000       -4051.465
                  24841015.808          30.000        1454.421
                  25404296.063          28.000       -1387.519
 196791462.857 7  37448166.419          44.000       -1316.259
 196476785.217 7  37388293.585          43.000       -1323.010
 07  8 29 13 12 32.0010000  0 10G20G28G17G11G 4G19G23G 1S37S29
 109005894.095 8  20743134.480          49.000       -1522.884
 110640573.521 8  21054206.555          51.000       -2187.317
 113615764.284 8  21620365.324          51.000         782.186
 116312103.136 8  22133458.462          50.000       -3467.778
 124518048.074 7  23694995.854          46.000        1203.754
 132501024.58436  25214094.112          36.000       -4058.687
                  24840738.662          31.000        1451.712
                  25404562.788          26.000       -1393.229
 196792780.002 7  37448417.179          43.000       -1316.701
 196478106.818 7  37388545.132          43.000       -1319.863
 07  8 29 13 12 33.0010000  0 10G20G28G17G11G 4G19G23G 1S37S29
 109007418.841 8  20743424.292          49.000       -1526.262
 110642758.071 8  21054622.099          50.000       -2182.241
 113614979.535 8  21620214.085          50.000         786.394
 116315574.829 8  22134119.404          51.000       -3474.081
 124516837.745 7  23694765.690          46.000        1215.040
                  25214863.926          30.000       -4064.651
                  24840466.335          26.000        1452.481
                  25404832.321          26.000       -1401.406
 196794096.474 7  37448667.642          45.000       -1315.568
 196479426.084 7  37388796.136          42.000       -1319.675
 07  8 29 13 12 34.0010000  0 10G20G28G17G11G 4G19G23G 1S37S29
 109008945.421 8  20743715.414          49.000       -1526.347
 110644939.526 8  21055037.380          50.000       -2180.927
 113614192.319 8  21620063.194          51.000         787.930
 116319049.744 8  22134781.064          51.000       -3475.007
 124515620.999 7  23694534.528          47.000        1218.009
                  25215636.937          30.000       -4062.983
                  24840201.718          29.000        1448.160
                  25405106.953          29.000       -1398.601
 196795412.192 7  37448918.018          45.000       -1315.243
 196480743.917 7  37389046.861          42.000       -1317.375
 07  8 29 13 12 35.0010000  0 10G20G28G17G11G 4G19G23G 1S37S29
 109010471.500 8  20744005.821          49.000       -1525.287
 110647120.275 8  21055452.137          50.000       -2180.182
 113613404.001 8  21619912.511          51.000         789.306
 116322523.744 8  22135441.991          51.000       -3472.978
 124514403.030 7  23694303.068          47.000        1218.764
                  25216411.465          30.000       -4062.988
                  24839933.002          32.000        1448.374
                  25405379.875          29.000       -1398.361
 196796726.797 7  37449168.429          45.000       -1314.312
 196482060.533 7  37389297.325          42.000       -1315.286
 07  8 29 13 12 36.0010000  0 10G20G28G17G11G 4G19G23G 1S37S29
 109011996.962 8  20744295.914          49.000       -1525.293
 110649300.436 8  21055866.720          50.000       -2179.780
 113612614.659 8  21619761.689          51.000         789.773
 116325996.588 8  22136102.797          51.000       -3472.042
 124513184.052 7  23694070.998          47.000        1219.805
                  25217184.876          30.000       -4063.365
 130533306.36335  24839662.368          33.000        1451.763
                  25405651.785          28.000       -1394.998
 196798040.351 7  37449418.491          46.000       -1313.365
 196483376.019 7  37389547.526          42.000       -1315.704
 07  8 29 13 12 37.0010000  0 10G20G28G17G11G 4G19G23G 1S37S29
 109013522.061 8  20744586.285          50.000       -1524.787
 110651480.221 8  21056281.337          50.000       -2179.612
 113611824.518 8  21619611.408          50.000         790.635
 116329468.545 8  22136763.724          51.000       -3471.469
 124511964.216 7  23693838.631          47.000        1220.221
                  25217958.357          29.000       -4063.312
 130531855.53025  24839386.723          33.000        1448.920
                  25405921.443          29.000       -1395.535
 196799352.620 7  37449668.414          46.000       -1312.067
 196484690.333 7  37389797.640          42.000       -1314.555
 07  8 29 13 12 38.0010000  0 10G20G28G17G11G 4G19G23G 1S37S29
 109015046.691 8  20744876.465          50.000       -1524.221
 110653659.528 8  21056695.762          50.000       -2179.045
 113611033.446 8  21619461.058          51.000         791.838
 116332939.505 8  22137424.546          51.000       -3470.612
 124510743.481 7  23693606.526          47.000        1221.169
                  25218730.722          29.000       -4060.904
 130530403.58025  24839110.540          32.000        1452.244
                  25406194.625          28.000       -1398.714
 196800663.557 7  37449917.987          45.000       -1310.315
 196486003.517 7  37390047.475          42.000       -1314.080
 07  8 29 13 12 39.0010000  0 10G20G28G17G11G 4G19G23G 1S37S29
 109016571.035 8  20745166.575          49.000       -1524.335
 110655838.531 8  21057110.310          50.000       -2178.624
 113610241.652 8  21619310.183          51.000         792.015
 116336409.661 8  22138085.230          51.000       -3469.533
 124509522.009 7  23693374.299          46.000        1222.231
                  25219503.662          28.000       -4060.713
 130528950.66535  24838833.971          32.000        1451.404
                  25406463.342          28.000       -1395.680
 196801973.739 7  37450167.438          45.000       -1310.101
 196487316.040 6  37390297.276          41.000       -1313.075
 07  8 29 13 12 40.0010000  0 10G20G28G17G11G 4G19G23G 1S37S29
 109018095.098 8  20745456.703          49.000       -1524.147
 110658017.260 8  21057524.822          50.000       -2178.572
 113609449.132 8  21619159.396          51.000         792.954
 116339879.013 8  22138745.598          51.000       -3468.944
 124508299.803 7  23693141.723          46.000        1222.437
                  25220277.161          29.000       -4057.271
 130527496.78725  24838556.636          33.000        1453.643
                  25406731.709          27.000       -1396.839
 196803282.869 7  37450416.698          46.000       -1308.631
 196488627.274 7  37390546.658          42.000       -1310.919
 07  8 29 13 12 41.0010000  0 10G20G28G17G11G 4G19G23G 1S37S29
 109019618.853 8  20745746.795          49.000       -1523.826
 110660195.652 8  21057939.160          50.000       -2178.242
 113608655.862 8  21619008.749          51.000         793.893
 116343347.522 8  22139405.810          51.000       -3468.176
 124507076.854 7  23692908.571          46.000        1223.601
                  25221049.402          29.000       -4060.232
 130526042.03225  24838278.723          32.000        1453.545
                  25406995.924          26.000       -1393.984
 196804591.150 7  37450665.591          45.000       -1307.323
 196489937.440 6  37390796.074          41.000       -1308.941
 07  8 29 13 12 42.0010000  0 10G20G28G17G11G 4G19G23G 1S37S29
 109021142.349 8  20746036.574          49.000       -1523.063
 110662373.785 8  21058353.446          50.000       -2178.015
 113607861.876 8  21618857.787          51.000         794.458
 116346815.259 8  22140065.708          51.000       -3467.397
 124505853.173 7  23692675.506          46.000        1224.166
                  25221820.023          28.000       -4056.620
 130524586.28725  24838000.481          33.000        1457.221
                  25407259.893          25.000       -1394.519
 196805898.402 7  37450914.326          46.000       -1307.007
 196491246.580 7  37391045.299          42.000       -1307.599
 07  8 29 13 12 43.0010000  0 10G20G28G17G11G 4G19G23G 1S37S29
 109022665.585 8  20746326.369          49.000       -1523.142
 110664551.648 8  21058767.924          50.000       -2177.583
 113607067.201 8  21618706.843          51.000         794.973
 116350282.209 8  22140725.501          51.000       -3466.763
 124504628.792 7  23692442.092          46.000        1223.878
                  25222590.362          28.000       -4057.104
 130523129.61525  24837722.149          33.000        1455.302
                  25407522.624          22.000       -1393.729
 196807204.458 7  37451162.818          45.000       -1305.278
 196492555.055 7  37391294.313          42.000       -1309.035
 07  8 29 13 12 44.0010000  0  9G20G28G17G11G 4G19G23S37S29
 109024188.602 8  20746616.113          49.000       -1523.133
 110666729.285 8  21059182.244          50.000       -2177.477
 113606271.860 8  21618555.620          51.000         795.924
 116353748.426 8  22141384.718          51.000       -3465.763
 124503403.750 7  23692208.504          46.000        1225.631
                  25223361.557          29.000       -4056.547
 130521672.06335  24837443.348          33.000        1456.686
 196808509.683 7  37451411.309          45.000       -1304.914
 196493862.929 7  37391543.293          42.000       -1308.451
 07  8 29 13 12 45.0010000  0  9G20G28G17G11G 4G19G23S37S29
 109025711.354 8  20746906.048          49.000       -1522.388
 110668906.647 8  21059596.426          50.000       -2176.898
 113605475.820 8  21618404.170          51.000         796.650
 116357213.856 8  22142043.918          51.000       -3464.873
 124502177.970 7  23691975.055          46.000        1226.208
                  25224131.427          28.000       -4053.958
 130520213.66225  24837164.425          34.000        1459.528
 196809814.307 7  37451659.521          45.000       -1305.046
 196495169.784 7  37391792.029          42.000       -1307.126
 07  8 29 13 12 46.0010000  0  9G20G28G17G11G 4G19G23S37S29
 109027233.875 8  20747195.565          49.000       -1521.955
 110671083.762 8  21060010.728          50.000       -2177.277
 113604679.091 8  21618252.650          51.000         796.587
 116360678.525 8  22142703.624          51.000       -3464.322
 124500951.506 7  23691741.414          46.000        1226.463
                  25224900.876          29.000       -4056.730
 130518754.30835  24836885.553          35.000        1460.456
 196811118.060 7  37451907.646          45.000       -1303.805
 196496475.675 6  37392040.468          41.000       -1305.555
 07  8 29 13 12 47.0010000  0  9G20G28G17G11G 4G19G23S37S29
 109028756.076 8  20747485.186          49.000       -1522.482
 110673260.501 8  21060425.171          50.000       -2176.771
 113603881.563 8  21618101.095          51.000         797.804
 116364142.396 8  22143362.492          51.000       -3463.692
 124499724.195 7  23691508.175          46.000        1227.439
                  25225670.239          30.000       -4054.410
 130517294.00725  24836606.263          34.000        1462.127
 196812420.833 7  37452155.754          46.000       -1302.807
 196497781.004 7  37392288.715          42.000       -1305.105
 07  8 29 13 12 48.0010000  0  9G20G28G17G11G 4G19G23S37S29
 109030276.746 8  20747774.233          49.000       -1518.604
 110675439.279 8  21060840.346          51.000       -2180.373
 113603084.872 8  21617948.980          50.000         795.510
 116367602.763 8  22144020.612          51.000       -3456.919
 124498500.591 7  23691275.491          46.000        1218.972
 132565850.41535  25226442.623          34.000       -4048.303
 130515831.10536  24836323.117          36.000        1466.187
 196813722.808 7  37452403.652          45.000       -1301.812
 196499085.865 7  37392537.154          43.000       -1303.363
 07  8 29 13 12 49.0010000  0  9G20G28G17G11G 4G19G23S37S29
 109031794.568 8  20748063.227          49.000       -1516.509
 110677620.414 8  21061256.079          51.000       -2181.971
 113602289.190 8  21617796.762          50.000         796.246
 116371057.655 8  22144677.021          50.000       -3452.524
 124497281.960 7  23691044.275          47.000        1217.333
 132569895.27035  25227212.930          35.000       -4042.704
                  24836040.967          32.000        1471.860
 196815023.367 7  37452651.149          44.000       -1299.473
 196500389.662 7  37392785.384          42.000       -1302.650
 07  8 29 13 12 50.0010000  0  8G20G28G17G11G 4G19S37S29
 109033309.641 8  20748351.139          49.000       -1513.988
 110679804.540 8  21061671.288          51.000       -2186.354
 113601495.061 8  21617646.410          51.000         793.408
 116374507.028 8  22145333.623          51.000       -3446.206
 124496069.433 7  23690813.388          46.000        1209.511
                  25227984.841          30.000       -4042.227
 196816322.499 7  37452898.366          44.000       -1299.728
 196501693.234 7  37393033.491          42.000       -1303.575
 07  8 29 13 12 51.0010000  0  9G20G28G17G11G 4G19G23S37S29
 109034821.624 8  20748638.947          49.000       -1510.764
 110681991.823 8  21062087.929          51.000       -2187.948
 113600702.595 8  21617497.577          52.000         792.466
 116377950.479 8  22145988.689          51.000       -3440.570
 124494863.252 7  23690584.090          47.000        1203.508
 132578003.83435  25228755.443          30.000       -4041.133
                  24835435.899          32.000        1474.010
 196817620.276 7  37453145.305          44.000       -1298.728
 196502995.793 7  37393281.198          43.000       -1300.059
 07  8 29 13 12 52.0010000  0  9G20G28G17G11G 4G19G23S37S29
 109036332.296 8  20748926.299          49.000       -1510.815
 110684180.163 8  21062504.448          51.000       -2187.873
 113599910.669 8  21617346.895          51.000         793.154
 116381391.181 8  22146643.229          51.000       -3439.896
 124493659.368 7  23690355.091          47.000        1205.646
                  25229525.870          31.000       -4041.782
 130509704.38736  24835171.147          39.000        1481.806
 196818916.786 7  37453392.069          44.000       -1296.327
 196504296.803 7  37393528.991          43.000       -1301.476
 07  8 29 13 12 53.0010000  0  9G20G28G17G11G 4G19G23S37S29
 109037843.161 8  20749214.054          48.000       -1509.248
 110686368.487 8  21062920.617          51.000       -2190.703
 113599118.644 8  21617196.578          51.000         790.914
 116384831.718 8  22147297.927          50.000       -3437.979
 124492455.043 7  23690125.899          47.000        1203.589
                  25230296.806          28.000       -4033.296
 130508225.61436  24834886.412          36.000        1482.635
 196820212.371 7  37453638.607          44.000       -1294.310
 196505597.434 7  37393776.522          43.000       -1301.001
 07  8 29 13 12 54.0010000  0  9G20G28G17G11G 4G19G23S37S29
 109039351.90738  20749499.610          49.000       -1507.364
 110688558.700 8  21063337.712          50.000       -2190.356
 113598327.748 8  21617045.930          50.000         790.239
 116388268.372 8  22147952.120          51.000       -3434.205
 124491254.695 7  23689897.561          46.000        1197.374
                  25231064.566          28.000       -4025.442
 130506740.61336  24834603.336          39.000        1487.342
 196821506.732 7  37453884.847          44.000       -1292.448
 196506897.139 7  37394024.020          42.000       -1297.528
 07  8 29 13 12 55.0010000  0  9G20G28G17G11G 4G19G23S37S29
 109040858.71828  20749785.603          49.000       -1505.413
 110690750.808 8  21063754.824          51.000       -2193.083
 113597538.307 8  21616895.927          51.000         788.309
 116391701.213 8  22148605.091          51.000       -3430.454
 124490058.517 7  23689670.236          44.000        1195.167
 132594151.80436  25231828.175          36.000       -4013.757
 130505251.78327  24834320.715          42.000        1493.237
 196822799.288 7  37454130.704          43.000       -1290.501
 196508195.709 7  37394271.115          43.000       -1296.837
 07  8 29 13 12 56.0010000  0  9G20G28G17G11G 4G19G23S37S29
 109042363.42428  20750072.642          49.000       -1504.145
 110692944.701 8  21064172.494          50.000       -2194.290
 113596750.579 8  21616746.186          51.000         787.258
 116395130.265 8  22149258.044          51.000       -3427.003
 124488866.366 7  23689443.242          46.000        1191.448
 132598163.87835  25232589.441          33.000       -4013.514
 130503757.96328  24834037.255          48.000        1496.081
 196824089.700 7  37454376.229          43.000       -1290.379
 196509492.456 7  37394517.827          42.000       -1295.254
 07  8 29 13 12 57.0010000  0  9G20G28G17G11G 4G19G23S37S29
 109043866.20328  20750359.507          49.000       -1502.133
 110695139.806 8  21064590.409          50.000       -2194.532
 113595963.957 8  21616596.620          51.000         787.126
 116398555.979 8  22149909.968          51.000       -3424.897
 124487677.299 7  23689216.964          46.000        1189.339
 132602171.37035  25233351.581          34.000       -4007.929
 130502261.11926  24833752.783          38.000        1499.342
 196825378.608 7  37454621.388          43.000       -1288.477
 196510787.644 7  37394764.381          43.000       -1294.454
 07  8 29 13 12 58.0010000  0  9G20G28G17G11G 4G19G23S37S29
 109045369.05928  20750645.603          49.000       -1503.237
 110697334.024 8  21065007.819          50.000       -2194.606
 113595176.565 8  21616446.671          51.000         788.239
 116401981.814 8  22150561.803          51.000       -3425.086
 124486486.608 7  23688990.113          46.000        1192.217
 132606183.29436  25234113.544          39.000       -4009.497
                  24833469.420          31.000        1483.932
 196826666.244 7  37454866.441          43.000       -1288.224
 196512081.758 7  37395010.673          43.000       -1295.339
 07  8 29 13 12 59.0010000  0  9G20G28G17G11G 4G19G23S37S29
 109046871.54528  20750931.630          49.000       -1501.284
 110699528.588 8  21065425.577          50.000       -2195.090
 113594389.365 8  21616296.895          51.000         786.963
 116405406.614 8  22151213.569          51.000       -3423.699
 124485296.412 7  23688764.026          47.000        1188.213
 132610189.04137  25234874.062          42.000       -4004.009
                  24833186.610          30.000        1498.384
 196827952.608 7  37455111.181          43.000       -1286.071
 196513375.084 7  37395256.792          43.000       -1293.014
 07  8 29 13 13  0.0010000  0  8G20G28G17G11G 4G19S37S29
 109048372.56128  20751217.569          49.000       -1500.148
 110701724.079 8  21065843.125          50.000       -2196.356
 113593603.102 8  21616147.312          51.000         785.672
 116408828.785 8  22151864.656          51.000       -3420.562
 124484108.623 7  23688538.080          46.000        1187.275
 132614191.19426  25235635.555          40.000       -4001.444
 196829236.917 7  37455355.538          44.000       -1282.097
 196514666.681 7  37395502.509          43.000       -1292.902
 07  8 29 13 13  1.0010000  0 10G20G28G17G11G 4G19G23G 1S37S29
 109049871.902 8  20751502.846          49.000       -1498.931
 110703920.406 8  21066261.232          50.000       -2197.262
 113592817.946 8  21615997.536          50.000         784.276
 116412248.236 8  22152515.480          51.000       -3418.014
 124482923.248 7  23688312.657          46.000        1183.070
 132618189.01926  25236396.736          40.000       -3996.774
 130496239.13236  24832608.768          37.000        1509.315
                  25412195.042          35.000       -1347.316
 196830518.664 7  37455599.493          43.000       -1279.999
 196515956.663 7  37395748.034          43.000       -1290.582
 07  8 29 13 13  2.0010000  0 10G20G28G17G11G 4G19G23G 1S37S29
 109051369.789 8  20751787.704          49.000       -1496.293
 110706117.973 8  21066679.077          49.000       -2198.245
 113592034.437 8  21615848.458          50.000         783.459
 116415665.098 8  22153165.816          51.000       -3415.247
 124481740.868 7  23688087.688          47.000        1181.387
 132622182.30927  25237156.940          42.000       -3989.350
 130494727.64736  24832321.137          40.000        1513.615
                  25412441.802          32.000       -1356.227
 196831798.434 7  37455843.029          43.000       -1277.877
 196517244.674 7  37395993.002          42.000       -1286.328
 07  8 29 13 13  3.0010000  0 10G20G28G17G11G 4G19G23G 1S37S29
 109052865.809 8  20752072.458          49.000       -1494.698
 110708316.328 8  21067097.218          49.000       -2199.652
 113591252.080 8  21615699.468          50.000         781.842
 116419078.996 8  22153815.157          51.000       -3411.619
 124480561.067 7  23687863.312          46.000        1178.518
 132626171.07826  25237916.130          38.000       -3985.758
 130493211.95827  24832030.942          47.000        1517.753
                  25412698.394          31.000       -1344.968
 196833075.940 7  37456086.233          44.000       -1276.945
 196518530.878 7  37396237.760          42.000       -1284.103
 07  8 29 13 13  4.0010000  0 10G20G28G17G11G 4G19G23G 1S37S29
 109054360.760 8  20752356.966          49.000       -1495.259
 110710515.663 8  21067515.850          49.000       -2198.146
 113590470.686 8  21615551.036          51.000         781.862
 116422490.796 8  22154464.585          51.000       -3411.152
 124479383.276 7  23687638.990          46.000        1179.173
 132630156.50826  25238674.692          41.000       -3984.436
 130491693.25127  24831742.019          45.000        1520.095
 133545965.56835  25412952.348          32.000       -1344.097
 196834351.937 7  37456329.141          43.000       -1275.230
 196519815.517 7  37396482.341          42.000       -1285.620
 07  8 29 13 13  5.0010000  0 10G20G28G17G11G 4G19G23G 1S37S29
 109055856.284 8  20752641.579          49.000       -1495.251
 110712713.984 8  21067934.167          49.000       -2197.770
 113589688.417 8  21615402.047          51.000         782.986
 116425903.312 8  22155113.924          51.000       -3412.441
 124478203.216 7  23687414.353          47.000        1180.109
 132634142.57126  25239433.148          40.000       -3984.399
 130490174.40127  24831452.380          45.000        1519.137
 133547307.90035  25413205.674          35.000       -1340.151
 196835627.339 7  37456571.821          43.000       -1274.999
 196521098.857 7  37396726.663          43.000       -1283.089
 07  8 29 13 13  6.0010000  0 10G20G28G17G11G 4G19G23G 1S37S29
 109057351.483 8  20752926.140          49.000       -1494.636
 110714912.603 8  21068352.483          49.000       -2198.438
 113588906.103 8  21615252.987          51.000         783.119
 116429314.786 8  22155763.003          51.000       -3410.320
 124477023.514 7  23687189.734          47.000        1179.276
 132638127.25226  25240191.692          41.000       -3984.396
 130488654.24527  24831163.772          44.000        1520.736
                  25413450.352          37.000       -1316.781
 196836902.058 7  37456814.432          44.000       -1273.775
 196522380.962 7  37396970.530          43.000       -1280.693
 07  8 29 13 13  7.0010000  0 10G20G28G17G11G 4G19G23G 1S37S29
 109058845.745 8  20753210.474          49.000       -1493.771
 110717111.762 8  21068771.009          50.000       -2199.175
 113588123.734 8  21615103.840          51.000         782.379
 116432724.294 8  22156411.925          51.000       -3408.247
 124475844.924 7  23686965.411          47.000        1178.079
 132642110.214 7  25240949.085          43.000       -3980.655
 130487132.13927  24830874.640          44.000        1522.080
 133549823.52136  25413686.515          41.000       -1338.458
 196838175.625 7  37457056.798          43.000       -1272.748
 196523662.996 7  37397214.449          43.000       -1281.087
 07  8 29 13 13  8.0010000  0 10G20G28G17G11G 4G19G23G 1S37S29
 109060339.049 8  20753494.739          49.000       -1492.063
 110719311.521 8  21069189.726          50.000       -2199.698
 113587341.404 8  21614955.024          51.000         782.643
 116436131.764 8  22157060.202          51.000       -3406.544
 124474667.535 7  23686741.280          47.000        1177.688
 132646090.350 6  25241706.512          41.000       -3979.517
 130485608.02327  24830585.125          45.000        1526.782
 133551162.15426  25413943.942          38.000       -1334.220
 196839447.970 7  37457298.886          44.000       -1270.075
 196524943.967 7  37397458.386          43.000       -1281.130
 07  8 29 13 13  9.0010000  0 10G20G28G17G11G 4G19G23G 1S37S29
 109061831.130 8  20753778.759          49.000       -1491.672
 110721511.462 8  21069608.409          50.000       -2200.248
 113586559.267 8  21614806.767          51.000         782.542
 116439537.256 8  22157708.234          51.000       -3404.344
 124473491.105 7  23686517.533          47.000        1176.605
 132650067.738 6  25242463.591          38.000       -3975.731
 130484081.22427  24830294.527          45.000        1529.593
 133552499.11327  25414198.820          43.000       -1335.660
 196840718.486 7  37457540.607          44.000       -1268.787
 196526223.252 7  37397701.748          43.000       -1279.046
 07  8 29 13 13 10.0010000  0 10G20G28G17G11G 4G19G23G 1S37S29
 109063322.275 8  20754062.569          49.000       -1490.614
 110723712.191 8  21070027.249          50.000       -2200.780
 113585777.537 8  21614657.707          51.000         781.128
 116442940.705 8  22158355.777          51.000       -3402.251
 124472316.168 7  23686293.942          47.000        1173.927
 132654042.355 6  25243219.518          38.000       -3973.127
 130482551.96327  24830003.703          45.000        1531.186
 133553834.27627  25414452.303          44.000       -1333.106
 196841987.536 7  37457782.154          44.000       -1267.635
 196527501.667 7  37397945.073          44.000       -1278.893
 07  8 29 13 13 11.0010000  0 10G20G28G17G11G 4G19G23G 1S37S29
 109064812.516 8  20754345.979          49.000       -1489.298
 110725913.834 8  21070446.333          50.000       -2201.609
 113584996.083 8  21614508.578          51.000         781.836
 116446342.044 8  22159003.199          51.000       -3399.788
 124471142.910 7  23686070.736          47.000        1172.188
 132658014.725 5  25243975.672          35.000       -3969.781
 130481020.73027  24829712.406          45.000        1531.849
 133555167.42827  25414705.803          44.000       -1330.435
 196843256.003 7  37458023.647          43.000       -1267.212
 196528779.190 7  37398188.103          43.000       -1278.087
 07  8 29 13 13 12.0010000  0 10G20G28G17G11G 4G19G23G 1S37S29
 109066302.113 8  20754629.179          49.000       -1489.006
 110728116.298 8  21070865.226          49.000       -2201.941
 113584214.976 8  21614360.041          51.000         781.227
 116449741.676 8  22159650.253          51.000       -3399.055
 124469970.942 7  23685847.652          47.000        1170.991
 132661984.875 5  25244730.778          33.000       -3969.049
 130479487.44727  24829421.198          44.000        1534.127
 133556498.93827  25414959.826          43.000       -1330.836
 196844523.765 7  37458265.002          43.000       -1265.819
 196530055.875 7  37398431.063          44.000       -1275.784
 07  8 29 13 13 13.0010000  0  9G20G28G17G11G 4G23G 1S37S29
 109067791.121 8  20754912.413          49.000       -1488.534
 110730319.048 8  21071284.083          49.000       -2203.215
 113583434.039 8  21614211.435          51.000         781.105
 116453140.007 8  22160296.802          51.000       -3397.442
 124468799.568 7  23685624.935          47.000        1170.564
 130477952.764 7  24829129.099          44.000        1534.938
 133557829.65027  25415213.674          43.000       -1329.348
 196845790.381 7  37458506.041          43.000       -1267.095
 196531331.541 7  37398673.865          44.000       -1276.174
 07  8 29 13 13 14.0010000  0  9G20G28G17G11G 4G23G 1S37S29
 109069279.687 8  20755195.700          49.000       -1488.564
 110732522.394 8  21071703.394          49.000       -2203.469
 113582653.450 8  21614062.741          51.000         780.528
 116456536.995 8  22160943.402          51.000       -3396.648
 124467629.027 7  23685402.357          47.000        1169.942
 130476415.736 7  24828836.845          43.000        1539.406
 133559159.17227  25415467.070          44.000       -1328.263
 196847055.851 7  37458746.942          43.000       -1266.565
 196532606.260 7  37398916.441          43.000       -1274.587
 07  8 29 13 13 15.0010000  0 10G20G28G17G11G 4G19G23G 1S37S29
 109070768.034 8  20755479.074          49.000       -1487.979
 110734726.741 8  21072123.054          49.000       -2204.721
 113581873.372 8  21613914.536          51.000         779.742
 116459932.726 8  22161589.427          51.000       -3394.833
 124466459.664 8  23685179.570          48.000        1169.139
                  25247001.314          27.000       -3967.539
                  24828543.960          37.000        1538.704
 133560487.39427  25415720.132          42.000       -1329.968
 196848320.555 7  37458987.599          43.000       -1263.816
 196533880.533 7  37399159.000          43.000       -1273.916
 07  8 29 13 13 16.0010000  0 10G20G28G17G11G 4G19G23G 1S37S29
 109072255.774 8  20755762.222          49.000       -1487.956
 110736931.673 8  21072542.731          49.000       -2205.494
 113581093.576 8  21613766.244          51.000         779.231
 116463326.915 8  22162235.330          51.000       -3393.770
 124465291.243 7  23684957.376          47.000        1168.156
                  25247755.114          31.000       -3959.324
                  24828251.757          31.000        1542.565
 133561814.76325  25415972.829          35.000       -1327.952
 196849584.108 7  37459227.923          44.000       -1264.180
 196535153.648 7  37399401.192          43.000       -1272.203
 07  8 29 13 13 17.0010000  0  9G20G28G17G11G 4G19G 1S37S29
 109073742.876 8  20756044.933          49.000       -1485.852
 110739137.067 8  21072962.357          49.000       -2205.175
 113580313.890 8  21613617.551          51.000         780.177
 116466719.551 8  22162880.727          51.000       -3391.685
 124464123.631 7  23684735.286          47.000        1167.773
                  25248506.992          32.000       -3958.460
                  25416224.146          28.000       -1330.668
 196850846.097 7  37459468.109          43.000       -1260.445
 196536425.855 7  37399643.541          44.000       -1272.154
 07  8 29 13 13 18.0010000  0  9G20G28G17G11G 4G19G 1S37S29
 109075229.416 8  20756328.046          49.000       -1485.169
 110741342.776 8  21073382.052          49.000       -2204.838
 113579533.912 8  21613468.998          50.000         781.487
 116470110.31037  22163526.369          47.000       -3388.710
 124462956.406 7  23684513.285          47.000        1167.264
 132685749.41835  25249258.590          35.000       -3959.497
                  25416478.064          24.000       -1331.077
 196852107.309 7  37459708.258          43.000       -1262.159
 196537697.214 7  37399885.489          43.000       -1270.420
 07  8 29 13 13 19.0010000  0 10G20G28G17G11G 4G19G23G 1S37S29
 109076716.054 8  20756611.018          49.000       -1486.283
 110743547.768 8  21073801.887          49.000       -2204.076
 113578752.48738  21613320.270          49.000         780.532
 116473501.46928  22164171.781          50.000       -3392.953
 124461787.643 7  23684290.988          47.000        1170.801
                  25250009.069          38.000       -3966.156
                  24827364.099          32.000        1540.484
                  25416729.587          24.000       -1342.190
 196853367.805 7  37459948.093          42.000       -1263.732
 196538968.033 7  37400127.401          43.000       -1269.896
 07  8 29 13 13 20.0010000  0  9G20G28G17G11G 4G19G23S37S29
 109078203.117 8  20756893.991          49.000       -1486.177
 110745752.435 8  21074221.355          49.000       -2204.363
 113577970.65228  21613171.594          50.000         781.304
 116476892.67828  22164817.091          50.000       -3389.666
 124460617.553 7  23684067.991          47.000        1170.370
 132693649.75827  25250762.136          42.000       -3959.314
                  24827070.780          37.000        1545.321
 196854628.109 7  37460188.018          43.000       -1258.974
 196540238.400 7  37400369.034          43.000       -1269.739
 07  8 29 13 13 21.0010000  0  9G20G28G17G11G 4G19G23S37S29
 109079690.048 8  20757177.033          49.000       -1487.735
 110747957.686 8  21074641.085          49.000       -2206.309
 113577188.37228  21613022.535          50.000         781.976
 116480282.75328  22165462.244          51.000       -3389.526
 124459447.728 7  23683845.710          47.000        1169.105
 132697607.72426  25251515.427          40.000       -3957.793
 130465593.66837  24826777.146          44.000        1545.910
 196855888.065 7  37460427.644          43.000       -1260.257
 196541508.629 7  37400610.756          42.000       -1267.489
 07  8 29 13 13 22.0010000  0  9G20G28G17G11G 4G19G23S37S29
 109081176.709 8  20757459.814          49.000       -1486.686
 110750162.910 8  21075060.711          49.000       -2204.631
 113576405.75028  21612873.859          50.000         783.122
 116483671.91828  22166107.134          51.000       -3389.405
 124458277.544 7  23683622.697          47.000        1170.764
 132701564.70826  25252268.963          36.000       -3957.443
 130464047.34727  24826484.017          46.000        1547.470
 196857146.997 7  37460667.236          44.000       -1259.904
 196542777.603 7  37400852.336          44.000       -1268.292
 07  8 29 13 13 23.0010000  0 10G20G28G17G11G 4G19G23G 1S37S29
 109082663.623 8  20757742.700          49.000       -1486.313
 110752367.687 8  21075480.075          49.000       -2204.083
 113575622.27428  21612724.678          50.000         784.583
 116487061.03428  22166751.937          51.000       -3388.545
 124457106.093 7  23683399.352          47.000        1172.496
 132705521.65426  25253021.103          38.000       -3954.246
 130462500.92127  24826190.470          45.000        1548.336
 133571120.42935  25417739.196          35.000       -1320.454
 196858405.350 7  37460906.723          44.000       -1258.488
 196544045.987 7  37401093.515          43.000       -1269.151
 07  8 29 13 13 24.0010000  0 10G20G28G17G11G 4G19G23G 1S37S29
 109084150.796 8  20758025.707          49.000       -1487.950
 110754571.374 8  21075899.736          49.000       -2201.992
 113574837.27228  21612575.340          50.000         787.006
 116490450.31028  22167396.879          51.000       -3390.610
 124455932.147 7  23683176.148          47.000        1177.022
 132709479.32236  25253774.463          40.000       -3957.985
 130460954.74937  24825897.427          42.000        1544.926
 133572445.35737  25417986.969          43.000       -1327.112
 196859663.290 7  37461146.106          43.000       -1257.375
 196545313.638 7  37401334.852          43.000       -1268.128
 07  8 29 13 13 25.0010000  0 10G20G28G17G11G 4G19G23G 1S37S29
 109085640.498 8  20758309.202          49.000       -1490.579
 110756773.012 8  21076318.454          49.000       -2200.436
 113574049.38428  21612425.618          50.000         789.925
 116493842.819 8  22168042.274          51.000       -3394.099
 124454752.252 7  23682951.531          47.000        1182.363
                  25254528.418          39.000       -3955.211
 130459411.90427  24825604.524          46.000        1540.227
 133573774.60936  25418242.019          39.000       -1333.038
 196860922.332 7  37461385.714          44.000       -1258.617
 196546581.885 7  37401576.136          43.000       -1269.791
 07  8 29 13 13 26.0010000  0 10G20G28G17G11G 4G19G23G 1S37S29
 109087132.193 8  20758593.256          49.000       -1492.110
 110758972.352 8  21076736.912          50.000       -2196.425
 113573257.92628  21612275.163          51.000         793.036
 116497237.955 8  22168688.350          51.000       -3396.571
 124453566.430 7  23682726.112          47.000        1190.029
 132717410.36036  25255283.518          38.000       -3969.727
 130457873.26836  24825311.881          39.000        1532.652
                  25418494.819          37.000       -1335.474
 196862182.18337  37461625.567          44.000       -1260.155
 196547850.329 7  37401817.490          43.000       -1268.252
 07  8 29 13 13 27.0010000  0 10G20G28G17G11G 4G19G23G 1S37S29
 109088626.103 8  20758877.519          49.000       -1494.231
 110761169.247 8  21077154.880          50.000       -2196.184
 113572462.70628  21612123.575          51.000         797.442
 116500635.912 8  22169335.124          51.000       -3399.509
 124452374.047 7  23682499.296          46.000        1195.421
 132721383.90836  25256040.000          38.000       -3975.685
 130456338.68837  24825018.577          47.000        1532.113
 133576425.27235  25418748.667          33.000       -1336.915
 196863442.762 7  37461865.385          44.000       -1259.606
 196549119.116 7  37402058.843          43.000       -1272.118
 07  8 29 13 13 28.0010000  0 10G20G28G17G11G 4G19G23G 1S37S29
 109090122.399 8  20759162.166          49.000       -1497.042
 110763363.504 8  21077572.482          49.000       -2192.274
 113571663.28428  21611971.620          51.000         801.910
 116504036.998 8  22169982.368          51.000       -3402.834
 124451174.680 7  23682271.050          47.000        1203.930
 132725362.80036  25256797.616          40.000       -3982.735
 130454808.91437  24824726.791          46.000        1528.573
                  25419004.467          35.000       -1343.804
 196864704.778 7  37462105.499          44.000       -1262.319
 196550388.601 7  37402300.302          44.000       -1270.423
 07  8 29 13 13 29.0010000  0 10G20G28G17G11G 4G19G23G 1S37S29
 109091621.299 8  20759447.563          49.000       -1500.255
 110765554.383 8  21077989.404          49.000       -2188.340
 113570859.20128  21611818.723          50.000         806.623
 116507441.840 8  22170630.136          51.000       -3406.600
 124449967.072 7  23682041.007          47.000        1211.458
                  25257557.098          37.000       -3992.161
 130453284.32427  24824437.900          47.000        1522.267
 133579113.09537  25419260.092          43.000       -1352.013
 196865967.681 7  37462345.858          44.000       -1263.941
 196551658.181 7  37402541.935          43.000       -1269.859
 07  8 29 13 13 30.0010000  0 10G20G28G17G11G 4G19G23G 1S37S29
 109093122.607 8  20759733.467          49.000       -1502.799
 110767741.528 8  21078405.768          50.000       -2185.797
 113570050.26028  21611664.936          51.000         811.687
 116510850.368 8  22171278.550          51.000       -3411.285
 124448750.926 7  23681809.743          47.000        1221.331
                  25258322.024          36.000       -4003.396
 130451764.79127  24824149.516          46.000        1517.663
 133580463.02637  25419516.837          44.000       -1352.353
 196867231.383 7  37462586.252          44.000       -1265.072
 196552927.645 7  37402783.551          44.000       -1269.397
 07  8 29 13 13 31.0010000  0 10G20G28G17G11G 4G19G23G 1S37S29
 109094626.911 8  20760019.475          49.000       -1504.875
 110769924.784 8  21078821.259          50.000       -2180.720
 113569237.059 8  21611510.172          51.000         816.065
 116514263.484 8  22171928.080          51.000       -3415.320
 124447525.543 7  23681576.472          47.000        1230.879
 132737372.73935  25259082.279          33.000       -4000.870
                  24823861.833          41.000        1520.942
 133581818.94527  25419774.819          43.000       -1357.099
 196868496.082 7  37462826.733          44.000       -1266.212
 196554197.031 7  37403025.167          43.000       -1268.049
 07  8 29 13 13 32.0010000  0 10G20G28G17G11G 4G19G23G 1S37S29
 109096134.399 8  20760306.355          50.000       -1508.972
 110772103.281 8  21079235.721          50.000       -2176.978
 113568418.709 8  21611354.378          51.000         821.068
 116517682.141 8  22172578.797          50.000       -3420.266
 124446290.002 7  23681341.264          47.000        1240.089
                  25259843.978          34.000       -4007.503
 130448760.07637  24823573.759          46.000        1504.978
                  25420036.115          38.000       -1366.489
 196869760.930 7  37463067.320          42.000       -1263.632
 196555466.005 7  37403266.470          43.000       -1266.367
 07  8 29 13 13 33.0010000  0 10G20G28G17G11G 4G19G23G 1S37S29
 109097644.851 8  20760594.038          50.000       -1511.475
 110774277.024 8  21079649.398          50.000       -2170.383
 113567596.261 8  21611198.375          51.000         824.104
 116521106.175 8  22173230.141          51.000       -3426.959
 124445044.672 7  23681104.189          46.000        1250.328
                  25260608.607          33.000       -4020.692
 130447255.71927  24823287.417          45.000        1501.204
 133584548.51137  25420294.428          42.000       -1373.440
 196871025.056 7  37463307.959          44.000       -1262.618
 196556733.563 7  37403507.545          42.000       -1266.153
 07  8 29 13 13 34.0010000  0 10G20G28G17G11G 4G19G23G 1S37S29
 109099157.903 8  20760881.983          50.000       -1513.785
 110776446.531 8  21080062.637          50.000       -2168.414
 113566770.569 8  21611040.556          51.000         826.542
 116524535.122 8  22173883.232          50.000       -3430.012
 124443790.722 7  23680865.665          47.000        1256.327
 132749420.97935  25261374.967          32.000       -4022.864
 130445755.05728  24823004.967          50.000        1500.367
 133585925.75827  25420556.616          45.000       -1379.082
 196872288.527 7  37463548.300          45.000       -1263.382
 196557999.942 7  37403748.620          44.000       -1265.478
 07  8 29 13 13 35.0010000  0 10G20G28G17G11G 4G19G23G 1S37S29
 109100671.324 8  20761169.895          50.000       -1511.811
 110778615.206 8  21080474.218          50.000       -2170.301
 113565943.835 8  21610883.172          51.000         826.576
 116527964.367 8  22174535.540          50.000       -3426.876
 124442534.871 8  23680627.066          48.000        1252.725
                  25262140.911          31.000       -4019.053
 130444254.28027  24822719.971          46.000        1502.475
 133587304.01827  25420819.435          47.000       -1374.836
 196873551.259 7  37463788.521          43.000       -1262.272
 196559265.318 6  37403989.677          41.000       -1264.175
 07  8 29 13 13 36.0010000  0 10G20G28G17G11G 4G19G23G 1S37S29
 109102182.073 8  20761457.546          50.000       -1509.731
 110780786.762 8  21080887.595          50.000       -2172.253
 113565118.181 8  21610726.975          52.000         826.538
 116531388.192 8  22175187.238          52.000       -3421.915
 124441284.556 7  23680389.010          47.000        1250.111
 132757479.65435  25262908.516          32.000       -4006.456
 130442749.05237  24822433.159          45.000        1501.545
 133588675.75736  25421080.823          41.000       -1371.305
 196874813.083 7  37464028.706          44.000       -1261.366
 196560530.111 6  37404230.368          41.000       -1264.970
 07  8 29 13 13 37.0010000  0 10G20G28G17G11G 4G19G23G 1S37S29
 109103691.841 8  20761745.003          51.000       -1509.976
 110782958.649 8  21081301.131          50.000       -2170.411
 113564291.845 8  21610569.348          51.000         826.638
 116534809.636 8  22175838.183          51.000       -3420.798
 124440034.677 7  23680150.657          46.000        1250.615
 132761500.11235  25263674.733          34.000       -4019.824
 130441242.35927  24822146.262          45.000        1507.172
                  25421341.807          41.000       -1374.551
 196876074.207 7  37464268.646          43.000       -1261.606
 196561794.485 7  37404471.041          44.000       -1265.528
 07  8 29 13 13 38.0010000  0 10G20G28G17G11G 4G19G23G 1S37S29
 109105201.891 8  20762032.338          50.000       -1510.179
 110785130.034 8  21081714.561          51.000       -2171.374
 113563464.230 8  21610411.877          50.000         827.835
 116538231.175 8  22176489.129          51.000       -3421.756
 124438783.194 7  23679912.078          46.000        1252.301
 132765514.98836  25264434.168          38.000       -4014.680
 130439736.14537  24821860.758          45.000        1504.693
 133591421.68736  25421602.341          41.000       -1370.120
 196877335.050 7  37464508.464          43.000       -1262.239
 196563058.534 7  37404711.662          43.000       -1266.039
 07  8 29 13 13 39.0010000  0 10G20G28G17G11G 4G19G23G 1S37S29
 109106711.875 8  20762319.779          51.000       -1508.584
 110787302.373 8  21082127.851          51.000       -2173.506
 113562636.020 8  21610254.110          52.000         828.931
 116541651.325 8  22177139.849          51.000       -3416.462
 124437532.411 7  23679674.108          46.000        1247.738
                  25265195.330          38.000       -4012.716
 130438229.66627  24821573.476          45.000        1507.497
                  25421862.805          41.000       -1363.991
 196878596.185 7  37464748.405          44.000       -1261.989
 196564322.858 7  37404952.161          42.000       -1266.232
 07  8 29 13 13 40.0010000  0 10G20G28G17G11G 4G19G23G 1S37S29
 109108220.476 8  20762606.748          49.000       -1508.665
 110789477.300 8  21082541.700          50.000       -2174.376
 113561806.477 8  21610096.221          52.000         831.063
 116545067.080 8  22177789.382          50.000       -3413.123
 124436284.708 7  23679436.994          46.000        1245.343
 132773496.70826  25265956.421          40.000       -4014.109
                  24821286.660          45.000        1496.071
 133594151.66826  25422121.975          39.000       -1364.525
 196879858.752 7  37464988.606          44.000       -1263.680
 196565588.460 7  37405192.990          43.000       -1270.004
 07  8 29 13 13 41.0010000  0 10G20G28G17G11G 4G19G23G 1S37S29
 109109728.867 8  20762893.699          49.000       -1508.202
 110791653.593 8  21082956.212          51.000       -2176.990
 113560972.985 8  21609938.037          51.000         836.708
 116548479.832 8  22178439.037          51.000       -3410.878
 124435036.86137  23679199.952          47.000        1251.535
 132777509.46036  25266719.065          40.000       -4015.412
 130435239.06437  24821000.845          43.000        1501.313
 133595511.02936  25422380.275          40.000       -1360.475
 196881124.509 7  37465229.487          44.000       -1268.303
 196566857.147 7  37405434.344          42.000       -1268.871
 07  8 29 13 13 42.0010000  0 10G20G28G17G11G 4G19G23G 1S37S29
 109111238.752 8  20763181.016          49.000       -1510.811
 110793830.024 8  21083370.812          50.000       -2177.099
 113560133.224 8  21609778.074          51.000         843.778
 116551892.084 8  22179088.621          51.000       -3412.633
 124433785.11927  23678962.874          46.000        1253.451
 132781528.82736  25267484.131          39.000       -4023.974
 130433743.86737  24820715.862          45.000        1492.801
 133596869.42436  25422638.575          39.000       -1354.557
 196882395.212 7  37465471.434          45.000       -1270.127
 196568130.429 7  37405676.760          44.000       -1275.657
 07  8 29 13 13 43.0010000  0 10G20G28G17G11G 4G19G23G 1S37S29
 109112751.820 8  20763468.925          50.000       -1515.145
 110796004.671 8  21083784.435          49.000       -2173.378
 113559286.440 8  21609616.784          51.000         849.246
 116555307.056 8  22179738.936          50.000       -3418.149
 124432525.39628  23678723.845          48.000        1264.223
 132785558.45737  25268250.944          42.000       -4030.822
 130432258.19937  24820432.414          44.000        1482.903
 133598229.98136  25422897.569          41.000       -1360.839
 196883670.37136  37465714.199          39.000       -1276.723
 196569408.116 6  37405920.067          39.000       -1278.186
 07  8 29 13 13 44.0010000  0 10G20G28G17G11G 4G19G23G 1S37S29
 109114266.816 8  20763757.203          50.000       -1514.732
 110798177.207 8  21084197.953          50.000       -2172.827
 113558436.730 8  21609454.933          51.000         850.442
 116558724.612 8  22180389.463          50.000       -3418.537
 124431260.52337  23678483.835          42.000        1263.996
                  25269019.448          36.000       -4039.048
 130430775.62727  24820150.069          47.000        1481.855
                  25423162.180          31.000       -1371.960
 196884946.35727  37465956.984          45.000       -1276.717
 196570685.611 7  37406163.010          44.000       -1277.245
 07  8 29 13 13 45.0010000  0 10G20G28G17G11G 4G19G23G 1S37S29
 109115783.112 8  20764045.759          50.000       -1516.388
 110800349.529 8  21084611.122          50.000       -2172.587
 113557584.107 8  21609292.648          51.000         855.390
 116562142.746 8  22181039.815          51.000       -3418.369
                  23678239.711          45.000        1277.183
 132793635.03936  25269788.636          37.000       -4038.591
 130429296.70227  24819867.758          47.000        1476.374
                  25423420.394          36.000       -1363.777
 196886224.249 7  37466200.152          45.000       -1279.353
 196571964.974 7  37406406.753          44.000       -1281.276
 07  8 29 13 13 46.0010000  0 10G20G28G17G11G 4G19G23G 1S37S29
 109117300.383 8  20764334.438          49.000       -1517.944
 110802522.688 8  21085024.552          49.000       -2174.674
 113556727.672 8  21609129.664          51.000         857.706
 116565559.927 8  22181690.203          50.000       -3417.238
 124428719.20437  23677998.111          47.000        1270.396
 132797674.55337  25270555.310          43.000       -4043.126
 130427822.55327  24819586.703          47.000        1472.229
                  25423682.025          38.000       -1364.022
 196887505.263 7  37466443.965          45.000       -1280.764
 196573247.426 7  37406650.863          45.000       -1283.238
 07  8 29 13 13 47.0010000  0 10G20G28G17G11G 4G19G23G 1S37S29
 109118818.530 8  20764623.117          50.000       -1518.151
 110804696.921 8  21085438.559          49.000       -2174.305
 113555867.585 8  21608965.791          51.000         861.883
 116568975.985 8  22182340.014          51.000       -3415.838
 124427448.45328  23677756.635          48.000        1271.740
 132801718.72627  25271322.979          43.000       -4045.732
 130426352.98627  24819307.113          46.000        1466.712
                  25423942.925          35.000       -1359.998
 196888789.424 7  37466688.301          45.000       -1286.501
 196574533.151 7  37406895.671          45.000       -1286.135
 07  8 29 13 13 48.0010000  0 10G20G28G17G11G 4G19G23G 1S37S29
 109120337.327 8  20764912.302          49.000       -1518.121
 110806872.118 8  21085852.512          49.000       -2175.521
 113555004.739 8  21608801.672          51.000         864.510
 116572390.957 8  22182990.262          51.000       -3414.056
 124426176.88728  23677515.823          48.000        1273.402
 132805765.29427  25272092.777          43.000       -4047.603
 130424886.61527  24819028.136          45.000        1465.316
 133605079.02135  25424201.293          35.000       -1359.003
 196890076.228 7  37466933.198          44.000       -1285.762
 196575821.222 7  37407140.741          44.000       -1289.217
 07  8 29 13 13 49.0010000  0 10G20G28G17G11G 4G19G23G 1S37S29
 109121856.780 8  20765201.102          49.000       -1519.885
 110809047.817 8  21086266.502          50.000       -2174.784
 113554140.801 8  21608637.397          51.000         865.853
 116575805.759 8  22183640.265          51.000       -3415.452
 124424904.70327  23677274.870          47.000        1272.820
 132809812.89227  25272863.273          43.000       -4049.438
 130423421.45527  24818749.403          46.000        1462.080
 133606438.86435  25424459.470          34.000       -1356.099
 196891363.660 7  37467178.163          45.000       -1288.861
 196577110.076 7  37407385.986          45.000       -1289.436
 07  8 29 13 13 50.0010000  0 10G20G28G17G11G 4G19G23G 1S37S29
 109123376.948 8  20765490.252          49.000       -1520.149
 110811223.791 8  21086680.490          50.000       -2176.114
 113553273.140 8  21608472.389          51.000         869.576
 116579219.718 8  22184290.199          51.000       -3413.698
 124423630.42227  23677032.608          43.000        1270.765
 132813863.79027  25273634.590          45.000       -4051.542
 130421960.33827  24818471.332          46.000        1458.721
 133607799.28936  25424719.304          37.000       -1355.507
 196892653.544 7  37467423.826          44.000       -1292.094
 196578400.774 7  37407631.492          44.000       -1292.517
 07  8 29 13 13 51.0010000  0 10G20G28G17G11G 4G19G23G 1S37S29
 109124897.828 8  20765779.629          50.000       -1520.664
 110813400.349 8  21087094.601          50.000       -2176.247
 113552402.086 8  21608306.316          51.000         872.853
 116582632.845 8  22184939.453          51.000       -3411.855
 124422354.55338  23676790.052          48.000        1276.954
 132817917.87736  25274405.851          41.000       -4059.246
 130420503.17127  24818194.204          44.000        1455.992
                  25424975.718          37.000       -1355.550
 196893946.198 7  37467669.751          45.000       -1293.007
 196579693.996 7  37407877.608          44.000       -1296.625
 07  8 29 13 13 52.0010000  0 10G20G28G17G11G 4G19G23G 1S37S29
 109126420.205 8  20766069.529          49.000       -1522.635
 110815575.992 8  21087508.556          50.000       -2174.306
 113551527.390 8  21608139.877          50.000         875.836
 116586046.975 8  22185589.000          50.000       -3416.075
 124421074.61428  23676546.799          48.000        1284.206
 132821976.36026  25275178.529          41.000       -4061.313
 130419050.20227  24817917.599          46.000        1450.774
                  25425232.110          37.000       -1365.245
 196895240.824 7  37467916.078          45.000       -1295.501
 196580989.322 7  37408124.180          43.000       -1295.467
 07  8 29 13 13 53.0010000  0 10G20G28G17G11G 4G19G23G 1S37S29
 109127944.670 8  20766359.463          48.000       -1524.858
 110817749.272 8  21087922.109          50.000       -2172.383
                  21607972.667          50.000         871.089
 116589464.073 8  22186239.352          50.000       -3418.044
 124419788.63228  23676301.641          48.000        1286.499
 132826040.54926  25275952.183          40.000       -4065.008
 130417601.63327  24817641.500          45.000        1447.798
 133611852.65635  25425490.270          35.000       -1361.128
 196896536.453 7  37468162.649          44.000       -1295.319
 196582284.989 7  37408370.717          43.000       -1296.110
 07  8 29 13 13 54.0010000  0 10G20G28G17G11G 4G19G23G 1S37S29
 109129470.127 8  20766650.061          49.000       -1525.998
 110819921.38638  21088336.046          50.000       -2172.842
 113549771.86738  21607803.142          50.000         881.105
 116592881.745 8  22186889.286          50.000       -3416.934
                  23676056.361          44.000        1284.944
 132830107.42227  25276725.855          42.000       -4066.358
 130416155.72627  24817365.978          47.000        1445.585
 133613215.91236  25425749.563          38.000       -1362.143
 196897832.17037  37468408.609          44.000       -1297.760
 196583580.56937  37408617.358          43.000       -1297.305
 07  8 29 13 13 55.0010000  0 10G20G28G17G11G 4G19G23G 1S37S29
 109130994.091 8  20766939.945          49.000       -1522.826
 110822096.20928  21088749.859          50.000       -2176.460
 113548890.77128  21607635.201          50.000         880.953
 116596295.478 8  22187538.872          50.000       -3410.560
 124417231.09727  23675811.987          47.000        1283.221
 132834171.36326  25277498.919          40.000       -4061.823
 130414708.660 8  24817090.755          48.000        1449.879
 133614574.56326  25426008.160          40.000       -1355.304
 196899129.42927  37468654.849          44.000       -1297.170
 196584877.14627  37408864.017          43.000       -1297.467
 07  8 29 13 13 56.0010000  0 10G20G28G17G11G 4G19G23G 1S37S29
 109132516.523 8  20767229.812          48.000       -1520.867
 110824275.36628  21089164.596          50.000       -2181.111
 113548010.70028  21607468.866          51.000         880.139
 116599704.044 8  22188187.412          50.000       -3404.589
 124415951.47727  23675568.484          47.000        1276.576
 132838230.47426  25278271.059          40.000       -4054.973
 130413258.830 7  24816815.182          47.000        1452.542
 133615926.44326  25426265.031          39.000       -1344.748
 196900427.967 7  37468901.770          44.000       -1297.477
 196586176.172 7  37409111.059          43.000       -1299.537
 07  8 29 13 13 57.0010000  0 10G20G28G17G11G 4G19G23G 1S37S29
 109134035.739 8  20767518.945          49.000       -1518.430
 110826459.36628  21089580.328          49.000       -2187.293
 113547131.21728  21607302.529          51.000         878.322
 116603104.981 8  22188834.678          49.000       -3398.304
 124414679.86727  23675326.691          47.000        1267.777
 132842283.52626  25279042.657          41.000       -4050.181
 130411805.805 7  24816538.859          47.000        1454.691
 133617269.00436  25426520.644          39.000       -1339.390
 196901727.280 7  37469149.073          44.000       -1300.244
 196587476.725 7  37409358.519          44.000       -1302.403
 07  8 29 13 13 58.0010000  0 10G20G28G17G11G 4G19G23G 1S37S29
 109135551.892 8  20767807.417          49.000       -1513.693
 110828649.03428  21089996.654          49.000       -2191.323
 113546253.71828  21607135.705          50.000         877.607
 116606498.256 8  22189480.602          50.000       -3388.022
 124413417.53827  23675086.467          47.000        1257.294
 132846329.04726  25279812.617          39.000       -4039.729
 130410348.401 7  24816261.839          46.000        1460.933
 133618601.92526  25426774.165          41.000       -1327.260
 196903027.090 7  37469396.430          43.000       -1299.541
 196588778.848 7  37409606.225          43.000       -1302.667
 07  8 29 13 13 59.0010000  0 10G20G28G17G11G 4G19G23G 1S37S29
 109137064.035 8  20768095.155          49.000       -1509.917
 110830843.61028  21090414.183          49.000       -2197.214
 113545378.87428  21606969.228          51.000         873.019
 116609883.411 8  22190124.518          50.000       -3380.392
 124412164.76727  23674848.093          47.000        1247.696
 132850365.33726  25280581.285          39.000       -4030.974
 130408884.503 7  24815983.633          47.000        1468.057
 133619925.42627  25427025.749          44.000       -1317.325
 196904325.638 7  37469643.596          44.000       -1296.616
 196590080.850 7  37409853.966          43.000       -1300.666
 07  8 29 13 14  0.0010000  0 10G20G28G17G11G 4G19G23G 1S37S29
 109138573.578 8  20768382.490          49.000       -1509.348
 110833042.34428  21090832.586          50.000       -2200.180
 113544506.76828  21606803.450          51.000         870.965
 116613262.755 8  22190767.402          51.000       -3377.331
 124410919.54227  23674610.682          47.000        1243.597
 132854394.78526  25281348.274          37.000       -4030.240
 130407415.262 7  24815704.309          46.000        1471.952
 133621242.02026  25427275.760          41.000       -1313.533
 196905623.377 7  37469890.604          44.000       -1298.634
 196591383.034 7  37410101.811          44.000       -1302.590
 07  8 29 13 14  1.0010000  0 10G20G28G17G11G 4G19G23G 1S37S29
 109140081.859 8  20768669.564          49.000       -1508.041
 110835243.656 8  21091251.391          50.000       -2200.817
 113543634.997 8  21606637.517          51.000         872.335
 116616638.832 8  22191409.763          51.000       -3374.614
 124409677.50627  23674374.440          47.000        1240.959
                  25282114.078          33.000       -4028.491
 130405944.076 7  24815424.686          46.000        1471.405
 133622555.08326  25427525.176          38.000       -1312.441
 196906920.911 7  37470137.612          44.000       -1297.055
 196592685.174 7  37410349.691          43.000       -1302.923
 07  8 29 13 14  2.0010000  0 10G20G28G17G11G 4G19G23G 1S37S29
 109141589.661 8  20768956.446          49.000       -1507.410
 110837445.304 8  21091670.318          50.000       -2201.642
 113542762.202 8  21606471.182          51.000         873.685
 116620013.081 8  22192051.949          51.000       -3373.409
 124408436.08227  23674138.059          47.000        1242.302
 132862422.55136  25282878.487          38.000       -4023.720
 130404472.923 7  24815144.820          45.000        1471.710
 133623866.16836  25427774.506          36.000       -1308.975
 196908218.661 7  37470384.585          44.000       -1296.192
 196593987.369 7  37410597.467          43.000       -1303.096
 07  8 29 13 14  3.0010000  0 10G20G28G17G11G 4G19G23G 1S37S29
 109143097.177 8  20769243.554          49.000       -1507.411
 110839646.600 8  21092089.088          51.000       -2201.271
 113541888.421 8  21606305.143          51.000         873.947
 116623386.619 8  22192694.048          51.000       -3372.921
 124407193.88727  23673901.748          47.000        1242.213
 132866448.06626  25283644.637          40.000       -4027.139
 130403001.462 7  24814864.587          45.000        1472.906
 133625177.11026  25428023.345          40.000       -1311.219
 196909515.755 7  37470631.436          44.000       -1296.735
 196595288.588 7  37410845.191          43.000       -1301.264
 07  8 29 13 14  4.0010000  0 10G20G28G17G11G 4G19G23G 1S37S29
 109144604.571 8  20769530.105          49.000       -1507.205
 110841848.315 8  21092508.137          51.000       -2201.886
 113541014.205 8  21606138.738          51.000         875.307
 116626759.254 8  22193335.605          51.000       -3371.285
 124405951.76327  23673665.281          47.000        1242.552
 132870472.54526  25284411.001          39.000       -4019.913
 130401529.372 7  24814584.319          45.000        1473.709
 133626487.41326  25428272.710          41.000       -1308.275
 196910812.441 7  37470878.217          44.000       -1295.493
 196596589.461 7  37411092.617          43.000       -1301.199
 07  8 29 13 14  5.0010000  0 10G20G28G17G11G 4G19G23G 1S37S29
 109146111.525 8  20769817.021          49.000       -1506.353
 110844050.448 8  21092927.257          50.000       -2202.551
 113540138.854 8  21605972.333          51.000         875.336
 116630130.352 8  22193977.250          51.000       -3370.096
 124404709.62327  23673429.004          47.000        1241.113
                  25285176.786          33.000       -4020.484
 130400057.123 7  24814304.208          46.000        1472.862
 133627796.28427  25428521.742          42.000       -1307.796
 196912109.017 7  37471124.998          44.000       -1295.343
 196597890.416 7  37411340.166          44.000       -1302.355
 07  8 29 13 14  6.0010000  0 10G20G28G17G11G 4G19G23G 1S37S29
 109147617.890 8  20770103.467          49.000       -1506.589
 110846253.821 8  21093346.236          50.000       -2203.710
 113539263.531 8  21605805.631          51.000         875.094
 116633499.433 8  22194618.180          51.000       -3368.706
 124403468.95927  23673192.728          46.000        1240.066
 132878524.86135  25285942.571          33.000       -4021.743
 130398583.524 7  24814023.992          43.000        1472.673
 133629102.88626  25428770.618          41.000       -1305.649
 196913405.340 7  37471371.692          45.000       -1295.754
 196599191.245 7  37411587.820          44.000       -1301.350
 07  8 29 13 14  7.0010000  0 10G20G28G17G11G 4G19G23G 1S37S29
 109149123.819 8  20770389.965          49.000       -1505.222
 110848458.720 8  21093765.896          50.000       -2205.173
 113538388.522 8  21605639.383          52.000         875.272
 116636866.582 8  22195259.198          51.000       -3365.060
 124402230.651 7  23672956.870          47.000        1238.507
 132882545.69435  25286707.991          33.000       -4019.851
 130397108.554 7  24813743.429          46.000        1476.038
 133630407.36127  25429018.988          42.000       -1303.796
 196914701.553 7  37471618.316          45.000       -1296.046
 196600491.964 7  37411835.265          44.000       -1299.064
 07  8 29 13 14  8.0010000  0 10G20G28G17G11G 4G19G23G 1S37S29
 109150628.818 8  20770676.411          49.000       -1504.003
 110850664.869 8  21094185.712          50.000       -2206.407
 113537513.645 8  21605472.977          52.000         874.846
 116640231.328 8  22195899.464          51.000       -3363.171
 124400993.634 7  23672721.536          47.000        1236.524
 132886563.62435  25287472.922          35.000       -4015.903
 130395631.618 7  24813462.691          45.000        1478.958
 133631709.20927  25429266.241          43.000       -1300.495
 196915997.281 7  37471864.958          45.000       -1293.631
 196601792.638 7  37412082.708          43.000       -1300.190
 07  8 29 13 14  9.0010000  0 10G20G28G17G11G 4G19G23G 1S37S29
 109152132.968 8  20770962.716          49.000       -1503.980
 110852871.905 8  21094605.582          50.000       -2207.161
 113536638.982 8  21605306.537          52.000         874.999
 116643594.015 8  22196539.242          51.000       -3361.638
 124399758.005 7  23672486.341          47.000        1235.700
 132890579.08035  25288237.539          34.000       -4016.090
 130394152.588 7  24813180.871          44.000        1480.352
 133633009.01327  25429513.215          43.000       -1298.948
 196917292.006 7  37472111.442          44.000       -1294.764
 196603092.387 7  37412330.187          43.000       -1300.565
 07  8 29 13 14 10.0010000  0 10G20G28G17G11G 4G19G23G 1S37S29
 109153636.534 8  20771248.778          48.000       -1502.658
 110855079.436 8  21095025.783          50.000       -2207.244
 113535764.270 8  21605140.324          51.000         875.746
 116646955.280 8  22197178.758          50.000       -3360.365
 124398522.987 7  23672251.182          47.000        1235.317
 132894590.57036  25289000.830          38.000       -4011.788
 130392671.982 7  24812899.085          46.000        1481.950
 133634307.60527  25429760.310          42.000       -1297.554
 196918585.679 7  37472357.682          44.000       -1293.267
 196604391.795 7  37412577.510          43.000       -1298.966
 07  8 29 13 14 11.0010000  0 10G20G28G17G11G 4G19G23G 1S37S29
 109155139.659 8  20771534.804          48.000       -1503.197
 110857286.610 8  21095445.775          50.000       -2206.948
 113534888.545 8  21604973.623          51.000         876.538
 116650315.532 8  22197818.222          50.000       -3359.913
 124397287.132 7  23672015.779          46.000        1236.490
                  25289763.458          29.000       -4009.837
 130391190.628 7  24812617.525          45.000        1479.997
 133635605.63026  25430007.004          40.000       -1298.066
 196919878.571 7  37472603.678          44.000       -1293.308
 196605690.249 7  37412824.570          43.000       -1298.003
 07  8 29 13 14 12.0010000  0 10G20G28G17G11G 4G19G23G 1S37S29
 109156643.165 8  20771820.674          48.000       -1503.306
 110859493.222 8  21095865.785          50.000       -2205.248
 113534011.575 8  21604806.520          51.000         877.947
 116653675.932 8  22198457.807          50.000       -3360.147
 124396049.442 7  23671780.237          46.000        1239.926
                  25290526.869          32.000       -4013.478
 130389709.615 7  24812336.054          44.000        1482.813
 133636904.19026  25430254.640          41.000       -1298.836
 196921171.076 7  37472849.640          44.000       -1290.562
 196606988.225 7  37413071.543          43.000       -1297.413
 07  8 29 13 14 13.0010000  0 10G20G28G17G11G 4G19G23G 1S37S29
 109158146.720 8  20772106.980          48.000       -1503.593
 110861698.175 8  21096285.184          50.000       -2204.403
 113533133.167 8  21604639.417          51.000         878.732
 116657036.790 8  22199097.427          50.000       -3361.637
 124394808.927 7  23671544.171          46.000        1241.522
 132906631.07635  25291290.995          35.000       -4015.782
 130388228.392 7  24812053.866          45.000        1481.589
 133638204.242 6  25430501.838          41.000       -1301.038
 196922462.199 7  37473095.479          44.000       -1290.911
 196608284.696 7  37413318.272          43.000       -1296.092
 07  8 29 13 14 14.0010000  0 10G20G28G17G11G 4G19G23G 1S37S29
 109159651.361 8  20772393.477          48.000       -1505.404
 110863901.063 8  21096704.496          50.000       -2201.929
 113532253.828 8  21604471.756          51.000         879.422
 116660399.82938  22199737.029          50.000       -3363.895
 124393564.512 7  23671307.932          46.000        1246.089
 132910646.88035  25292055.316          35.000       -4013.430
 130386747.324 7  24811772.220          44.000        1482.215
 133639507.698 6  25430749.961          40.000       -1305.395
 196923751.757 7  37473340.865          42.000       -1286.666
 196609579.036 7  37413564.566          43.000       -1294.088
 07  8 29 13 14 15.0010000  0 10G20G28G17G11G 4G19G23G 1S37S29
 109161156.491 8  20772679.922          49.000       -1505.206
 110866101.732 8  21097123.337          50.000       -2199.291
 113531373.932 8  21604304.618          51.000         880.364
 116663764.50928  22200377.451          50.000       -3365.375
 124392316.615 7  23671070.314          46.000        1250.126
 132914663.04726  25292819.478          40.000       -4014.921
 130385265.248 7  24811489.788          45.000        1482.558
 133640814.222 6  25430998.697          41.000       -1306.062
 196925039.112 7  37473585.796          44.000       -1287.328
 196610871.167 7  37413810.457          43.000       -1292.864
 07  8 29 13 14 16.0010000  0 10G20G28G17G11G 4G19G23G 1S37S29
 109162662.498 8  20772966.542          49.000       -1505.835
 110868299.387 8  21097541.568          50.000       -2195.273
 113530493.718 8  21604136.904          51.000         880.707
 116667131.91628  22201018.431          50.000       -3369.023
 124391064.092 7  23670831.911          47.000        1255.284
 132918679.93626  25293584.685          40.000       -4019.238
 130383781.740 7  24811207.305          45.000        1485.351
 133642125.148 7  25431248.267          42.000       -1313.064
 196926323.576 7  37473830.328          44.000       -1282.014
 196612159.872 7  37414055.723          43.000       -1285.507
 07  8 29 13 14 17.0010000  0 10G20G28G17G11G 4G19G23G 1S37S29
 109164169.666 8  20773253.544          50.000       -1507.996
 110870493.202 8  21097959.066          50.000       -2192.503
 113529613.150 8  21603969.068          51.000         882.044
 116670503.03128  22201659.952          50.000       -3372.790
 124389805.878 7  23670592.391          47.000        1259.293
 132922698.33427  25294349.930          43.000       -4017.671
 130382297.092 7  24810924.699          46.000        1485.988
 133643442.089 7  25431499.286          43.000       -1318.295
 196927604.717 7  37474074.143          44.000       -1280.207
 196613444.720 7  37414300.096          43.000       -1285.261
 07  8 29 13 14 18.0010000  0 10G20G28G17G11G 4G19G23G 1S37S29
 109165676.383 8  20773540.305          49.000       -1505.920
 110872686.803 8  21098376.509          50.000       -2194.889
 113528732.759 8  21603801.772          51.000         880.223
 116673873.46228  22202301.005          50.000       -3368.311
 124388547.598 7  23670353.147          46.000        1256.405
 132926715.09627  25295114.426          42.000       -4014.478
 130380810.526 7  24810641.971          45.000        1487.451
 133644759.030 6  25431749.855          41.000       -1314.725
 196928884.256 7  37474317.592          44.000       -1278.792
 196614727.906 7  37414544.434          43.000       -1282.987
 07  8 29 13 14 19.0010000  0 10G20G28G17G11G 4G19G23G 1S37S29
 109167181.255 8  20773826.646          49.000       -1504.399
 110874882.839 8  21098794.301          50.000       -2197.253
 113527852.754 8  21603634.512          51.000         880.201
 116677239.51428  22202941.726          51.000       -3364.316
 124387293.262 7  23670114.637          46.000        1253.464
 132930727.67727  25295877.699          42.000       -4011.458
 130379321.162 7  24810358.650          45.000        1489.141
 133646070.842 6  25431999.326          40.000       -1309.288
 196930163.414 7  37474560.830          44.000       -1278.968
 196616011.498 7  37414788.842          43.000       -1282.928
 07  8 29 13 14 20.0010000  0 10G20G28G17G11G 4G19G23G 1S37S29
 109168685.648 8  20774112.725          49.000       -1504.831
 110877080.169 8  21099212.252          50.000       -2195.953
 113526972.027 8  21603466.798          51.000         881.394
 116680603.36328  22203581.922          51.000       -3364.151
 124386039.929 7  23669876.285          47.000        1255.274
 132934738.86426  25296641.181          41.000       -4011.401
 130377831.220 7  24810075.277          45.000        1491.488
 133647379.900 6  25432248.584          41.000       -1310.138
 196931442.738 7  37474804.296          44.000       -1278.011
 196617295.752 7  37415033.215          43.000       -1283.858
 07  8 29 13 14 21.0010000  0 10G20G28G17G11G 4G19G23G 1S37S29
 109170190.569 8  20774398.768          49.000       -1505.724
 110879276.645 8  21099630.585          50.000       -2196.520
 113526089.840 8  21603298.840          51.000         881.948
 116683967.70728  22204222.048          50.000       -3364.872
 124384784.310 7  23669637.426          47.000        1255.596
 132938751.34126  25297404.941          41.000       -4014.150
 130376342.033 7  24809791.762          45.000        1488.096
 133648690.220 6  25432497.651          41.000       -1311.814
 196932721.594 7  37475047.691          44.000       -1278.848
 196618579.367 7  37415277.518          43.000       -1282.654
 07  8 29 13 14 22.0010000  0 10G20G28G17G11G 4G19G23G 1S37S29
 109171696.267 8  20774685.422          49.000       -1506.973
 110881472.554 8  21100048.641          50.000       -2195.565
 113525205.571 8  21603130.569          51.000         885.641
 116687332.59728  22204862.541          49.000       -3365.615
 124383526.267 7  23669397.837          47.000        1260.306
 132942765.99327  25298168.406          42.000       -4012.956
 130374854.823 7  24809508.789          45.000        1486.200
 133649998.17536  25432745.272          37.000       -1305.405
 196934001.221 7  37475291.261          44.000       -1279.253
 196619862.944 7  37415521.786          43.000       -1283.316
 07  8 29 13 14 23.0010000  0 10G20G28G17G11G 4G19G23G 1S37S29
 109173202.510 8  20774972.339          49.000       -1505.463
 110883667.978 8  21100466.364          50.000       -2194.659
 113524319.451 8  21602961.948          51.000         887.452
 116690697.34938  22205503.069          48.000       -3364.258
                  23669157.863          46.000        1263.572
 132946780.70237  25298932.374          42.000       -4020.433
                  24809225.100          38.000        1485.347
 133651310.15927  25432994.756          43.000       -1309.844
 196935281.255 7  37475534.882          43.000       -1284.588
 196621146.872 7  37415766.124          43.000       -1282.576
 07  8 29 13 14 24.0010000  0 10G20G28G17G11G 4G19G23G 1S37S29
 109174708.880 8  20775259.011          49.000       -1506.649
 110885863.143 8  21100884.035          50.000       -2194.835
 113523432.488 8  21602793.065          51.000         886.909
 116694061.98628  22206143.248          50.000       -3363.861
 124381000.27737  23668917.468          44.000        1262.620
 132950796.95827  25299695.422          43.000       -4015.498
 130371862.72637  24808940.662          45.000        1486.545
 133652621.67427  25433244.398          43.000       -1312.339
 196936561.042 7  37475778.262          44.000       -1278.118
 196622430.135 7  37416010.183          43.000       -1281.607
 07  8 29 13 14 25.0010000  0 10G20G28G17G11G 4G19G23G 1S37S29
 109176215.129 8  20775545.684          49.000       -1505.850
 110888058.027 8  21101301.357          50.000       -2194.098
 113522544.777 8  21602624.392          51.000         888.606
 116697426.02728  22206783.200          50.000       -3363.219
 124379738.18537  23668677.737          47.000        1262.491
 132954812.92126  25300459.479          41.000       -4016.087
 130370376.01727  24808658.230          45.000        1486.545
 133653933.19427  25433495.158          42.000       -1309.441
 196937840.233 7  37476021.553          43.000       -1277.993
 196623712.433 7  37416254.155          43.000       -1282.555
 07  8 29 13 14 26.0010000  0 10G20G28G17G11G 4G19G23G 1S37S29
 109177720.954 8  20775832.112          49.000       -1505.203
 110890252.884 8  21101719.081          49.000       -2194.106
 113521656.068 8  21602455.334          51.000         889.283
 116700788.92328  22207423.274          51.000       -3362.448
 124378475.59837  23668437.378          47.000        1262.719
 132958827.99827  25301224.288          42.000       -4014.498
 130368888.78027  24808376.009          46.000        1488.736
 133655243.81727  25433744.207          42.000       -1310.937
 196939118.913 7  37476264.897          44.000       -1277.764
 196624994.004 7  37416497.952          43.000       -1281.648
 07  8 29 13 14 27.0010000  0 10G20G28G17G11G 4G19G23G 1S37S29
 109179227.059 8  20776118.749          49.000       -1506.716
 110892447.218 8  21102136.682          50.000       -2193.916
 113520766.858 8  21602286.015          51.000         889.308
 116704152.02328  22208063.086          50.000       -3363.654
 124377211.59427  23668196.932          47.000        1264.839
 132962843.23427  25301988.590          43.000       -4015.140
 130367400.93127  24808093.542          46.000        1488.267
 133656555.12327  25433994.461          43.000       -1311.364
 196940396.540 7  37476507.996          44.000       -1276.266
 196626274.909 7  37416741.592          43.000       -1280.559
 07  8 29 13 14 28.0010000  0 10G20G28G17G11G 4G19G23G 1S37S29
 109180734.509 8  20776405.665          50.000       -1507.614
 110894640.818 8  21102553.882          50.000       -2192.252
 113519876.414 8  21602116.243          51.000         892.131
 116707516.54428  22208703.386          49.000       -3365.084
 124375944.82627  23667955.911          47.000        1268.131
 132966860.45927  25302753.431          42.000       -4018.492
 130365914.50327  24807811.039          46.000        1484.780
 133657868.47226  25434244.731          41.000       -1313.088
 196941674.062 7  37476751.235          43.000       -1276.779
 196627555.676 7  37416985.406          44.000       -1282.230
 07  8 29 13 14 29.0010000  0 10G20G28G17G11G 4G19G23G 1S37S29
 109182243.016 8  20776692.598          50.000       -1508.933
 110896832.838 8  21102971.275          49.000       -2190.532
 113518983.150 8  21601946.244          51.000         895.768
 116710882.40828  22209343.914          49.000       -3366.044
 124374673.92628  23667713.808          48.000        1273.057
 132970881.00526  25303518.639          41.000       -4022.568
 130364430.70927  24807528.536          46.000        1482.296
 133659183.73326  25434495.333          41.000       -1315.278
 196942951.723 7  37476994.334          43.000       -1276.945
 196628836.482 7  37417229.117          44.000       -1280.198
 07  8 29 13 14 30.0010000  0 10G20G28G17G11G 4G19G23G 1S37S29
 109183753.143 8  20776980.159          50.000       -1511.287
 110899022.385 8  21103387.865          50.000       -2187.396
 113518086.580 8  21601775.809          51.000         897.884
 116714250.69728  22209984.649          49.000       -3369.703
 124373397.24828  23667471.096          48.000        1280.293
 132974906.15126  25304284.737          41.000       -4028.005
 130362950.21927  24807246.452          46.000        1478.957
 133660502.54127  25434746.527          42.000       -1319.544
 196944229.824 7  37477237.484          43.000       -1280.046
 196630117.480 7  37417472.843          44.000       -1282.175
 07  8 29 13 14 31.0010000  0 10G20G28G17G11G 4G19G23G 1S37S29
 109185265.214 8  20777267.704          49.000       -1512.385
 110901209.172 8  21103803.827          50.000       -2185.191
 113517186.970 8  21601604.868          51.000         901.271
 116717622.175 8  22210626.310          49.000       -3372.398
 124372114.33528  23667227.353          48.000        1285.909
 132978936.188 6  25305051.254          41.000       -4030.208
 130361473.161 7  24806965.433          46.000        1476.803
 133661826.195 7  25434998.715          44.000       -1325.596
 196945508.161 7  37477480.619          44.000       -1276.922
 196631397.790 7  37417716.553          44.000       -1281.031
 07  8 29 13 14 32.0010000  0 10G20G28G17G11G 4G19G23G 1S37S29
 109186779.395 8  20777555.631          49.000       -1515.236
 110903395.066 8  21104219.944          50.000       -2186.165
 113516286.066 8  21601433.506          51.000         900.743
 116720996.104 8  22211268.757          50.000       -3373.496
 124370827.65928  23666982.457          48.000        1286.829
 132982969.096 6  25305818.400          40.000       -4033.406
 130359998.081 7  24806684.519          46.000        1475.428
 133663152.109 7  25435251.587          43.000       -1325.387
 196946786.747 7  37477724.118          43.000       -1279.123
 196632678.777 7  37417960.193          45.000       -1280.853
 07  8 29 13 14 33.0010000  0 10G20G28G17G11G 4G19G23G 1S37S29
 109188293.141 8  20777843.456          49.000       -1511.695
 110905583.010 8  21104636.497          49.000       -2189.187
 113515386.070 8  21601261.987          51.000         898.620
 116724367.841 8  22211909.967          50.000       -3368.534
 124369543.57837  23666738.170          46.000        1281.403
 132986999.155 7  25306585.392          43.000       -4025.664
 130358521.078 7  24806403.625          46.000        1481.075
 133664475.473 6  25435503.727          41.000       -1318.385
 196948065.316 7  37477967.392          43.000       -1279.333
 196633959.478 7  37418203.903          44.000       -1279.810
 07  8 29 13 14 34.0010000  0 10G20G28G17G11G 4G19G23G 1S37S29
 109189802.700 8  20778130.950          49.000       -1507.704
 110907775.168 8  21105053.748          50.000       -2194.219
 113514489.264 8  21601091.410          51.000         894.888
 116727731.932 8  22212550.149          50.000       -3360.241
 124368268.66228  23666495.730          48.000        1269.974
 132991019.531 7  25307350.623          44.000       -4013.685
 130357036.490 7  24806121.179          46.000        1489.606
 133665789.81537  25435753.862          44.000       -1311.282
 196949341.699 7  37478210.231          45.000       -1273.335
 196635238.885 7  37418447.370          43.000       -1277.453
 07  8 29 13 14 35.0010000  0 10G20G28G17G11G 4G19G23G 1S37S29
 109191308.591 8  20778417.536          50.000       -1505.279
 110909970.647 8  21105471.313          50.000       -2197.161
 113513595.554 8  21600921.549          51.000         893.168
 116731089.633 8  22213189.387          51.000       -3355.796
 124367001.49227  23666254.444          47.000        1265.189
                  25308114.332          42.000       -4014.752
 130355544.697 7  24805837.580          46.000        1494.779
 133667097.91527  25436002.528          43.000       -1307.974
 196950615.531 7  37478452.841          44.000       -1274.382
 196636516.264 7  37418690.259          44.000       -1278.874
 07  8 29 13 14 36.0010000  0 10G20G28G17G11G 4G19G23G 1S37S29
 109192812.041 8  20778703.895          49.000       -1502.352
 110912167.536 8  21105889.350          50.000       -2198.559
 113512703.193 8  21600751.618          51.000         890.454
 116734443.512 8  22213827.316          51.000       -3351.245
 124365738.30427  23666013.995          47.000        1260.180
 132999044.87926  25308876.806          39.000       -4003.004
 130354048.508 7  24805553.266          46.000        1499.632
 133668402.62727  25436250.463          43.000       -1302.852
 196951887.203 7  37478694.860          44.000       -1269.980
 196637791.710 7  37418933.027          44.000       -1276.022
 07  8 29 13 14 37.0010000  0 10G20G28G17G11G 4G19G23G 1S37S29
 109194312.352 8  20778989.243          49.000       -1498.609
 110914367.01638  21106307.909          50.000       -2201.849
 113511815.073 8  21600582.715          52.000         885.778
 116737792.201 8  22214464.583          51.000       -3346.412
 124364482.77327  23665774.959          47.000        1250.866
 133003042.47837  25309638.007          42.000       -3990.820
 130352544.531 7  24805267.295          47.000        1508.086
 133669702.32127  25436497.491          44.000       -1295.994
 196953155.483 7  37478936.198          44.000       -1266.605
 196639064.963 7  37419175.395          44.000       -1272.579
 07  8 29 13 14 38.0010000  0 10G20G28G17G11G 4G19G23G 1S37S29
 109195809.259 8  20779274.136          49.000       -1494.713
 110916570.61428  21106727.202          51.000       -2204.712
 113510933.013 8  21600414.964          52.000         879.538
 116741135.537 8  22215100.593          51.000       -3340.547
 124363236.40228  23665537.406          48.000        1242.850
 133007029.03227  25310396.257          42.000       -3982.034
 130351030.412 7  24804979.231          47.000        1519.573
 133670996.58427  25436743.505          44.000       -1292.499
 196954419.129 7  37479176.699          44.000       -1260.826
 196640335.116 7  37419417.030          44.000       -1266.681
 07  8 29 13 14 39.0010000  0 10G20G28G17G11G 4G19G23G 1S37S29
 109197303.389 8  20779558.279          49.000       -1493.487
 110918776.36128  21107147.141          51.000       -2206.566
 113510055.591 8  21600247.720          51.000         875.746
 116744474.823 8  22215735.782          50.000       -3337.929
 124361996.44927  23665301.337          47.000        1237.254
 133011006.79927  25311153.268          44.000       -3974.723
 130349507.783 7  24804689.664          47.000        1525.576
 133672287.44827  25436988.804          43.000       -1289.054
 196955678.149 7  37479416.205          44.000       -1256.984
 196641600.746 7  37419657.966          43.000       -1265.415
 07  8 29 13 14 40.0010000  0 10G20G28G17G11G 4G19G23G 1S37S29
 109198796.517 8  20779842.351          49.000       -1492.795
 110920983.44728  21107566.888          50.000       -2206.971
 113509180.797 8  21600081.471          51.000         875.176
 116747812.336 8  22216370.534          50.000       -3336.730
 124360759.64627  23665065.463          47.000        1237.697
 133014980.00127  25311909.631          44.000       -3972.427
 130347980.609 7  24804399.398          47.000        1528.488
 133673576.97327  25437234.155          42.000       -1288.748
 196956934.844 7  37479655.290          45.000       -1256.893
 196642864.629 7  37419898.500          43.000       -1264.105
 07  8 29 13 14 41.0010000  0 10G20G28G17G11G 4G19G23G 1S37S29
 109200289.799 8  20780126.458          49.000       -1493.124
 110923191.21028  21107987.141          51.000       -2208.322
 113508306.597 8  21599915.083          52.000         873.933
 116751149.425 8  22217005.583          51.000       -3336.372
 124359523.52727  23664830.006          47.000        1235.720
 133018952.13927  25312665.539          44.000       -3971.687
 130346452.273 7  24804108.905          47.000        1528.346
 133674866.47126  25437478.981          41.000       -1289.618
 196958191.110 7  37479894.359          45.000       -1254.653
 196644127.742 7  37420138.877          44.000       -1263.669
 07  8 29 13 14 42.0010000  0 10G20G28G17G11G 4G19G23G 1S37S29
 109201783.681 8  20780410.948          49.000       -1494.349
 110925399.73328  21108407.325          50.000       -2208.395
 113507432.370 8  21599749.289          52.000         874.662
 116754486.349 8  22217640.962          51.000       -3337.142
 124358287.41327  23664594.429          47.000        1236.966
 133022924.16827  25313421.309          44.000       -3970.804
 130344923.800 7  24803817.905          47.000        1528.603
 133676155.69927  25437724.226          42.000       -1289.339
 196959447.458 7  37480133.513          44.000       -1257.452
 196645391.504 7  37420379.516          43.000       -1263.325
 07  8 29 13 14 43.0010000  0 10G20G28G17G11G 4G19G23G 1S37S29
 109203277.822 8  20780695.265          49.000       -1494.311
 110927608.44328  21108827.596          51.000       -2208.635
 113506557.443 8  21599582.692          52.000         875.245
 116757822.887 8  22218276.011          51.000       -3336.459
 124357051.253 7  23664359.305          47.000        1237.493
 133026896.42227  25314177.374          42.000       -3971.914
 130343395.459 7  24803527.167          47.000        1527.796
 133677445.499 7  25437969.751          43.000       -1289.281
 196960703.845 7  37480372.738          45.000       -1257.312
 196646655.063 7  37420620.066          43.000       -1264.564
 07  8 29 13 14 44.0010000  0 10G20G28G17G11G 4G19G23G 1S37S29
 109204772.129 8  20780979.703          49.000       -1494.463
 110929817.32528  21109248.024          51.000       -2209.044
 113505681.751 8  21599416.007          52.000         875.948
 116761158.945 8  22218910.763          51.000       -3336.054
 124355814.060 7  23664123.762          47.000        1239.110
 133030868.81327  25314933.422          42.000       -3972.863
 130341867.222 7  24803236.237          47.000        1528.417
 133678734.567 7  25438214.700          42.000       -1288.393
 196961960.276 7  37480611.859          45.000       -1256.312
 196647919.035 7  37420860.496          44.000       -1263.950
 07  8 29 13 14 45.0010000  0 10G20G28G17G11G 4G19G23G 1S37S29
 109206266.601 8  20781264.264          49.000       -1493.989
 110932026.60228  21109668.469          51.000       -2209.350
 113504805.717 8  21599249.079          52.000         876.078
 116764494.481 8  22219545.480          51.000       -3334.670
 124354576.635 7  23663888.148          47.000        1236.696
 133034840.69327  25315689.279          42.000       -3969.633
 130340338.506 7  24802945.150          47.000        1530.273
 133680023.294 7  25438459.597          43.000       -1287.414
 196963216.508 7  37480851.102          45.000       -1256.003
 196649182.687 7  37421100.925          43.000       -1264.152
 07  8 29 13 14 46.0010000  0 10G20G28G17G11G 4G19G23G 1S37S29
 109207760.759 8  20781548.319          49.000       -1494.279
 110934236.29928  21110088.705          50.000       -2209.630
 113503929.777 8  21599082.761          51.000         876.522
 116767828.926 8  22220179.866          50.000       -3333.446
 124353339.606 7  23663652.885          47.000        1237.723
 133038811.04127  25316444.839          43.000       -3969.107
 130338808.286 7  24802654.273          46.000        1531.173
 133681311.210 7  25438704.528          43.000       -1287.738
 196964471.771 7  37481090.101          44.000       -1253.331
 196650445.387 7  37421341.058          44.000       -1262.162
 07  8 29 13 14 47.0010000  0 10G20G28G17G11G 4G19G23G 1S37S29
 109209254.790 8  20781832.705          49.000       -1493.220
 110936446.12728  21110509.203          50.000       -2209.163
 113503053.462 8  21598915.501          51.000         877.253
 116771162.638 8  22220814.077          51.000       -3332.716
 124352101.95137  23663417.411          45.000        1236.342
 133042780.74527  25317199.944          43.000       -3970.780
 130337277.279 7  24802362.872          46.000        1532.366
 133682598.698 6  25438949.827          41.000       -1285.076
 196965726.351 7  37481328.889          44.000       -1253.334
 196651707.491 7  37421581.365          43.000       -1262.105
 07  8 29 13 14 48.0010000  0 10G20G28G17G11G 4G19G23G 1S37S29
 109210748.501 8  20782117.370          49.000       -1493.814
 110938655.97828  21110929.753          50.000       -2209.863
 113502176.695 8  21598748.624          51.000         876.842
 116774495.480 8  22221448.532          50.000       -3332.425
 124350864.54337  23663182.113          43.000        1238.249
 133046749.66127  25317955.278          43.000       -3967.683
 130335745.390 7  24802070.983          46.000        1533.452
 133683885.866 7  25439194.792          42.000       -1287.642
 196966979.912 7  37481567.591          45.000       -1253.836
 196652968.500 7  37421821.219          44.000       -1260.010
 07  8 29 13 14 49.0010000  0 10G20G28G17G11G 4G19G23G 1S37S29
 109212242.483 8  20782401.494          49.000       -1495.449
 110940866.290 8  21111349.989          50.000       -2210.413
 113501300.017 8  21598581.835          51.000         876.683
 116777828.338 8  22222082.882          51.000       -3333.912
 124349626.58327  23662946.535          46.000        1238.369
 133050718.009 7  25318710.453          43.000       -3968.750
 130334212.537 7  24801779.285          47.000        1532.292
 133685173.458 7  25439439.862          43.000       -1288.350
 196968232.438 7  37481806.118          44.000       -1252.571
 196654228.649 7  37422060.898          43.000       -1258.956
 07  8 29 13 14 50.0010000  0 10G20G28G17G11G 4G19G23G 1S37S29
 109213737.561 8  20782686.073          49.000       -1494.258
 110943076.108 8  21111770.802          50.000       -2209.815
 113500422.843 8  21598414.889          51.000         877.815
 116781161.940 8  22222717.180          51.000       -3332.187
 124348387.13127  23662710.539          47.000        1238.979
 133054687.195 6  25319465.628          41.000       -3970.284
 130332680.136 7  24801487.639          46.000        1531.843
 133686462.030 7  25439684.916          42.000       -1286.622
 196969484.847 7  37482044.611          45.000       -1251.865
 196655488.203 7  37422300.752          43.000       -1258.188
 07  8 29 13 14 51.0010000  0 10G20G28G17G11G 4G19G23G 1S37S29
 109215231.702 8  20782970.302          49.000       -1493.465
 110945286.080 8  21112191.422          50.000       -2210.179
 113499545.784 8  21598248.256          51.000         876.180
 116784494.033 8  22223351.287          50.000       -3330.792
 124347148.45027  23662474.576          46.000        1237.778
 133058654.304 6  25320220.177          41.000       -3966.317
 130331145.653 7  24801195.751          46.000        1536.630
 133687749.694 6  25439929.621          40.000       -1286.864
 196970735.863 7  37482282.563          44.000       -1248.952
 196656746.567 7  37422540.186          43.000       -1257.188
 07  8 29 13 14 52.0010000  0 10G20G28G17G11G 4G19G23G 1S37S29
 109216723.678 8  20783254.219          49.000       -1490.323
 110947496.244 8  21112611.902          50.000       -2210.879
 113498670.505 8  21598081.518          51.000         873.431
 116787823.465 8  22223984.539          51.000       -3327.260
 124345912.44127  23662239.364          47.000        1234.293
 133062616.318 6  25320974.047          40.000       -3957.532
 130329605.920 7  24800902.695          45.000        1544.394
 133689035.743 6  25440174.780          41.000       -1283.714
 196971983.426 7  37482520.027          44.000       -1245.031
 196658002.138 7  37422779.308          43.000       -1254.596
 07  8 29 13 14 53.0010000  0 10G20G28G17G11G 4G19G23G 1S37S29
 109218214.112 8  20783537.889          49.000       -1489.918
 110949707.522 8  21113032.574          50.000       -2211.117
 113497799.010 8  21597915.670          51.000         869.650
 116791150.881 8  22224617.895          50.000       -3327.181
 124344680.19427  23662004.622          47.000        1230.556
 133066571.766 6  25321727.096          41.000       -3952.812
 130328059.445 7  24800608.434          46.000        1549.729
 133690320.548 6  25440419.467          41.000       -1284.045
 196973227.600 7  37482756.845          43.000       -1242.326
 196659253.882 7  37423017.540          44.000       -1249.362
 07  8 29 13 14 54.0010000  0 10G20G28G17G11G 4G19G23G 1S37S29
 109219703.786 8  20783821.229          49.000       -1489.618
 110951920.050 8  21113453.665          50.000       -2212.849
 113496930.688 8  21597750.206          51.000         867.112
 116794476.969 8  22225250.989          50.000       -3326.339
 124343451.09827  23661770.666          46.000        1227.947
 133070522.71336  25322478.764          36.000       -3951.984
 130326507.913 7  24800313.352          46.000        1552.895
 133691604.504 6  25440664.066          40.000       -1284.595
 196974469.213 7  37482993.191          44.000       -1241.172
 196660503.383 7  37423255.194          44.000       -1249.764
 07  8 29 13 14 55.0010000  0 10G20G28G17G11G 4G19G23G 1S37S29
 109221192.783 8  20784104.656          49.000       -1488.568
 110954133.222 8  21113874.599          50.000       -2212.730
 113496063.776 8  21597585.424          51.000         867.384
 116797801.818 8  22225883.490          50.000       -3323.881
 124342224.209 7  23661537.374          46.000        1227.626
                  25323230.487          34.000       -3945.783
 130324953.314 7  24800017.380          45.000        1556.181
 133692887.921 6  25440907.742          39.000       -1281.778
 196975708.843 7  37483229.154          44.000       -1239.146
 196661751.182 7  37423492.728          44.000       -1247.586
 07  8 29 13 14 56.0010000  0 10G20G28G17G11G 4G19G23G 1S37S29
 109222681.553 8  20784387.803          49.000       -1488.192
 110956346.697 8  21114295.864          50.000       -2213.372
 113495196.699 8  21597420.589          51.000         868.331
 116801125.737 8  22226515.799          50.000       -3323.445
 124340996.892 7  23661303.628          46.000        1227.349
                  25323980.812          32.000       -3943.385
                  24799722.226          33.000        1553.837
 133694170.632 6  25441151.732          41.000       -1279.871
 196976947.708 7  37483464.923          44.000       -1239.958
 196662998.502 7  37423730.033          44.000       -1248.429
 07  8 29 13 14 57.0010000  0 10G20G28G17G11G 4G19G23G 1S37S29
 109224170.941 8  20784670.968          49.000       -1488.625
 110958560.795 8  21114717.287          50.000       -2213.396
 113494328.773 8  21597255.214          51.000         869.099
 116804449.379 8  22227148.579          50.000       -3323.074
 124339769.096 7  23661070.126          46.000        1226.116
                  25324731.921          34.000       -3947.270
                  24799425.366          41.000        1562.359
 133695452.52436  25441395.318          39.000       -1282.852
 196978186.925 7  37483700.782          44.000       -1237.236
 196664246.224 7  37423967.408          44.000       -1247.751
 07  8 29 13 14 58.0010000  0 10G20G28G17G11G 4G19G23G 1S37S29
 109225660.703 8  20784954.551          49.000       -1489.541
 110960774.22238  21115138.728          49.000       -2212.298
 113493459.757 8  21597090.013          51.000         869.943
 116807773.017 8  22227781.027          50.000       -3323.937
 124338540.148 7  23660835.910          46.000        1228.461
 133086303.30436  25325481.511          38.000       -3950.693
 130320293.96537  24799127.383          44.000        1554.240
 133696735.37426  25441639.447          37.000       -1282.213
 196979426.037 7  37483936.359          44.000       -1237.563
 196665493.698 7  37424204.748          44.000       -1249.689
 07  8 29 13 14 59.0010000  0 10G20G28G17G11G 4G19G23G 1S37S29
 109227151.253 8  20785238.360          49.000       -1491.742
 110962987.41028  21115560.168          50.000       -2211.956
 113492589.810 8  21596924.306          51.000         870.128
 116811097.535 8  22228413.335          50.000       -3324.932
 124337309.052 7  23660601.678          46.000        1233.505
 133090254.59935  25326232.743          33.000       -3949.361
 130318740.40136  24798832.176          41.000        1550.006
 133698019.83127  25441884.010          42.000       -1286.218
 196980665.094 7  37484172.338          44.000       -1238.260
 196666741.056 7  37424441.985          44.000       -1246.296
 07  8 29 13 15  0.0010000  0 10G20G28G17G11G 4G19G23G 1S37S29
 109228643.064 8  20785522.065          48.000       -1492.654
 110965199.00228  21115980.963          50.000       -2210.049
 113491718.045 8  21596758.181          51.000         872.863
 116814423.800 8  22229046.568          51.000       -3327.699
 124336074.134 7  23660366.660          47.000        1238.301
 133094206.25236  25326984.358          37.000       -3952.485
 130317188.18237  24798536.151          44.000        1550.471
 133699306.94426  25442128.958          41.000       -1288.714
 196981904.003 7  37484408.196          44.000       -1238.320
 196667988.145 7  37424679.150          44.000       -1247.727
 07  8 29 13 15  1.0010000  0 10G20G28G17G11G 4G19G23G 1S37S29
 109230136.974 8  20785806.573          48.000       -1494.533
 110967408.04328  21116401.061          50.000       -2206.592
 113490842.469 8  21596591.673          51.000         878.057
 116817753.034 8  22229680.219          51.000       -3330.967
 124334832.632 7  23660130.387          46.000        1246.833
 133098163.74336  25327737.296          38.000       -3962.776
 130315640.47327  24798241.764          45.000        1545.062
 133700597.78027  25442375.161          42.000       -1294.124
 196983143.947 7  37484644.209          45.000       -1239.503
 196669235.465 7  37424916.753          44.000       -1246.973
 07  8 29 13 15  2.0010000  0 10G20G28G17G11G 4G19G23G 1S37S29
 109231633.925 8  20786091.464          49.000       -1497.396
 110969612.28628  21116820.619          50.000       -2199.779
 113489961.681 8  21596423.979          51.000         884.157
 116821087.666 8  22230314.689          50.000       -3336.996
 124333580.880 7  23659892.371          47.000        1257.697
 133102129.92126  25328492.486          41.000       -3970.476
 130314099.10427  24797949.383          46.000        1538.950
 133701895.87126  25442621.817          40.000       -1302.541
 196984384.211 7  37484880.294          44.000       -1237.983
 196670482.366 7  37425154.059          43.000       -1244.984
 07  8 29 13 15  3.0010000  0 10G20G28G17G11G 4G19G23G 1S37S29
 109233132.935 8  20786376.722          49.000       -1499.870
 110971809.37328  21117238.711          50.000       -2193.772
 113489076.343 8  21596255.515          52.000         885.746
 116824428.396 8  22230950.503          50.000       -3343.392
 124332317.510 7  23659652.521          47.000        1266.970
 133106103.10126  25329249.719          39.000       -3974.734
 130312561.33227  24797657.266          45.000        1537.640
 133703203.21136  25442870.688          38.000       -1313.708
 196985622.221 7  37485115.891          44.000       -1233.978
 196671725.764 7  37425390.686          43.000       -1240.383
 07  8 29 13 15  4.0010000  0 10G20G28G17G11G 4G19G23G 1S37S29
 109234633.984 8  20786662.259          49.000       -1501.785
 110974000.02228  21117655.739          51.000       -2187.452
 113488191.837 8  21596087.329          52.000         883.023
 116827775.934 8  22231587.764          50.000       -3351.344
 124331045.525 8  23659410.786          48.000        1275.925
                  25330005.747          35.000       -3981.483
 130311020.79027  24797364.577          44.000        1545.556
 133704521.17126  25443121.461          41.000       -1323.407
 196986853.914 7  37485350.250          44.000       -1227.089
 196672962.039 7  37425626.022          44.000       -1233.433
 07  8 29 13 15  5.0010000  0 10G20G28G17G11G 4G19G23G 1S37S29
 109236137.358 8  20786948.303          49.000       -1502.391
 110976186.17528  21118071.753          51.000       -2184.859
 113487310.394 8  21595919.509          52.000         879.790
 116831129.895 8  22232225.882          50.000       -3355.125
 124329767.740 8  23659168.107          48.000        1278.681
 133114051.61236  25330761.905          40.000       -3969.210
 130309475.92937  24797070.821          43.000        1548.496
 133705848.54527  25443374.329          43.000       -1330.635
 196988079.701 7  37485583.578          44.000       -1222.335
 196674191.859 7  37425860.084          44.000       -1226.992
 07  8 29 13 15  6.0010000  0 10G20G28G17G11G 4G19G23G 1S37S29
 109237639.745 8  20787234.190          49.000       -1500.969
 110978371.13328  21118487.453          50.000       -2183.362
 113486435.782 8  21595753.222          51.000         869.953
 116834484.963 8  22232864.037          51.000       -3355.084
 124328492.296 7  23658925.303          47.000        1274.238
 133118017.89527  25331516.578          43.000       -3959.469
 130307920.41427  24796775.411          46.000        1562.928
 133707179.46127  25443627.234          43.000       -1334.606
 196989297.501 7  37485815.270          44.000       -1210.342
 196675414.000 7  37426092.595          44.000       -1216.536
 07  8 29 13 15  7.0010000  0 10G20G28G17G11G 4G19G23G 1S37S29
 109239139.874 8  20787519.467          50.000       -1499.140
 110980554.422 8  21118902.890          51.000       -2183.053
 113485570.269 8  21595588.418          52.000         860.773
 116837840.472 8  22233502.662          51.000       -3355.797
 124327220.873 7  23658682.517          47.000        1270.584
 133121972.46226  25332269.228          41.000       -3946.605
 130306350.27027  24796476.599          46.000        1577.556
 133708514.19427  25443881.535          42.000       -1337.943
 196990504.345 7  37486045.005          44.000       -1202.537
 196676626.022 7  37426323.273          43.000       -1208.468
 07  8 29 13 15  8.0010000  0 10G20G28G17G11G 4G19G23G 1S37S29
 109240639.694 8  20787804.865          49.000       -1499.701
 110982736.334 8  21119318.032          50.000       -2181.307
 113484714.115 8  21595425.203          51.000         851.475
 116841198.774 8  22234142.001          51.000       -3360.248
 124325952.276 7  23658440.220          47.000        1268.070
 133125917.71926  25333019.397          39.000       -3942.108
 130304767.68127  24796174.925          46.000        1589.282
 133709854.85427  25444137.213          44.000       -1344.865
 196991701.665 7  37486272.890          44.000       -1193.639
 196677829.043 7  37426552.206          43.000       -1198.399
 07  8 29 13 15  9.0010000  0 10G20G28G17G11G 4G19G23G 1S37S29
 109242140.181 8  20788090.525          50.000       -1500.682
 110984915.470 8  21119732.912          50.000       -2177.742
 113483866.174 8  21595263.541          51.000         844.239
 116844561.786 8  22234782.109          51.000       -3364.950
 124324683.794 8  23658198.988          48.000        1268.078
 133129856.33326  25333768.206          41.000       -3935.216
 130303174.33027  24795870.491          46.000        1597.305
 133711204.01327  25444395.001          44.000       -1353.716
 196992889.742 7  37486498.822          45.000       -1183.470
 196679023.157 7  37426779.359          44.000       -1188.655
 07  8 29 13 15 10.0010000  0 10G20G28G17G11G 4G19G23G 1S37S29
 109243641.043 8  20788376.098          50.000       -1499.608
 110987093.140 8  21120147.547          51.000       -2176.779
 113483023.003 8  21595102.964          50.000         842.670
 116847927.265 8  22235422.793          51.000       -3364.846
 124323415.583 7  23657958.280          47.000        1267.990
 133133790.62926  25334516.804          40.000       -3932.449
 130301574.51727  24795565.131          45.000        1601.702
 133712557.97127  25444653.439          44.000       -1354.036
 196994072.399 7  37486723.757          45.000       -1179.645
 196680211.641 7  37427005.584          45.000       -1186.719
 07  8 29 13 15 11.0010000  0 10G20G28G17G11G 4G19G23G 1S37S29
 109245141.442 8  20788661.723          50.000       -1499.636
 110989271.395 8  21120562.285          51.000       -2178.895
 113482182.432 8  21594942.630          50.000         840.062
 116851292.133 8  22236063.443          51.000       -3364.530
 124322149.481 7  23657717.378          47.000        1265.078
 133137721.44326  25335264.879          40.000       -3929.129
 130299970.51127  24795259.475          46.000        1605.861
 133713912.22627  25444911.423          45.000       -1354.438
 196995252.725 7  37486948.429          44.000       -1178.488
 196681398.071 7  37427231.338          44.000       -1185.749
 07  8 29 13 15 12.0010000  0 10G20G28G17G11G 4G19G23G 1S37S29
 109246641.510 8  20788947.366          50.000       -1500.246
 110991450.894 8  21120977.007          51.000       -2180.452
 113481344.115 8  21594783.117          51.000         837.040
 116854655.992 8  22236703.535          51.000       -3363.789
 124320885.891 7  23657476.983          47.000        1262.787
 133141649.06827  25336012.604          44.000       -3926.116
 130298363.51537  24794953.540          42.000        1611.159
 133715266.11727  25445168.849          44.000       -1353.825
 196996431.256 7  37487172.822          45.000       -1177.874
 196682582.870 7  37427456.988          45.000       -1184.135
 07  8 29 13 15 13.0010000  0 10G20G28G17G11G 4G19G23G 1S37S29
 109248141.788 8  20789232.659          50.000       -1500.530
 110993630.790 8  21121391.781          51.000       -2179.371
 113480507.560 8  21594623.552          50.000         836.185
 116858019.880 8  22237343.312          51.000       -3364.583
 124319623.248 8  23657236.886          48.000        1264.237
 133145574.445 7  25336759.212          43.000       -3926.097
 130296753.66027  24794646.956          46.000        1608.365
 133716621.235 7  25445427.041          44.000       -1355.474
 196997608.321 7  37487396.813          44.000       -1177.218
 196683765.764 7  37427681.852          44.000       -1181.732
 07  8 29 13 15 14.0010000  0 10G20G28G17G11G 4G19G23G 1S37S29
 109249642.776 8  20789518.319          49.000       -1500.818
 110995810.427 8  21121806.451          50.000       -2179.352
 113479671.831 8  21594464.859          51.000         835.190
 116861384.692 8  22237983.613          51.000       -3364.465
 124318359.972 8  23656996.579          48.000        1263.257
 133149499.426 7  25337506.292          42.000       -3923.889
 130295142.62727  24794340.357          46.000        1612.459
 133717977.534 7  25445685.792          43.000       -1358.113
 196998784.247 7  37487620.526          44.000       -1172.795
 196684947.368 7  37427906.804          44.000       -1179.019
 07  8 29 13 15 15.0010000  0 10G20G28G17G11G 4G19G23G 1S37S29
 109251144.288 8  20789804.101          49.000       -1502.201
 110997989.001 8  21122220.737          51.000       -2177.253
 113478838.636 8  21594306.270          51.000         831.516
 116864751.174 8  22238624.104          50.000       -3368.361
 124317096.135 8  23656755.976          49.000        1264.586
 133153422.165 7  25338252.900          42.000       -3921.858
 130293527.80927  24794032.851          45.000        1617.365
 133719336.88036  25445944.614          38.000       -1358.287
 196999956.338 7  37487843.350          44.000       -1169.249
 196686125.354 7  37428130.988          44.000       -1176.422
 07  8 29 13 15 16.0010000  0 10G20G28G17G11G 4G19G23G 1S37S29
 109252647.617 8  20790089.725          49.000       -1503.916
 111000165.768 8  21122635.198          51.000       -2175.152
 113478008.983 8  21594148.641          51.000         828.307
 116868121.694 8  22239265.416          50.000       -3372.292
 124315830.314 8  23656515.390          49.000        1266.756
 133157343.504 7  25338999.386          42.000       -3921.275
 130291909.10227  24793725.048          46.000        1619.501
                  25446203.292          31.000       -1369.162
 197001124.149 7  37488065.439          44.000       -1166.517
 196687299.279 7  37428354.300          43.000       -1170.806
 07  8 29 13 15 17.0010000  0 10G20G28G17G11G 4G19G23G 1S37S29
 109254152.638 8  20790376.188          49.000       -1505.653
 111002339.742 8  21123048.682          50.000       -2172.053
 113477181.946 8  21593991.449          52.000         826.271
 116871496.598 8  22239908.088          50.000       -3377.646
 124314561.133 8  23656273.864          48.000        1271.481
 133161264.238 7  25339745.767          45.000       -3920.150
 130290287.05127  24793416.861          47.000        1623.152
 133722071.34735  25446464.240          35.000       -1375.009
 197002287.730 7  37488286.884          44.000       -1162.734
 196688468.638 7  37428576.739          44.000       -1168.797
 07  8 29 13 15 18.0010000  0 10G20G28G17G11G 4G19G23G 1S37S29
 109255659.211 8  20790662.789          48.000       -1507.158
 111004509.938 8  21123461.800          50.000       -2168.015
 113476356.122 8  21593834.501          50.000         825.990
 116874875.964 8  22240551.266          50.000       -3382.115
 124313287.132 8  23656031.727          49.000        1277.017
 133165185.622 7  25340492.042          42.000       -3921.841
 130288662.84127  24793107.940          47.000        1624.614
 133723451.05126  25446725.485          37.000       -1381.193
 197003447.367 7  37488507.719          44.000       -1156.863
 196689633.519 7  37428798.254          43.000       -1164.554
 07  8 29 13 15 19.0010000  0 10G20G28G17G11G 4G19G23G 1S37S29
 109257168.418 8  20790950.019          48.000       -1509.585
 111006677.412 8  21123874.446          50.000       -2166.373
 113475530.633 8  21593677.188          50.000         826.688
 116878260.210 8  22241195.247          50.000       -3386.183
 124312008.096 8  23655788.333          48.000        1281.397
 133169109.875 7  25341239.102          44.000       -3925.142
 130287039.072 7  24792798.844          46.000        1623.618
                  25446989.242          31.000       -1389.088
 197004605.065 7  37488727.889          43.000       -1156.333
 196690796.169 7  37429019.611          43.000       -1161.109
 07  8 29 13 15 20.0010000  0  9G20G28G17G11G 4G19G23S37S29
 109258678.980 8  20791237.598          49.000       -1510.119
 111008842.579 8  21124286.412          50.000       -2163.838
 113474706.577 8  21593520.327          50.000         823.585
 116881647.817 8  22241839.840          51.000       -3387.951
 124310726.091 8  23655544.624          48.000        1283.614
 133173034.316 7  25341985.972          44.000       -3923.061
 130285413.375 7  24792489.279          47.000        1627.449
 197005759.524 7  37488947.535          43.000       -1155.307
 196691955.360 7  37429240.270          43.000       -1158.176
 07  8 29 13 15 21.0010000  0  9G20G28G17G11G 4G19G23S37S29
 109260188.876 8  20791524.777          49.000       -1510.239
 111011005.872 8  21124697.836          50.000       -2161.857
 113473883.187 8  21593363.763          50.000         822.670
 116885035.726 8  22242484.399          50.000       -3388.270
 124309443.013 7  23655300.862          47.000        1284.367
 133176956.923 7  25342732.545          44.000       -3922.157
 130283784.521 7  24792179.783          47.000        1630.551
 197006910.127 7  37489166.415          43.000       -1149.738
 196693110.942 7  37429460.284          43.000       -1154.040
 07  8 29 13 15 22.0010000  0 10G20G28G17G11G 4G19G23G 1S37S29
 109261698.666 8  20791812.078          48.000       -1508.655
 111013167.673 8  21125109.296          50.000       -2160.717
 113473060.337 8  21593207.200          51.000         823.757
 116888424.341 8  22243129.377          50.000       -3387.866
 124308158.590 7  23655056.647          47.000        1285.699
 133180878.472 7  25343478.769          43.000       -3921.605
 130282153.514 7  24791869.484          47.000        1632.512
                  25447777.815          34.000       -1394.434
 197008058.041 7  37489384.614          43.000       -1146.230
 196694263.584 7  37429679.582          43.000       -1150.868
 07  8 29 13 15 23.0010000  0 10G20G28G17G11G 4G19G23G 1S37S29
 109263208.374 8  20792099.238          49.000       -1509.179
 111015328.956 8  21125520.859          50.000       -2161.280
 113472238.296 8  21593050.618          50.000         821.230
 116891813.044 8  22243774.023          50.000       -3387.690
 124306874.013 7  23654812.029          47.000        1285.121
 133184798.545 7  25344225.116          44.000       -3919.419
 130280520.347 7  24791558.469          46.000        1634.645
 133730401.27436  25448049.374          41.000       -1397.146
 197009204.117 7  37489602.743          44.000       -1143.401
 196695414.087 7  37429898.582          43.000       -1151.144
 07  8 29 13 15 24.0010000  0 10G20G28G17G11G 4G19G23G 1S37S29
 109264717.438 8  20792386.661          48.000       -1509.031
 111017490.828 8  21125932.282          50.000       -2162.636
 113471417.259 8  21592894.438          51.000         819.974
 116895200.397 8  22244418.529          50.000       -3387.174
 124305590.923 8  23654567.760          48.000        1283.161
 133188716.023 7  25344970.503          42.000       -3914.887
 130278884.597 7  24791247.298          46.000        1637.658
 133731797.96126  25448315.805          40.000       -1396.190
 197010348.908 7  37489820.626          44.000       -1144.658
 196696563.087 7  37430117.270          43.000       -1147.634
 07  8 29 13 15 25.0010000  0 10G20G28G17G11G 4G19G23G 1S37S29
 109266225.664 8  20792673.752          49.000       -1507.797
 111019653.405 8  21126343.584          50.000       -2162.662
 113470597.042 8  21592738.224          50.000         819.397
 116898585.888 8  22245062.845          50.000       -3384.394
 124304309.579 8  23654323.893          48.000        1280.165
 133192630.598 7  25345715.401          44.000       -3913.936
 130277246.175 7  24790935.691          46.000        1640.265
 133733193.27526  25448582.777          38.000       -1392.892
 197011492.174 7  37490038.022          43.000       -1141.535
 196697710.870 7  37430335.834          43.000       -1146.679
 07  8 29 13 15 26.0010000  0 10G20G28G17G11G 4G19G23G 1S37S29
 109267733.466 8  20792960.721          49.000       -1507.375
 111021817.690 8  21126755.565          50.000       -2165.177
 113469778.196 8  21592582.393          50.000         818.279
 116901969.661 8  22245707.491          51.000       -3384.008
 124303030.23137  23654080.426          46.000        1276.697
 133196542.194 7  25346459.707          43.000       -3910.291
 130275605.159 7  24790623.054          46.000        1643.055
 133734586.70126  25448849.155          39.000       -1391.508
 197012634.465 7  37490255.329          43.000       -1141.565
 196698858.085 7  37430554.241          44.000       -1147.742
 07  8 29 13 15 27.0010000  0 10G20G28G17G11G 4G19G23G 1S37S29
 109269239.908 8  20793247.289          49.000       -1506.352
 111023982.713 8  21127167.669          50.000       -2165.805
 113468958.998 8  21592426.668          51.000         819.398
 116905350.630 8  22246350.620          50.000       -3379.755
 124301753.00728  23653837.693          48.000        1276.328
 133200451.354 7  25347203.261          43.000       -3908.638
 130273962.375 7  24790310.555          46.000        1643.278
 133735977.54226  25449114.067          41.000       -1390.817
 197013775.709 7  37490472.270          43.000       -1140.950
 196700004.783 7  37430772.386          43.000       -1147.662
 07  8 29 13 15 28.0010000  0 10G20G28G17G11G 4G19G23G 1S37S29
 109270745.749 8  20793533.717          50.000       -1505.612
 111026149.576 8  21127580.052          50.000       -2167.960
 113468139.470 8  21592270.593          50.000         819.872
 116908729.065 8  22246993.121          50.000       -3377.412
 124300477.97128  23653595.448          48.000        1273.945
 133204358.884 7  25347947.252          45.000       -3906.807
 130272318.902 7  24789998.092          46.000        1644.720
 133737365.41527  25449378.666          43.000       -1387.183
 197014917.471 7  37490689.630          43.000       -1140.760
 196701152.659 7  37430990.827          44.000       -1149.385
 07  8 29 13 15 29.0010000  0 10G20G28G17G11G 4G19G23G 1S37S29
 109272250.962 8  20793820.302          49.000       -1504.732
 111028317.508 8  21127992.313          50.000       -2167.978
 113467320.233 8  21592114.849          50.000         819.033
 116912105.533 8  22247635.621          50.000       -3375.869
 124299204.55428  23653352.628          48.000        1273.105
 133208264.134 7  25348690.422          44.000       -3905.325
 130270673.666 7  24789684.670          46.000        1646.942
 133738751.45927  25449642.793          43.000       -1385.717
 197016058.638 7  37490906.781          43.000       -1140.667
 196702300.078 7  37431209.269          44.000       -1149.338
 07  8 29 13 15 30.0010000  0 10G20G28G17G11G 4G19G23G 1S37S29
 109273755.476 8  20794106.643          50.000       -1504.748
 111030485.632 8  21128404.889          50.000       -2167.482
 113466500.892 8  21591959.002          50.000         819.252
 116915480.542 8  22248277.964          50.000       -3374.873
 124297931.70428  23653110.402          48.000        1272.912
 133212167.747 7  25349433.156          44.000       -3904.514
 130269026.740 7  24789370.915          45.000        1646.446
 133740136.49027  25449906.727          43.000       -1386.125
 197017198.880 7  37491123.809          42.000       -1142.085
 196703446.528 7  37431427.451          44.000       -1142.983
 07  8 29 13 15 31.0010000  0 10G20G28G17G11G 4G19G23G 1S37S29
 109275260.045 8  20794393.019          50.000       -1504.777
 111032654.098 8  21128817.569          51.000       -2168.320
 113465681.440 8  21591803.014          50.000         819.870
 116918854.906 8  22248920.080          50.000       -3373.171
 124296658.91528  23652868.315          48.000        1272.958
 133216070.513 7  25350176.135          44.000       -3901.683
 130267379.086 7  24789057.649          47.000        1647.986
 133741521.662 7  25450169.982          43.000       -1384.897
 197018338.774 7  37491340.733          43.000       -1140.484
 196704592.041 7  37431645.665          44.000       -1145.349
 07  8 29 13 15 32.0010000  0 10G20G28G17G11G 4G19G23G 1S37S29
 109276764.751 8  20794679.098          50.000       -1504.616
 111034822.834 8  21129230.336          51.000       -2169.090
 113464861.631 8  21591647.114          51.000         819.680
 116922228.748 8  22249562.056          50.000       -3373.368
 124295386.08228  23652625.862          48.000        1273.666
 133219972.997 7  25350918.747          43.000       -3902.226
 130265731.168 7  24788744.033          47.000        1647.978
 133742906.252 7  25450433.393          43.000       -1384.149
 197019478.652 7  37491557.710          43.000       -1138.390
 196705737.351 7  37431863.776          44.000       -1145.369
 07  8 29 13 15 33.0010000  0 10G20G28G17G11G 4G19G23G 1S37S29
 109278269.568 8  20794965.490          50.000       -1504.667
 111036991.917 8  21129643.068          51.000       -2169.041
 113464041.722 8  21591491.057          51.000         820.191
 116925601.972 8  22250204.224          50.000       -3372.521
 124294113.28728  23652383.635          49.000        1272.750
 133223874.815 7  25351661.271          43.000       -3901.245
 130264082.478 8  24788430.209          48.000        1649.952
                  25450696.842          31.000       -1377.349
 197020617.974 7  37491774.703          44.000       -1139.751
 196706882.423 7  37432081.624          44.000       -1145.766
 07  8 29 13 15 34.0010000  0 10G20G28G17G11G 4G19G23G 1S37S29
 109279774.374 8  20795251.901          50.000       -1504.487
 111039161.281 8  21130055.609          51.000       -2168.742
 113463222.034 8  21591334.982          51.000         820.653
 116928974.551 8  22250845.660          49.000       -3372.100
 124292840.70828  23652141.531          48.000        1272.660
 133227775.355 7  25352403.534          44.000       -3899.024
 130262432.461 7  24788116.490          47.000        1650.029
 133745694.25636  25450959.448          39.000       -1382.353
 197021756.200 7  37491991.349          43.000       -1136.526
 196708026.267 7  37432299.264          44.000       -1143.432
 07  8 29 13 15 35.0010000  0 10G20G28G17G11G 4G19G23G 1S37S29
 109281279.240 8  20795538.346          49.000       -1504.933
 111041329.840 8  21130468.551          51.000       -2167.809
 113462401.707 8  21591178.908          51.000         820.795
 116932347.246 8  22251487.147          50.000       -3372.821
 124291566.91028  23651899.200          49.000        1275.311
 133231676.005 7  25353145.796          43.000       -3901.011
 130260782.098 7  24787802.334          46.000        1651.152
                  25451222.232          36.000       -1379.576
 197022893.153 7  37492207.645          44.000       -1134.756
 196709168.812 7  37432516.746          45.000       -1142.416
 07  8 29 13 15 36.0010000  0 10G20G28G17G11G 4G19G23G 1S37S29
 109282785.070 8  20795824.791          49.000       -1505.957
 111043497.607 8  21130881.092          51.000       -2166.983
 113461580.834 8  21591022.624          51.000         821.068
 116935721.043 8  22252129.524          50.000       -3373.975
 124290291.00928  23651656.381          49.000        1277.151
 133235577.503 7  25353887.762          42.000       -3902.127
 130259131.789 7  24787488.090          45.000        1649.581
                  25451487.492          36.000       -1381.168
 197024029.153 7  37492423.835          44.000       -1135.707
 196710310.695 7  37432733.915          45.000       -1140.585
 07  8 29 13 15 37.0010000  0 10G20G28G17G11G 4G19G23G 1S37S29
 109284291.528 8  20796111.568          49.000       -1506.713
 111045664.376 8  21131293.424          51.000       -2165.486
 113460759.141 8  21590866.497          51.000         822.014
 116939095.716 8  22252772.040          50.000       -3375.321
 124289013.575 8  23651413.144          49.000        1279.914
 133239479.966 7  25354630.268          42.000       -3902.202
 130257481.788 7  24787174.422          46.000        1649.579
 133749847.05536  25451749.660          40.000       -1391.183
 197025164.685 7  37492640.009          44.000       -1134.792
 196711451.305 7  37432950.839          45.000       -1139.606
 07  8 29 13 15 38.0010000  0 10G20G28G17G11G 4G19G23G 1S37S29
 109285799.611 8  20796398.361          48.000       -1508.620
 111047830.291 8  21131705.494          51.000       -2164.862
 113459937.343 8  21590709.969          51.000         822.337
 116942472.488 8  22253414.748          50.000       -3377.916
 124287733.179 8  23651169.383          48.000        1282.693
 133243383.849 7  25355373.263          43.000       -3904.012
 130255832.262 7  24786860.632          46.000        1649.215
 133751238.75627  25452014.327          42.000       -1394.337
 197026299.771 7  37492856.113          44.000       -1133.049
 196712591.398 7  37433167.728          44.000       -1138.568
 07  8 29 13 15 39.0010000  0 10G20G28G17G11G 4G19G23G 1S37S29
 109287309.237 8  20796685.958          48.000       -1510.510
 111049993.921 8  21132116.970          50.000       -2163.612
 113459114.752 8  21590553.754          51.000         822.865
 116945852.118 8  22254057.578          50.000       -3381.856
 124286448.574 8  23650925.168          48.000        1286.061
 133247290.01936  25356116.850          41.000       -3907.848
 130254183.324 7  24786546.633          46.000        1648.834
 133752634.72127  25452280.475          42.000       -1401.089
 197027433.281 7  37493071.902          44.000       -1133.761
 196713730.098 7  37433384.408          43.000       -1138.411
 07  8 29 13 15 40.0010000  0 10G20G28G17G11G 4G19G23G 1S37S29
 109288820.195 8  20796973.432          48.000       -1510.566
 111052156.217 8  21132528.500          50.000       -2161.177
 113458291.511 8  21590397.052          51.000         824.194
 116949233.748 8  22254700.828          50.000       -3381.410
 124285160.940 8  23650680.168          48.000        1288.584
 133251197.64236  25356860.283          36.000       -3905.573
 130252534.922 7  24786233.140          47.000        1649.167
 133754033.70936  25452546.539          39.000       -1399.115
 197028565.684 7  37493287.465          44.000       -1131.364
 196714867.547 7  37433600.982          44.000       -1137.913
 07  8 29 13 15 41.0010000  0 10G20G28G17G11G 4G19G23G 1S37S29
 109290331.627 8  20797261.116          49.000       -1511.436
 111054318.189 8  21132939.941          50.000       -2161.255
 113457468.259 8  21590239.930          51.000         822.964
 116952615.719 8  22255344.252          50.000       -3382.684
 124283872.491 8  23650434.958          48.000        1289.151
 133255104.57736  25357603.174          41.000       -3905.184
 130250885.973 8  24785919.577          48.000        1650.155
 133755433.86026  25452812.078          39.000       -1402.624
 197029697.366 7  37493502.870          44.000       -1132.444
 196716004.406 7  37433817.348          43.000       -1136.885
 07  8 29 13 15 42.0010000  0 10G20G28G17G11G 4G19G23G 1S37S29
 109291842.613 8  20797548.661          49.000       -1511.030
 111056480.540 8  21133351.364          51.000       -2163.098
 113456645.326 8  21590083.209          51.000         822.296
 116955996.523 8  22255987.573          51.000       -3379.485
 124282584.900 7  23650190.217          47.000        1285.975
 133259010.30626  25358345.699          40.000       -3902.909
 130249235.218 7  24785605.422          47.000        1652.417
 133756832.93736  25453079.207          39.000       -1400.195
 197030828.138 7  37493718.086          44.000       -1128.371
 196717140.257 7  37434033.539          43.000       -1135.507
 07  8 29 13 15 43.0010000  0 10G20G28G17G11G 4G19G23G 1S37S29
 109293352.630 8  20797835.666          49.000       -1509.255
 111058644.715 8  21133763.258          50.000       -2165.363
 113455822.806 8  21589926.855          51.000         822.771
 116959374.490 8  22256630.335          50.000       -3375.942
 124281300.048 8  23649945.791          48.000        1282.466
                  25359088.762          36.000       -3907.659
 130247582.607 7  24785290.620          47.000        1652.385
 133758229.41436  25453345.413          40.000       -1391.036
 197031958.702 7  37493933.246          44.000       -1129.638
 196718275.839 7  37434249.590          43.000       -1137.630
 07  8 29 13 15 44.0010000  0 10G20G28G17G11G 4G19G23G 1S37S29
 109294861.110 8  20798122.356          49.000       -1507.903
 111060811.650 8  21134175.641          50.000       -2168.416
 113455000.496 8  21589770.483          51.000         821.394
 116962748.259 8  22257272.592          50.000       -3371.709
 124280019.393 8  23649702.114          48.000        1278.598
                  25359831.533          31.000       -3900.295
 130245928.194 7  24784975.714          47.000        1655.202
                  25453609.612          33.000       -1384.934
 197033089.364 7  37494148.581          43.000       -1132.363
 196719411.856 7  37434465.588          43.000       -1137.824
 07  8 29 13 15 45.0010000  0  9G20G28G17G11G 4G19G23S37S29
 109296367.827 8  20798409.273          50.000       -1505.795
 111062981.168 8  21134588.687          50.000       -2170.037
 113454178.307 8  21589613.903          50.000         822.545
 116966117.605 8  22257913.436          50.000       -3366.642
 124278742.786 8  23649459.032          48.000        1274.911
                  25360572.524          30.000       -3893.752
 130244271.666 7  24784660.582          47.000        1658.601
 197034220.203 7  37494363.795          43.000       -1131.802
 196720548.644 7  37434681.919          44.000       -1137.477
 07  8 29 13 15 46.0010000  0 10G20G28G17G11G 4G19G23G 1S37S29
 109297872.781 8  20798695.754          50.000       -1504.673
 111065153.242 8  21135001.854          51.000       -2173.190
 113453356.074 8  21589457.619          50.000         822.586
 116969482.462 8  22258553.826          50.000       -3362.536
 124277470.146 8  23649216.454          48.000        1270.525
 133274597.95435  25361312.801          34.000       -3884.548
 130242612.985 7  24784344.855          47.000        1659.157
 133762440.05835  25454146.138          33.000       -1380.604
 197035351.317 7  37494579.026          43.000       -1130.790
 196721685.938 7  37434898.458          43.000       -1138.103
 07  8 29 13 15 47.0010000  0  9G20G28G17G11G 4G19G23S37S29
 109299375.967 8  20798981.868          50.000       -1502.106
 111067328.114 8  21135415.737          50.000       -2176.137
 113452533.780 8  21589301.143          51.000         822.407
 116972842.742 8  22259193.483          50.000       -3357.877
 124276201.697 8  23648974.959          48.000        1266.339
 133278486.49626  25362051.870          38.000       -3884.984
 130240952.563 7  24784028.955          46.000        1661.967
 197036483.010 7  37494794.327          44.000       -1131.326
 196722824.114 7  37435114.928          43.000       -1138.906
 07  8 29 13 15 48.0010000  0 10G20G28G17G11G 4G19G23G 1S37S29
 109300877.286 8  20799268.035          50.000       -1500.597
 111069505.702 8  21135830.144          50.000       -2178.237
 113451711.112 8  21589144.300          50.000         822.694
 116976198.284 8  22259832.057          50.000       -3353.815
 124274937.353 7  23648734.442          47.000        1263.313
 133282372.02026  25362790.852          39.000       -3883.952
 130239290.565 7  24783712.845          45.000        1663.102
 133765173.91035  25454666.370          32.000       -1362.753
 197037615.507 7  37495009.871          44.000       -1132.013
 196723963.469 7  37435331.870          43.000       -1137.220
 07  8 29 13 15 49.0010000  0  9G20G28G17G11G 4G19G23S37S29
 109302377.619 8  20799553.416          50.000       -1499.896
 111071684.799 8  21136244.918          50.000       -2179.296
 113450888.306 8  21588987.981          51.000         823.248
 116979551.110 8  22260470.143          50.000       -3351.808
 124273675.256 7  23648494.291          47.000        1261.461
 133286255.36826  25363530.376          38.000       -3880.855
 130237627.295 7  24783396.263          45.000        1664.392
 197038747.684 7  37495225.416          43.000       -1133.429
 196725103.077 7  37435548.705          42.000       -1139.678
 07  8 29 13 15 50.0010000  0  9G20G28G17G11G 4G19G23S37S29
 109303877.715 8  20799838.814          49.000       -1500.460
 111073864.832 8  21136659.849          50.000       -2179.615
 113450065.290 8  21588831.209          51.000         822.846
 116982902.444 8  22261107.844          50.000       -3350.602
 124272414.078 8  23648253.879          48.000        1261.184
 133290137.54926  25364268.956          38.000       -3882.588
 130235963.187 7  24783079.245          45.000        1664.148
 197039879.542 7  37495441.049          43.000       -1131.350
 196726242.592 7  37435765.577          42.000       -1139.185
 07  8 29 13 15 51.0010000  0  9G20G28G17G11G 4G19G23S37S29
 109305378.125 8  20800124.422          49.000       -1499.626
 111076044.706 8  21137074.624          50.000       -2179.504
 113449241.840 8  21588674.733          51.000         824.209
 116986253.810 8  22261745.388          50.000       -3350.146
 124271152.152 8  23648013.660          48.000        1261.318
 133294019.83426  25365008.217          41.000       -3881.053
 130234298.970 7  24782762.367          45.000        1664.988
 197041010.728 7  37495656.263          43.000       -1130.790
 196727381.396 7  37435982.291          43.000       -1138.695
 07  8 29 13 15 52.0010000  0  9G20G28G17G11G 4G19G23S37S29
 109306878.738 8  20800410.100          49.000       -1500.580
 111078224.999 8  21137489.781          50.000       -2180.893
 113448418.191 8  21588517.681          51.000         824.381
 116989604.643 8  22262382.757          49.000       -3349.959
 124269890.402 8  23647773.440          48.000        1261.474
 133297901.87626  25365746.867          41.000       -3882.577
 130232634.399 7  24782445.889          45.000        1663.368
 197042141.776 7  37495871.458          43.000       -1132.741
 196728520.128 7  37436199.057          42.000       -1142.125
 07  8 29 13 15 53.0010000  0  9G20G28G17G11G 4G19G23S37S29
 109308379.165 8  20800695.324          49.000       -1499.322
 111080407.428 8  21137905.025          50.000       -2183.995
 113447594.228 8  21588361.030          51.000         823.757
 116992953.261 8  22263020.128          50.000       -3345.933
 124268630.667 8  23647534.214          48.000        1257.691
 133301782.75627  25366485.729          43.000       -3877.911
 130230969.857 7  24782129.064          45.000        1666.108
 197043274.201 7  37496086.916          42.000       -1133.647
 196729660.287 7  37436415.911          43.000       -1140.561
 07  8 29 13 15 54.0010000  0  9G20G28G17G11G 4G19G23S37S29
 109309878.770 8  20800980.757          49.000       -1499.162
 111082592.833 8  21138321.090          50.000       -2186.371
 113446770.001 8  21588204.101          51.000         824.044
 116996298.237 8  22263656.765          49.000       -3343.953
 124267374.404 8  23647295.145          48.000        1255.016
 133305661.44427  25367224.030          42.000       -3877.870
 130229304.692 7  24781811.627          45.000        1664.902
 197044408.097 7  37496302.792          43.000       -1134.720
 196730802.192 7  37436633.061          43.000       -1141.787
 07  8 29 13 15 55.0010000  0  9G20G28G17G11G 4G19G23S37S29
 109311377.654 8  20801265.946          49.000       -1499.098
 111084780.308 8  21138737.172          50.000       -2188.132
 113445945.135 8  21588047.066          51.000         825.246
 116999640.300 8  22264292.879          50.000       -3341.365
 124266120.525 8  23647056.809          48.000        1254.264
 133309538.854 6  25367961.477          41.000       -3876.739
 130227639.400 7  24781494.591          44.000        1664.925
 197045543.117 7  37496518.651          42.000       -1134.282
 196731945.441 7  37436850.525          43.000       -1144.552
 07  8 29 13 15 56.0010000  0  9G20G28G17G11G 4G19G23S37S29
 109312876.357 8  20801551.327          49.000       -1497.754
 111086969.073 8  21139153.534          50.000       -2189.453
 113445119.630 8  21587889.893          51.000         826.961
 117002980.628 8  22264928.696          50.000       -3338.541
 124264867.671 7  23646817.636          47.000        1252.536
 133313415.581 6  25368698.993          40.000       -3875.761
 130225974.075 7  24781177.923          45.000        1666.812
 197046678.571 7  37496734.790          44.000       -1134.615
 196733089.385 7  37437068.234          44.000       -1142.484
 07  8 29 13 15 57.0010000  0  9G20G28G17G11G 4G19G23S37S29
 109314373.373 8  20801836.255          49.000       -1496.006
 111089161.544 8  21139570.610          50.000       -2193.998
 113444292.533 8  21587732.562          50.000         827.490
 117006315.480 8  22265563.049          51.000       -3331.030
 124263619.168 7  23646580.049          47.000        1246.034
 133317290.066 6  25369436.352          41.000       -3874.176
 130224309.070 7  24780860.921          46.000        1664.108
 197047816.444 7  37496951.345          44.000       -1139.103
 196734235.504 7  37437286.360          44.000       -1148.567
 07  8 29 13 15 58.0010000  0  9G20G28G17G11G 4G19G23S37S29
 109315869.073 8  20802120.764          49.000       -1494.313
 111091358.560 8  21139988.838          50.000       -2198.366
 113443464.251 8  21587574.726          50.000         829.901
 117009644.786 8  22266196.912          51.000       -3327.309
 124262375.745 7  23646343.335          47.000        1241.683
 133321162.723 6  25370173.154          41.000       -3871.827
 130222644.819 7  24780544.235          45.000        1664.656
 197048957.171 7  37497168.459          44.000       -1142.949
 196735385.468 7  37437505.254          43.000       -1150.783
 07  8 29 13 15 59.0010000  0  9G20G28G17G11G 4G19G23S37S29
 109317363.083 8  20802404.837          49.000       -1493.874
 111093557.581 8  21140407.188          50.000       -2200.400
 113442633.172 8  21587416.785          51.000         832.794
 117012969.574 8  22266829.467          51.000       -3322.393
 124261134.497 8  23646107.076          48.000        1241.177
 133325034.878 7  25370909.745          42.000       -3872.237
 130220981.852 7  24780227.756          44.000        1660.502
 197050099.748 7  37497386.063          42.000       -1143.392
 196736537.746 7  37437724.516          44.000       -1152.575
 07  8 29 13 16  0.0010000  0  9G20G28G17G11G 4G19G23S37S29
 109318856.194 8  20802688.804          49.000       -1492.775
 111095758.497 8  21140825.940          50.000       -2202.458
 113441799.415 8  21587258.163          51.000         834.085
 117016290.953 8  22267461.532          52.000       -3319.890
 124259894.659 8  23645870.747          48.000        1239.217
 133328907.495 7  25371646.789          44.000       -3873.919
 130219321.083 7  24779911.907          44.000        1658.751
 197051244.562 7  37497603.824          44.000       -1145.325
 196737691.94737  37437944.142          44.000       -1158.868
 07  8 29 13 16  1.0010000  0  9G20G28G17G11G 4G19G23S37S29
 109320349.674 8  20802973.156          49.000       -1492.745
 111097962.652 8  21141245.181          50.000       -2204.642
 113440963.940 8  21587099.280          51.000         838.187
 117019609.732 8  22268092.935          51.000       -3316.247
 124258656.915 7  23645634.749          47.000        1236.805
 133332781.049 7  25372383.520          45.000       -3874.456
 130217663.068 7  24779596.092          44.000        1656.791
 197052393.022 7  37497822.317          44.000       -1148.508
 196738850.982 7  37438164.521          43.000       -1156.764
 07  8 29 13 16  2.0010000  0  9G20G28G17G11G 4G19G23S37S29
 109321842.394 8  20803257.385          49.000       -1493.116
 111100170.002 8  21141665.294          50.000       -2208.781
 113440125.693 8  21586939.681          51.000         839.701
 117022924.275 8  22268723.936          51.000       -3312.850
 124257421.792 7  23645399.659          47.000        1234.203
 133336655.210 7  25373120.617          43.000       -3873.574
 130216007.845 7  24779281.097          44.000        1653.293
 197053544.991 7  37498041.489          43.000       -1155.480
 196740013.417 7  37438385.805          43.000       -1163.837
 07  8 29 13 16  3.0010000  0  9G20G28G17G11G 4G19G23S37S29
 109323334.982 8  20803541.195          49.000       -1492.429
 111102380.701 8  21142086.000          50.000       -2212.056
 113439284.897 8  21586779.437          50.000         842.443
 117026235.414 8  22269353.664          51.000       -3308.414
 124256188.967 7  23645164.935          47.000        1232.031
 133340530.736 6  25373857.975          41.000       -3876.560
 130214355.978 7  24778967.323          44.000        1650.871
 197054701.036 7  37498261.570          43.000       -1158.417
 196741180.308 7  37438607.874          43.000       -1169.209
 07  8 29 13 16  4.0010000  0  9G20G28G17G11G 4G19G23S37S29
 109324827.118 8  20803825.215          48.000       -1491.364
 111104593.796 8  21142506.985          49.000       -2213.770
 113438441.038 8  21586619.193          50.000         845.204
 117029543.247 8  22269982.675          50.000       -3306.634
 124254957.529 7  23644930.439          47.000        1231.082
 133344407.661 6  25374595.857          41.000       -3877.401
 130212707.371 7  24778654.126          45.000        1648.221
 197055860.359 7  37498482.332          43.000       -1160.595
 196742350.565 7  37438830.747          43.000       -1172.202
 07  8 29 13 16  5.0010000  0 10G20G28G17G11G 4G19G23G 1S37S29
 109326319.756 8  20804109.322          48.000       -1492.253
 111106809.260 8  21142928.320          49.000       -2215.290
 113437595.135 8  21586458.739          50.000         847.509
 117032849.153 8  22270611.809          50.000       -3304.458
 124253727.001 7  23644696.153          46.000        1231.277
 133348286.118 7  25375334.036          42.000       -3878.777
 130211061.645 7  24778341.067          46.000        1644.278
 133787937.44436  25458998.007          36.000       -1305.626
 197057022.634 7  37498703.583          44.000       -1162.101
 196743523.764 7  37439054.057          43.000       -1174.296
 07  8 29 13 16  6.0010000  0 10G20G28G17G11G 4G19G23G 1S37S29
 109327812.988 8  20804393.760          49.000       -1493.486
 111109025.853 8  21143350.231          49.000       -2216.939
 113436747.877 8  21586297.307          50.000         847.819
 117036154.348 8  22271240.627          50.000       -3305.322
 124252496.384 7  23644462.023          45.000        1230.827
 133352166.012 6  25376071.970          41.000       -3881.187
 130209417.880 7  24778028.411          46.000        1643.355
 133789244.25427  25459251.262          43.000       -1306.730
 197058186.507 7  37498925.025          44.000       -1163.755
 196744698.505 7  37439277.716          43.000       -1175.643
 07  8 29 13 16  7.0010000  0 10G20G28G17G11G 4G19G23G 1S37S29
 109329306.860 8  20804677.762          49.000       -1493.700
 111111243.113 8  21143772.038          49.000       -2217.257
 113435899.589 8  21586136.137          50.000         849.360
 117039459.317 8  22271869.865          50.000       -3304.190
 124251265.399 7  23644227.649          46.000        1231.755
 133356047.080 6  25376811.266          41.000       -3881.012
 130207775.432 7  24777716.279          46.000        1641.557
 133790551.31927  25459499.579          43.000       -1305.813
 197059351.647 7  37499146.677          44.000       -1164.912
 196745874.265 7  37439501.270          43.000       -1176.648
 07  8 29 13 16  8.0010000  0 10G20G28G17G11G 4G19G23G 1S37S29
 109330801.183 8  20804962.166          49.000       -1494.261
 111113460.730 8  21144193.984          49.000       -2216.850
 113435050.056 8  21585974.706          51.000         850.674
 117042763.939 8  22272498.439          50.000       -3304.661
 124250033.725 7  23643993.084          46.000        1232.266
 133359929.221 6  25377550.281          41.000       -3885.038
 130206134.195 7  24777403.919          47.000        1640.677
 133791858.20727  25459748.785          42.000       -1307.276
 197060517.200 7  37499368.487          44.000       -1165.943
 196747050.543 7  37439725.139          43.000       -1176.003
 07  8 29 13 16  9.0010000  0 10G20G28G17G11G 4G19G23G 1S37S29
 109332296.641 8  20805246.604          49.000       -1496.100
 111115678.028 8  21144616.122          49.000       -2216.364
 113434201.129 8  21585813.098          51.000         847.763
 117046070.049 8  22273127.605          51.000       -3307.580
 124248801.092 7  23643758.292          46.000        1234.195
 133363812.057 7  25378288.844          42.000       -3883.345
 130204492.788 7  24777091.596          47.000        1643.239
 133793167.67227  25459997.781          42.000       -1311.190
 197061681.761 7  37499590.123          44.000       -1162.942
 196748225.548 7  37439948.695          43.000       -1174.080
 07  8 29 13 16 10.0010000  0 10G20G28G17G11G 4G19G23G 1S37S29
 109333793.128 8  20805531.565          49.000       -1497.173
 111117893.387 8  21145037.651          49.000       -2213.964
 113433356.383 8  21585651.856          50.000         841.680
 117049379.529 8  22273757.626          51.000       -3312.060
 124247567.627 7  23643523.761          47.000        1234.251
 133367692.205 7  25379026.920          42.000       -3879.423
 130202846.269 7  24776777.862          46.000        1650.161
 133794483.14827  25460248.311          42.000       -1318.713
 197062841.387 7  37499810.871          44.000       -1156.157
 196749395.822 7  37440171.432          44.000       -1166.482
 07  8 29 13 16 11.0010000  0 10G20G28G17G11G 4G19G23G 1S37S29
 109335290.894 8  20805816.614          50.000       -1499.222
 111120105.965 8  21145458.534          50.000       -2210.748
 113432516.727 8  21585491.958          51.000         837.698
 117052693.406 8  22274388.153          51.000       -3316.860
 124246332.604 7  23643289.178          47.000        1236.789
 133371569.136 6  25379764.071          40.000       -3876.951
 130201193.327 7  24776462.939          45.000        1654.691
 133795806.03827  25460500.812          42.000       -1327.585
 197063994.733 7  37500030.466          45.000       -1152.667
 196750559.204 7  37440393.034          44.000       -1161.962
 07  8 29 13 16 12.0010000  0 10G20G28G17G11G 4G19G23G 1S37S29
 109336790.924 8  20806101.959          50.000       -1501.281
 111122315.683 8  21145879.068          50.000       -2208.247
 113431681.786 8  21585333.316          51.000         832.609
 117056012.978 8  22275020.285          51.000       -3322.106
 124245095.058 7  23643053.619          47.000        1239.268
 133375444.689 6  25380501.692          41.000       -3874.724
 130199535.555 7  24776147.180          45.000        1660.350
 133797137.69226  25460755.110          41.000       -1336.462
 197065142.852 7  37500249.103          44.000       -1144.501
 196751716.891 7  37440613.294          45.000       -1154.337
 07  8 29 13 16 13.0010000  0 10G20G28G17G11G 4G19G23G 1S37S29
 109338293.102 8  20806387.811          50.000       -1502.359
 111124522.267 8  21146298.974          50.000       -2203.980
 113430850.326 8  21585174.832          51.000         830.661
 117059337.882 8  22275653.168          51.000       -3326.844
 124243854.207 8  23642817.659          48.000        1243.241
 133379319.620 7  25381239.051          44.000       -3875.776
 130197874.157 7  24775830.738          46.000        1662.615
 133798477.658 6  25461010.631          41.000       -1343.224
 197066285.919 7  37500466.761          44.000       -1138.725
 196752869.471 7  37440832.732          44.000       -1150.119
 07  8 29 13 16 14.0010000  0 10G20G28G17G11G 4G19G23G 1S37S29
 109339797.362 8  20806673.958          49.000       -1506.120
 111126725.767 8  21146718.321          50.000       -2202.007
 113430021.180 8  21585016.872          50.000         827.578
 117062667.826 8  22276286.678          50.000       -3333.470
 124242609.604 8  23642581.070          48.000        1246.132
 133383195.301 7  25381976.776          43.000       -3877.006
 130196210.645 7  24775513.966          46.000        1665.591
 133799825.479 7  25461266.884          42.000       -1353.322
 197067424.806 7  37500683.337          43.000       -1135.207
 196754017.452 7  37441051.367          44.000       -1145.634
 07  8 29 13 16 15.0010000  0 10G20G28G17G11G 4G19G23G 1S37S29
 109341304.548 8  20806960.804          49.000       -1508.404
 111128926.336 8  21147137.371          50.000       -2199.597
 113429194.617 8  21584859.401          50.000         826.234
 117066003.764 8  22276921.463          50.000       -3338.228
 124241360.903 8  23642343.609          48.000        1250.212
 133387072.546 7  25382715.147          42.000       -3877.380
 130194545.656 7  24775197.000          45.000        1665.393
 133801182.014 7  25461525.651          43.000       -1358.034
 197068559.996 7  37500899.284          42.000       -1134.724
 196755161.958 7  37441269.042          44.000       -1144.458
 07  8 29 13 16 16.0010000  0 10G20G28G17G11G 4G19G23G 1S37S29
 109342813.810 8  20807247.964          49.000       -1509.592
 111131125.902 8  21147556.194          51.000       -2199.191
 113428369.575 8  21584702.505          51.000         825.198
 117069342.979 8  22277557.017          50.000       -3339.841
 124240110.170 8  23642105.762          48.000        1251.135
 133390950.754 6  25383453.378          41.000       -3877.935
 130192879.995 7  24774880.122          46.000        1666.630
 133802543.122 7  25461784.804          44.000       -1361.091
 197069693.650 7  37501114.935          43.000       -1132.744
 196756304.408 7  37441486.332          44.000       -1143.399
 07  8 29 13 16 17.0010000  0 10G20G28G17G11G 4G19G23G 1S37S29
 109344323.452 8  20807535.177          49.000       -1509.208
 111133326.025 8  21147974.754          50.000       -2200.812
 113427544.235 8  21584545.401          51.000         825.994
 117072681.902 8  22278191.874          50.000       -3337.821
 124238859.663 8  23641867.793          48.000        1249.930
 133394829.310 7  25384191.382          42.000       -3880.381
 130191214.769 7  24774563.068          45.000        1664.275
 133803904.538 7  25462043.852          45.000       -1360.613
 197070827.579 7  37501330.914          43.000       -1136.632
 196757447.509 7  37441703.797          44.000       -1144.540
 07  8 29 13 16 18.0010000  0 10G20G28G17G11G 4G19G23G 1S37S29
 109345832.868 8  20807822.530          50.000       -1509.492
 111135528.494 8  21148393.768          50.000       -2204.277
 113426717.733 8  21584388.297          51.000         827.198
 117076018.412 8  22278827.028          51.000       -3335.872
 124237611.325 7  23641630.278          47.000        1247.745
 133398708.125 7  25384929.404          43.000       -3879.109
 130189551.064 7  24774246.590          45.000        1661.511
 133805262.935 7  25462302.570          44.000       -1357.364
 197071963.810 7  37501547.210          44.000       -1137.048
 196758592.493 7  37441921.697          44.000       -1145.828
 07  8 29 13 16 19.0010000  0 10G20G28G17G11G 4G19G23G 1S37S29
 109347342.477 8  20808109.865          50.000       -1509.874
 111137733.002 8  21148813.148          50.000       -2205.035
 113425890.344 8  21584230.757          51.000         828.000
 117079353.221 8  22279461.867          51.000       -3334.761
 124236364.509 7  23641392.849          47.000        1246.127
 133402587.408 7  25385667.723          42.000       -3878.962
 130187888.741 7  24773930.375          45.000        1662.553
 133806619.299 7  25462560.800          42.000       -1353.480
 197073102.003 7  37501763.766          44.000       -1139.931
 196759739.466 7  37442140.033          45.000       -1149.462
 07  8 29 13 16 20.0010000  0 10G20G28G17G11G 4G19G23G 1S37S29
 109348851.849 8  20808397.131          50.000       -1508.671
 111139939.779 8  21149233.331          50.000       -2208.402
 113425061.330 8  21584073.131          51.000         831.401
 117082685.407 8  22280096.097          51.000       -3329.177
 124235119.399 8  23641155.892          48.000        1244.242
 133406467.016 7  25386405.553          44.000       -3880.068
 130186228.066 7  24773614.297          44.000        1658.792
 133807972.172 6  25462818.646          41.000       -1349.051
 197074242.443 7  37501980.759          44.000       -1141.705
 196760888.962 7  37442358.683          43.000       -1152.184
 07  8 29 13 16 21.0010000  0 11G20G28G17G11G 4G19G23G 1S27S37S29
 109350360.213 8  20808683.978          50.000       -1507.523
 111142150.555 8  21149654.071          51.000       -2212.771
 113424229.809 8  21583914.648          51.000         832.037
 117086012.597 8  22280728.861          51.000       -3325.401
 124233877.937 8  23640919.492          48.000        1239.336
 133410346.497 6  25387143.924          41.000       -3878.571
 130184569.984 7  24773298.727          45.000        1656.985
 133809318.263 7  25463074.383          42.000       -1339.103
 215798611.21126  41065110.368          40.000       -1153.655
 197075386.722 7  37502198.431          44.000       -1146.046
 196762042.820 7  37442578.345          44.000       -1154.584
 07  8 29 13 16 22.0010000  0 11G20G28G17G11G 4G19G23G 1S27S37S29
 109351868.973 8  20808971.104          50.000       -1508.102
 111144364.741 8  21150075.511          50.000       -2214.258
 113423397.738 8  21583756.480          51.000         832.957
 117089337.408 8  22281361.450          51.000       -3323.812
 124232639.289 7  23640683.652          47.000        1238.283
 133414225.895 6  25387881.981          40.000       -3878.795
 130182913.324 7  24772983.524          47.000        1657.441
 133810660.653 7  25463329.574          44.000       -1341.889
                  41065362.428          38.000       -1176.342
 197076533.976 7  37502416.907          45.000       -1148.210
 196763199.978 7  37442798.654          44.000       -1155.652
 07  8 29 13 16 23.0010000  0 11G20G28G17G11G 4G19G23G 1S27S37S29
 109353377.569 8  20809258.229          50.000       -1508.663
 111146579.505 8  21150496.916          50.000       -2214.712
 113422565.287 8  21583598.119          51.000         833.324
 117092661.078 8  22281993.898          51.000       -3322.498
 124231401.021 7  23640448.144          47.000        1238.455
 133418104.572 7  25388619.951          42.000       -3878.181
 130181256.169 7  24772668.548          47.000        1657.805
 133812002.172 7  25463584.801          44.000       -1340.480
                  41065583.832          36.000       -1143.252
 197077680.789 7  37502635.122          44.000       -1147.803
 196764356.866 7  37443018.787          43.000       -1158.208
 07  8 29 13 16 24.0010000  0 11G20G28G17G11G 4G19G23G 1S27S37S29
 109354886.164 8  20809545.251          49.000       -1508.452
 111148794.225 8  21150918.409          50.000       -2214.213
 113421731.960 8  21583439.654          51.000         833.028
 117095984.253 8  22282626.329          51.000       -3323.431
 124230162.230 7  23640212.183          47.000        1239.472
 133421983.481 7  25389358.130          43.000       -3878.926
 130179599.217 7  24772353.222          47.000        1657.450
 133813343.719 7  25463840.202          44.000       -1343.005
                  41065805.249          34.000       -1120.682
 197078827.630 7  37502853.355          44.000       -1146.576
 196765513.303 7  37443238.870          44.000       -1156.621
 07  8 29 13 16 25.0010000  0 11G20G28G17G11G 4G19G23G 1S27S37S29
 109356395.784 8  20809832.446          50.000       -1509.512
 111151007.629 8  21151339.501          50.000       -2212.392
 113420899.349 8  21583281.153          51.000         832.330
 117099309.427 8  22283259.177          50.000       -3326.498
 124228921.555 7  23639975.942          47.000        1241.792
 133425862.703 7  25390096.100          43.000       -3878.562
 130177941.279 7  24772037.932          46.000        1658.606
 133814688.781 7  25464096.143          44.000       -1346.782
 215803430.37036  41066027.467          40.000       -1146.873
 197079972.714 7  37503071.153          44.000       -1141.965
 196766667.481 7  37443458.361          44.000       -1151.848
