     2.11           OBSERVATION DATA    M (MIXED)           RINEX VERSION / TYPE
teqc  2007Jun25                         20080118 19:15:47UTCPGM / RUN BY / DATE
MSXP|IAx86-PII|bcc32 5.0|MSWin95->XP|486/DX+                COMMENT
-Unknown-                                                   MARKER NAME
-Unknown-           -Unknown-                               OBSERVER / AGENCY
-Unknown-           U-BLOX              -Unknown-           REC # / TYPE / VERS
-Unknown-           -Unknown-                               ANT # / TYPE
        0.0000        0.0000        0.0000                  APPROX POSITION XYZ
        0.0000        0.0000        0.0000                  ANTENNA: DELTA H/E/N
     1     0                                                WAVELENGTH FACT L1/2
     4    L1    C1    S1    D1                              # / TYPES OF OBSERV
 SNR is mapped to RINEX snr flag value [0-9]                COMMENT
  L1 & L2: min(max(int(snr_dBHz/6), 0), 9)                  COMMENT
  2007     8    29     8    57   26.9980000     GPS         TIME OF FIRST OBS
    14                                                      LEAP SECONDS
                                                            END OF HEADER
 07  8 29  8 57 26.9980000  0 12G19G 3G25G27G16G11G 8G13G22G18S29S37
 108164084.130 8  20582944.273          49.000       -1981.643
 109217562.257 7  20783411.515          47.000       -3552.463
 113577950.842 8  21613166.108          49.000       -1390.385
 120515224.114 6  22933309.893          38.000          76.745
 120126827.173 7  22859377.932          46.000       -4267.263
 121188916.287 7  23061490.552          43.000        1443.446
                  24371289.423          27.000        1382.356
 130466439.593 5  24826917.271          35.000       -4597.121
 130100552.596 5  24757337.305          35.000        -646.689
                  25754584.144          26.000       -1889.050
 195545726.193 7  37211120.326          43.000       -2042.820
 195874902.493 7  37273758.998          43.000       -2046.689
 07  8 29  8 57 27.9980000  0 13G19G 3G25G27G16G11G 8G13G22G18G23S29
                                S37
 108166064.054 8  20583321.200          49.000       -1977.849
 109221113.254 7  20784087.590          47.000       -3549.001
 113579339.470 8  21613430.533          49.000       -1387.025
 120515144.801 6  22933295.726          39.000          81.044
 120131092.795 7  22860189.857          46.000       -4263.645
 121187471.585 7  23061215.956          42.000        1446.713
                  24371017.849          24.000        1392.273
 130471033.864 5  24827790.046          35.000       -4592.420
 130101198.375 6  24757460.907          36.000        -642.044
                  25754930.129          25.000       -1892.270
                  25473133.576          25.000       -4693.536
 195547768.092 7  37211508.839          43.000       -2038.273
 195876946.540 7  37274148.122          42.000       -2041.067
 07  8 29  8 57 28.9980000  0 13G19G 3G25G27G16G11G 8G13G22G18G23S29
                                S37
 108168040.342 8  20583697.620          49.000       -1974.561
 109224660.517 7  20784762.863          47.000       -3545.377
 113580724.715 8  21613694.556          49.000       -1383.328
 120515061.881 6  22933280.144          39.000          83.922
 120135354.704 7  22861000.875          46.000       -4259.506
 121186023.138 7  23060939.930          43.000        1450.040
                  24370747.977          24.000        1380.224
 130475624.284 5  24828663.256          33.000       -4588.312
 130101840.517 6  24757583.583          36.000        -639.789
                  25755241.728          25.000       -1870.075
                  25474017.641          25.000       -4687.953
 195549805.958 7  37211896.881          43.000       -2035.713
 195878986.516 7  37274536.304          42.000       -2037.132
 07  8 29  8 57 29.9980000  0 13G19G 3G25G27G16G11G 8G13G22G18G23S29
                                S37
 108170013.093 8  20584073.027          49.000       -1971.326
 109228204.171 8  20785437.106          48.000       -3541.519
 113582106.688 8  21613957.567          49.000       -1380.619
 120514975.590 6  22933263.567          40.000          86.953
 120139612.977 7  22861811.369          46.000       -4256.161
 121184571.011 7  23060663.433          43.000        1454.207
                  24370481.001          23.000        1367.069
 130480210.969 5  24829535.489          33.000       -4584.017
 130102479.107 6  24757706.695          37.000        -636.359
                  25755544.744          25.000       -1889.594
                  25474910.623          25.000       -4681.812
 195551839.941 7  37212283.841          43.000       -2032.636
 195881022.808 7  37274923.682          42.000       -2036.029
 07  8 29  8 57 30.9980000  0 13G19G 3G25G27G16G11G 8G13G22G18G23S29
                                S37
 108171982.523 8  20584447.982          50.000       -1967.342
 109231744.389 8  20786111.139          48.000       -3537.797
 113583485.555 8  21614220.124          49.000       -1377.160
 120514886.005 6  22933246.869          40.000          91.098
 120143867.791 7  22862621.061          46.000       -4252.790
 121183115.431 7  23060386.569          43.000        1456.731
                  24370206.454          29.000        1406.366
 130484794.064 5  24830407.077          34.000       -4580.947
 130103114.364 6  24757829.494          36.000        -631.961
                  25755894.714          24.000       -1872.454
                  25475797.356          26.000       -4680.378
 195553870.085 7  37212670.085          43.000       -2029.382
 195883055.403 7  37275310.625          42.000       -2031.368
 07  8 29  8 57 31.9980000  0 13G19G 3G25G27G16G11G 8G13G22G18G23S29
                                S37
 108173948.544 8  20584822.238          50.000       -1964.029
 109235281.114 8  20786784.457          48.000       -3534.306
 113584861.287 8  21614482.105          49.000       -1373.964
 120514793.125 6  22933228.757          39.000          94.986
 120148119.141 7  22863430.264          46.000       -4249.059
 121181656.325 6  23060108.188          41.000        1462.284
                  24369932.661          30.000        1407.174
 130489373.412 5  24831278.227          35.000       -4577.996
 130103746.238 6  24757952.379          37.000        -630.296
                  25756245.847          25.000       -1873.243
                  25476681.192          25.000       -4680.589
 195555896.489 7  37213055.702          43.000       -2024.365
 195885084.076 7  37275696.643          42.000       -2027.204
 07  8 29  8 57 32.9980000  0 13G19G 3G25G27G16G11G 8G13G22G18G23S29
                                S37
 108175910.829 8  20585195.552          50.000       -1960.243
 109238814.000 8  20787456.659          48.000       -3530.582
 113586233.522 8  21614742.970          49.000       -1371.100
 120514696.682 6  22933210.383          40.000          98.233
 120152366.607 7  22864238.594          46.000       -4245.381
 121180193.374 7  23059829.247          43.000        1464.719
                  24369659.706          29.000        1411.691
 130493948.904 6  24832149.570          36.000       -4575.092
 130104374.390 5  24758074.061          35.000        -625.916
                  25756606.982          25.000       -1867.536
                  25477564.159          25.000       -4672.469
 195557918.910 7  37213440.393          42.000       -2021.781
 195887108.733 6  37276082.050          41.000       -2022.990
 07  8 29  8 57 33.9980000  0 13G19G 3G25G27G16G11G 8G13G22G18G23S29
                                S37
 108177869.711 8  20585568.185          50.000       -1956.689
 109242343.387 8  20788128.371          48.000       -3527.311
 113587602.594 8  21615003.991          49.000       -1367.469
 120514596.851 6  22933191.642          40.000         100.229
 120156610.602 7  22865045.755          46.000       -4241.869
 121178726.892 7  23059550.219          43.000        1467.486
                  24369388.933          28.000        1417.209
 130498520.662 6  24833018.715          37.000       -4570.171
 130104999.098 6  24758192.933          38.000        -624.823
                  25756978.114          25.000       -1865.121
                  25478441.488          24.000       -4668.407
 195559937.729 7  37213824.579          43.000       -2016.372
 195889129.761 7  37276466.724          42.000       -2017.946
 07  8 29  8 57 34.9980000  0 12G19G 3G25G27G16G11G 8G13G22G18S29S37
 108179825.072 8  20585940.033          50.000       -1953.177
 109245869.156 8  20788799.386          48.000       -3523.389
 113588968.411 8  21615263.844          49.000       -1363.665
 120514493.654 6  22933171.123          39.000         105.279
 120160850.957 7  22865852.620          46.000       -4238.248
 121177256.819 7  23059269.638          42.000        1471.473
                  24369113.988          29.000        1418.482
 130503088.718 6  24833887.441          38.000       -4566.659
 130105619.79235  24758312.103          35.000        -617.708
                  25757397.497          27.000       -1860.643
 195561952.416 7  37214207.962          43.000       -2010.818
 195891146.927 7  37276850.752          42.000       -2015.586
 07  8 29  8 57 35.9980000  0 12G19G 3G25G27G16G11G 8G13G22G18S29S37
 108181777.112 8  20586311.427          49.000       -1950.175
 109249391.515 8  20789469.790          48.000       -3519.683
 113590331.155 8  21615523.085          49.000       -1361.189
 120514387.207 6  22933150.690          40.000         108.260
 120165087.890 7  22866658.472          46.000       -4234.996
 121175783.231 7  23058989.337          42.000        1475.848
                  24368836.514          27.000        1423.134
 130507653.177 6  24834754.910          39.000       -4561.902
 130106237.65925  24758430.661          35.000        -614.443
                  25757796.322          31.000       -1859.037
 195563963.495 7  37214590.751          43.000       -2007.837
 195893160.110 7  37277233.856          42.000       -2010.035
 07  8 29  8 57 36.9980000  0 12G19G 3G25G27G16G11G 8G13G22G18S29S37
 108183725.720 8  20586682.089          49.000       -1946.525
 109252910.355 8  20790139.582          48.000       -3517.088
 113591690.703 8  21615781.996          49.000       -1357.917
 120514277.445 6  22933129.000          40.000         111.843
 120169321.310 7  22867463.853          46.000       -4231.031
 121174306.118 7  23058708.599          43.000        1479.600
                  24368555.409          29.000        1425.324
 130512213.940 6  24835623.077          38.000       -4559.285
 130106852.09426  24758548.590          36.000        -612.872
                  25758148.958          29.000       -1854.595
 195565971.242 7  37214972.755          43.000       -2006.321
 195895169.339 7  37277616.052          43.000       -2007.466
 07  8 29  8 57 37.9980000  0 12G19G 3G25G27G16G11G 8G13G22G18S29S37
 108185670.781 8  20587052.052          49.000       -1943.111
 109256425.547 8  20790808.503          48.000       -3513.347
 113593046.963 8  21616040.016          49.000       -1354.385
 120514164.261 6  22933107.642          40.000         114.413
 120173551.066 7  22868268.571          45.000       -4228.415
 121172825.348 7  23058427.059          42.000        1482.975
                  24368277.882          29.000        1428.632
 130516770.979 6  24836489.412          39.000       -4555.277
 130107462.98725  24758664.270          35.000        -607.423
                  25758502.762          29.000       -1852.468
 195567975.237 7  37215354.078          43.000       -2002.827
 195897174.821 6  37277997.690          41.000       -2003.811
 07  8 29  8 57 38.9980000  0 12G19G 3G25G27G16G11G 8G13G22G18S29S37
 108187612.636 8  20587421.596          49.000       -1940.191
 109259937.413 8  20791476.621          48.000       -3509.516
 113594400.259 8  21616297.582          49.000       -1351.759
 120514047.944 6  22933085.970          40.000         117.635
 120177777.512 7  22869073.551          46.000       -4224.692
 121171341.250 7  23058144.628          42.000        1486.349
                  24367999.989          28.000        1431.841
 130521324.559 6  24837356.777          39.000       -4550.143
 130108070.69125  24758779.634          34.000        -605.378
                  25758855.799          31.000       -1847.750
 195569975.426 7  37215734.670          42.000       -1996.580
 195899177.153 7  37278378.716          42.000       -2001.198
 07  8 29  8 57 39.9980000  0 12G19G 3G25G27G16G11G 8G13G22G18S29S37
 108189551.026 8  20587790.338          49.000       -1936.276
 109263445.742 8  20792144.564          48.000       -3506.638
 113595750.367 8  21616554.485          48.000       -1348.372
 120513928.271 6  22933062.885          40.000         120.599
 120182000.410 7  22869877.467          46.000       -4221.070
 121169853.572 7  23057860.924          42.000        1489.950
                  24367721.257          29.000        1434.286
 130525874.438 6  24838222.868          38.000       -4546.281
 130108674.94125  24758893.828          33.000        -604.874
                  25759206.567          30.000       -1845.060
 195571971.886 7  37216114.702          42.000       -1994.024
 195901175.833 6  37278759.045          41.000       -1997.157
 07  8 29  8 57 40.9980000  0 12G19G 3G25G27G16G11G 8G13G22G18S29S37
 108191485.990 8  20588158.818          49.000       -1933.595
 109266950.540 8  20792811.687          48.000       -3503.154
 113597097.279 8  21616811.022          49.000       -1345.382
 120513805.277 6  22933038.596          39.000         125.461
 120186219.766 7  22870680.649          46.000       -4217.438
 121168362.335 7  23057577.167          42.000        1493.055
                  24367444.131          28.000        1435.678
 130530420.647 6  24839088.679          38.000       -4544.354
 130109275.70425  24759007.449          32.000        -598.571
                  25759558.974          31.000       -1844.837
 195573964.408 7  37216493.582          43.000       -1989.765
 195903170.800 7  37279138.502          42.000       -1992.004
 07  8 29  8 57 41.9980000  0 12G19G 3G25G27G16G11G 8G13G22G18S29S37
 108193417.698 8  20588526.251          49.000       -1929.803
 109270451.984 8  20793478.130          48.000       -3499.187
 113598441.189 8  21617067.088          49.000       -1342.102
 120513679.122 6  22933014.498          39.000         127.602
 120190435.774 7  22871482.872          46.000       -4214.391
 121166867.739 7  23057292.625          42.000        1495.986
                  24367170.182          28.000        1439.682
 130534963.343 6  24839953.496          39.000       -4539.887
 130109873.22325  24759119.655          31.000        -595.683
 135369242.79635  25759910.475          32.000       -1840.771
 195575953.156 7  37216872.009          42.000       -1987.153
 195905161.757 7  37279517.539          42.000       -1989.637
 07  8 29  8 57 42.9980000  0 12G19G 3G25G27G16G11G 8G13G22G18S29S37
 108195345.992 8  20588893.335          49.000       -1926.659
 109273949.919 8  20794143.927          48.000       -3496.440
 113599781.937 8  21617322.333          49.000       -1339.369
 120513549.677 6  22932989.755          40.000         130.933
 120194648.267 7  22872285.025          46.000       -4210.446
 121165369.594 7  23057007.455          42.000        1500.040
                  24366895.257          29.000        1447.865
 130539502.391 6  24840817.474          39.000       -4537.638
 130110467.887 5  24759231.267          30.000        -594.491
 135371081.17525  25760259.953          33.000       -1834.284
 195577938.119 7  37217249.668          42.000       -1982.725
 195907148.897 7  37279895.687          43.000       -1985.382
 07  8 29  8 57 43.9980000  0 12G19G 3G25G27G16G11G 8G13G22G18S29S37
 108197271.051 8  20589259.512          49.000       -1923.552
 109277444.510 8  20794809.270          48.000       -3492.700
 113601119.683 8  21617576.584          49.000       -1336.229
 120513417.082 6  22932964.349          39.000         134.828
 120198857.427 7  22873085.869          46.000       -4207.367
 121163868.101 7  23056721.988          42.000        1502.334
                  24366620.625          29.000        1447.567
 130544037.937 6  24841680.546          39.000       -4533.701
 130111058.724 4  24759342.184          29.000        -586.102
 135372916.49225  25760608.050          33.000       -1834.831
 195579919.635 7  37217626.594          43.000       -1979.608
 195909132.186 7  37280272.997          42.000       -1980.467
 07  8 29  8 57 44.9980000  0 12G19G 3G25G27G16G11G 8G13G22G18S29S37
 108199192.855 8  20589625.252          49.000       -1920.025
 109280935.735 8  20795473.706          48.000       -3489.309
 113602454.427 8  21617830.957          49.000       -1332.908
 120513281.331 6  22932938.314          39.000         137.670
 120203063.222 7  22873886.242          46.000       -4203.987
 121162363.220 7  23056435.405          42.000        1508.131
                  24366348.455          31.000        1450.185
 130548570.028 6  24842542.728          39.000       -4529.119
                  24759450.812          25.000        -584.100
 135374748.64125  25760955.118          33.000       -1831.868
 195581897.295 7  37218002.770          42.000       -1975.725
 195911111.801 7  37280649.801          42.000       -1978.796
 07  8 29  8 57 45.9980000  0 12G19G 3G25G27G16G11G 8G13G22G18S29S37
 108201111.300 8  20589990.295          49.000       -1916.981
 109284423.540 8  20796137.513          48.000       -3486.203
 113603786.076 8  21618084.388          49.000       -1329.911
 120513142.346 6  22932911.424          39.000         139.407
 120207265.573 7  22874685.864          46.000       -4201.132
 121160854.891 7  23056148.315          42.000        1510.535
                  24366073.580          29.000        1451.497
 130553098.495 6  24843403.496          40.000       -4526.519
                  24759552.617          25.000        -583.378
 135376577.57325  25761301.263          34.000       -1826.858
 195583871.412 7  37218378.544          42.000       -1971.113
 195913087.792 7  37281025.854          42.000       -1975.131
 07  8 29  8 57 46.9980000  0 12G19G 3G25G27G16G11G 8G13G22G18S29S37
 108203026.505 8  20590354.814          49.000       -1913.279
 109287907.979 7  20796800.745          47.000       -3482.995
 113605114.738 8  21618337.051          49.000       -1327.017
 120513000.182 6  22932883.488          38.000         144.216
 120211464.560 7  22875485.278          46.000       -4197.083
 121159343.196 7  23055860.388          42.000        1513.738
                  24365797.973          30.000        1457.821
 130557623.481 6  24844263.811          40.000       -4522.490
                  24759655.418          26.000        -578.073
 135378403.43125  25761646.760          34.000       -1826.454
 195585841.839 7  37218753.533          42.000       -1968.201
 195915060.213 6  37281401.245          41.000       -1971.364
 07  8 29  8 57 47.9980000  0 12G19G 3G25G27G16G11G 8G13G22G18S29S37
 108204938.471 8  20590718.634          50.000       -1910.409
 109291389.091 7  20797463.139          47.000       -3479.521
 113606440.394 8  21618589.417          49.000       -1324.196
 120512854.912 6  22932855.848          38.000         146.328
 120215660.219 7  22876283.905          46.000       -4194.424
 121157828.152 7  23055571.885          42.000        1516.483
                  24365522.768          30.000        1464.229
 130562145.002 6  24845123.759          39.000       -4519.317
                  24759759.981          26.000        -574.943
 135380226.16125  25761992.259          33.000       -1820.489
 195587808.785 7  37219128.016          42.000       -1964.376
 195917028.905 7  37281775.816          42.000       -1965.704
 07  8 29  8 57 48.9980000  0 12G19G 3G25G27G16G11G 8G13G22G18S29S37
 108206847.160 8  20591081.740          50.000       -1907.093
 109294866.832 8  20798124.783          48.000       -3476.113
 113607763.041 8  21618841.277          49.000       -1320.593
 120512706.475 6  22932827.912          39.000         150.220
 120219852.518 7  22877081.591          46.000       -4191.089
 121156309.704 7  23055283.085          42.000        1519.507
                  24365245.712          31.000        1466.115
 130566663.036 6  24845982.502          39.000       -4516.679
                  24759867.022          27.000        -572.841
 135382046.284 5  25762336.867          34.000       -1817.493
 195589772.250 7  37219501.610          42.000       -1958.614
 195918994.099 6  37282149.636          41.000       -1962.500
 07  8 29  8 57 49.9980000  0 12G19G 3G25G27G16G11G 8G13G22G18S29S37
 108208752.769 8  20591444.426          50.000       -1904.107
 109298341.373 8  20798786.060          48.000       -3472.452
 113609082.846 8  21619092.544          49.000       -1318.290
 120512555.041 6  22932798.631          38.000         152.709
 120224041.611 7  22877878.823          46.000       -4187.736
 121154788.055 7  23054993.430          42.000        1523.609
                  24364969.877          30.000        1467.661
 130571177.715 6  24846841.980          39.000       -4512.101
                  24759979.140          29.000        -571.711
 135383862.938 5  25762680.915          33.000       -1817.750
 195591732.662 7  37219874.539          43.000       -1958.288
 195920956.131 7  37282523.106          43.000       -1959.861
 07  8 29  8 57 50.9980000  0 12G19G 3G25G27G16G11G 8G13G22G18S29S37
 108210655.162 8  20591806.868          50.000       -1901.208
 109301812.608 8  20799446.639          48.000       -3469.452
 113610399.705 8  21619343.305          50.000       -1315.131
 120512400.523 6  22932769.264          38.000         157.657
 120228227.415 7  22878675.270          46.000       -4183.998
 121153263.057 7  23054703.042          42.000        1526.245
                  24364692.804          31.000        1471.945
 130575688.919 6  24847699.153          39.000       -4509.505
                  24760091.503          29.000        -567.299
 135385676.551 5  25763024.408          33.000       -1812.509
 195593689.473 7  37220246.875          43.000       -1955.835
 195922914.836 7  37282895.652          43.000       -1957.959
 07  8 29  8 57 51.9980000  0 12G19G 3G25G27G16G11G 8G13G22G18S29S37
 108212554.458 8  20592168.438          50.000       -1897.736
 109305280.660 8  20800106.747          48.000       -3466.501
 113611713.704 8  21619593.402          49.000       -1312.676
 120512243.018 6  22932738.761          38.000         158.414
 120232410.003 7  22879471.402          46.000       -4181.004
 121151734.876 7  23054412.340          42.000        1530.007
                  24364416.358          30.000        1472.869
 130580196.823 6  24848555.297          38.000       -4506.003
                  24760202.942          30.000        -563.503
 135387487.157 5  25763367.952          32.000       -1806.029
 195595643.116 7  37220618.602          42.000       -1951.129
 195924870.484 7  37283267.849          42.000       -1953.112
 07  8 29  8 57 52.9980000  0 12G19G 3G25G27G16G11G 8G13G22G18S29S37
 108214450.670 8  20592529.310          50.000       -1894.307
 109308745.522 8  20800766.018          48.000       -3462.992
 113613024.872 8  21619842.976          50.000       -1309.637
 120512082.501 6  22932707.876          38.000         161.849
 120236589.423 7  22880266.540          46.000       -4177.305
 121150203.472 7  23054120.958          42.000        1533.072
 128034417.04835  24364139.494          32.000        1475.517
 130584701.351 6  24849410.621          39.000       -4501.968
                  24760313.822          32.000        -560.344
 135389294.860 5  25763710.464          31.000       -1808.557
 195597592.820 7  37220989.560          43.000       -1946.987
 195926822.353 6  37283639.384          41.000       -1947.706
 07  8 29  8 57 53.9980000  0 12G19G 3G25G27G16G11G 8G13G22G18S29S37
 108216343.721 8  20592889.553          50.000       -1891.393
 109312207.140 8  20801424.904          48.000       -3459.446
 113614333.137 8  21620091.852          50.000       -1306.776
 120511918.965 6  22932676.606          37.000         164.830
 120240765.561 7  22881061.102          45.000       -4173.981
 121148668.818 7  23053829.069          42.000        1536.522
 128032938.11725  24363860.519          32.000        1479.407
 130589202.540 6  24850265.490          38.000       -4498.896
 130116899.93235  24760422.869          33.000        -558.113
 135391099.500 5  25764053.258          32.000       -1805.530
 195599538.580 7  37221359.820          42.000       -1942.582
 195928770.554 7  37284010.027          42.000       -1947.298
 07  8 29  8 57 54.9980000  0 12G19G 3G25G27G16G11G 8G13G22G18S29S37
 108218233.604 8  20593249.012          50.000       -1888.057
 109315665.502 8  20802083.041          48.000       -3456.227
 113615638.477 8  21620340.240          50.000       -1303.608
 120511752.322 6  22932645.092          38.000         166.375
 120244938.459 7  22881854.984          45.000       -4170.931
 121147130.875 7  23053536.273          43.000        1539.374
 128031456.03025  24363582.293          32.000        1482.390
 130593700.287 6  24851119.156          37.000       -4496.975
 130117455.71425  24760532.214          35.000        -553.213
 135392901.127 5  25764395.773          31.000       -1800.106
 195601480.854 7  37221729.697          42.000       -1938.794
 195930714.954 7  37284380.078          43.000       -1942.266
 07  8 29  8 57 55.9980000  0 12G19G 3G25G27G16G11G 8G13G22G18S29S37
 108220120.473 8  20593608.348          50.000       -1885.166
 109319120.735 8  20802740.880          48.000       -3453.533
 113616941.046 8  21620588.383          50.000       -1301.178
 120511582.821 6  22932612.287          38.000         170.565
 120249108.218 7  22882648.341          45.000       -4168.165
 121145589.787 7  23053242.988          43.000        1542.405
 128029970.94625  24363302.708          32.000        1486.514
 130598194.783 6  24851973.835          37.000       -4491.558
 130118008.45526  24760639.481          36.000        -550.959
 135394699.873 5  25764737.710          30.000       -1797.820
 195603419.971 7  37222098.803          43.000       -1939.291
 195932655.795 7  37284749.465          43.000       -1939.953
 07  8 29  8 57 56.9980000  0 12G19G 3G25G27G16G11G 8G13G22G18S29S37
 108222004.352 8  20593967.160          50.000       -1882.086
 109322572.901 8  20803397.812          48.000       -3450.321
 113618240.867 8  21620835.601          49.000       -1297.895
 120511410.361 6  22932579.185          37.000         172.723
 120253274.908 7  22883440.670          45.000       -4164.258
 121144045.598 7  23052949.565          43.000        1546.764
 128028482.70625  24363022.407          32.000        1491.636
 130602686.052 5  24852828.408          34.000       -4489.086
 130118558.13826  24760747.220          37.000        -547.275
 135396495.755 5  25765079.422          30.000       -1792.821
 195605355.756 7  37222467.093          43.000       -1932.239
 195934593.276 7  37285118.103          43.000       -1935.003
 07  8 29  8 57 57.9980000  0 12G19G 3G25G27G16G11G 8G13G22G18S29S37
 108223885.130 8  20594325.013          50.000       -1879.188
 109326021.871 8  20804053.941          48.000       -3447.665
 113619537.840 8  21621082.488          49.000       -1295.131
 120511234.960 6  22932545.595          37.000         178.298
 120257438.387 7  22884232.352          45.000       -4161.745
 121142498.148 7  23052655.267          43.000        1548.783
 128026991.27125  24362742.574          32.000        1489.499
 130607174.010 5  24853683.173          35.000       -4486.921
 130119104.79226  24760855.047          36.000        -543.089
 135398288.634 5  25765420.976          30.000       -1792.122
 195607288.158 7  37222834.718          42.000       -1928.833
 195936527.502 7  37285486.006          42.000       -1933.172
 07  8 29  8 57 58.9980000  0 12G19G 3G25G27G16G11G 8G13G22G18S29S37
 108225762.872 8  20594682.517          50.000       -1875.931
 109329467.707 8  20804709.809          48.000       -3444.080
 113620832.053 8  21621328.572          49.000       -1292.545
 120511056.579 6  22932511.603          36.000         180.513
 120261598.726 7  22885023.651          45.000       -4158.613
 121140947.614 7  23052360.116          42.000        1552.302
 128025496.79625  24362461.366          31.000        1493.819
 130611658.674 5  24854537.065          35.000       -4483.653
 130119648.39526  24760961.773          36.000        -541.302
                  25765757.889          27.000       -1788.560
 195609217.371 7  37223201.889          42.000       -1926.384
 195938458.599 7  37285853.509          42.000       -1929.589
 07  8 29  8 57 59.9980000  0 11G19G 3G25G27G16G11G 8G13G22S29S37
 108227637.596 8  20595039.514          50.000       -1872.967
 109332910.442 8  20805364.909          48.000       -3441.368
 113622123.495 8  21621574.586          49.000       -1289.917
 120510875.389 5  22932476.057          35.000         181.462
 120265755.981 7  22885814.479          45.000       -4155.733
 121139393.945 7  23052064.527          42.000        1554.455
                  24362179.387          32.000        1491.929
 130616140.066 6  24855390.819          36.000       -4479.553
 130120188.99526  24761067.906          36.000        -539.428
 195611143.026 7  37223568.345          42.000       -1922.781
 195940386.650 7  37286220.453          42.000       -1926.957
 07  8 29  8 58  0.9980000  0 11G19G 3G25G27G16G11G 8G13G22S29S37
 108229509.218 8  20595395.867          50.000       -1869.779
 109336349.987 7  20806019.293          47.000       -3438.189
 113623412.079 8  21621819.588          49.000       -1287.317
 120510691.136 6  22932439.797          36.000         184.942
 120269910.002 7  22886604.957          45.000       -4152.160
 121137837.036 7  23051768.102          42.000        1558.358
 128022628.52425  24361896.366          32.000        1504.312
 130620618.125 6  24856244.135          37.000       -4476.928
 130120726.505 6  24761173.638          37.000        -535.715
 195613065.243 7  37223934.399          42.000       -1920.828
 195942311.517 7  37286586.718          43.000       -1922.854
 07  8 29  8 58  1.9980000  0 11G19G 3G25G27G16G11G 8G13G22S29S37
 108231377.883 8  20595751.660          50.000       -1867.119
 109339786.459 7  20806672.822          47.000       -3434.912
 113624697.974 8  21622064.573          49.000       -1284.587
 120510504.013 6  22932404.200          36.000         188.900
 120274060.993 7  22887395.035          45.000       -4149.042
 121136277.082 7  23051471.240          42.000        1562.139
 128021124.75635  24361612.209          32.000        1508.117
 130625092.952 6  24857096.126          38.000       -4473.543
 130121261.029 6  24761277.032          37.000        -532.464
 195614983.858 7  37224299.459          42.000       -1915.954
 195944232.869 7  37286952.110          43.000       -1917.694
 07  8 29  8 58  2.9980000  0 11G19G 3G25G27G16G11G 8G13G22S29S37
 108233243.551 8  20596106.773          50.000       -1863.405
 109343219.846 7  20807325.951          47.000       -3431.138
 113625981.110 8  21622308.808          49.000       -1281.097
 120510314.036 6  22932367.468          36.000         191.234
 120278208.883 7  22888184.100          45.000       -4145.565
 121134713.972 7  23051173.645          42.000        1564.213
 128019617.90835  24361327.404          32.000        1509.031
 130629564.566 6  24857947.489          39.000       -4470.333
 130121792.612 6  24761378.593          36.000        -531.060
 195616899.653 7  37224664.048          43.000       -1911.741
 195946150.426 7  37287316.960          43.000       -1915.690
 07  8 29  8 58  3.9980000  0 11G19G 3G25G27G16G11G 8G13G22S29S37
 108235106.238 8  20596461.084          50.000       -1861.017
 109346650.138 7  20807978.747          47.000       -3428.494
 113627261.519 8  21622552.361          49.000       -1278.609
 120510121.162 5  22932330.649          35.000         194.227
 120282353.688 7  22888972.851          45.000       -4143.321
 121133147.788 7  23050875.666          42.000        1567.388
 128018108.10325  24361041.745          32.000        1513.140
 130634032.931 6  24858796.600          39.000       -4466.735
 130122321.155 5  24761479.823          35.000        -526.508
 195618811.938 7  37225027.851          42.000       -1910.559
 195948064.877 6  37287681.322          41.000       -1910.657
 07  8 29  8 58  4.9980000  0 12G19G 3G25G27G16G11G 8G13G22G23S29S37
 108236965.935 8  20596815.115          50.000       -1858.210
 109350077.355 7  20808630.810          47.000       -3425.497
 113628539.190 8  21622795.548          49.000       -1276.082
 120509925.446 5  22932292.993          35.000         196.983
 120286495.426 7  22889761.131          45.000       -4139.995
 121131578.513 7  23050577.636          42.000        1571.114
 128016595.18025  24360755.406          32.000        1515.511
 130638498.106 6  24859645.171          39.000       -4462.718
 130122846.783 5  24761578.732          35.000        -524.538
                  25505618.796          27.000       -4555.798
 195620720.616 7  37225390.992          42.000       -1906.217
 195949975.857 6  37288044.933          41.000       -1908.278
 07  8 29  8 58  5.9980000  0 12G19G 3G25G27G16G11G 8G13G22G23S29S37
 108238822.795 8  20597168.430          50.000       -1855.324
 109353501.642 7  20809282.368          47.000       -3422.644
 113629814.278 8  21623038.107          49.000       -1274.035
 120509726.965 5  22932254.272          34.000         200.212
 120290634.199 7  22890549.131          45.000       -4137.315
 121130006.281 7  23050278.453          42.000        1573.763
 128015079.40335  24360468.472          31.000        1516.309
 130642960.197 6  24860494.230          38.000       -4459.610
 130123369.531 5  24761677.378          34.000        -523.218
                  25506475.656          26.000       -4550.492
 195622626.385 7  37225753.905          42.000       -1903.991
 195951883.521 7  37288407.899          42.000       -1905.767
 07  8 29  8 58  6.9980000  0 12G19G 3G25G27G16G11G 8G13G22G23S29S37
 108240676.868 8  20597521.275          50.000       -1852.175
 109356923.049 7  20809932.965          47.000       -3419.281
 113631086.843 8  21623280.108          49.000       -1270.939
 120509525.801 5  22932215.673          34.000         203.357
 120294770.092 7  22891336.277          45.000       -4134.102
 121128431.156 7  23049978.904          43.000        1577.872
 128013560.70725  24360180.911          32.000        1519.606
 130647419.235 6  24861342.207          37.000       -4455.785
 130123889.491 5  24761775.503          34.000        -518.973
                  25507334.611          25.000       -4544.914
 195624528.805 7  37226116.050          42.000       -1900.797
 195953788.172 6  37288770.463          41.000       -1903.325
 07  8 29  8 58  7.9980000  0 12G19G 3G25G27G16G11G 8G13G22G23S29S37
 108242527.867 8  20597873.352          50.000       -1849.462
 109360341.288 7  20810583.319          47.000       -3416.114
 113632356.571 8  21623521.288          49.000       -1268.360
 120509321.679 5  22932177.284          35.000         205.124
 120298902.828 7  22892123.108          46.000       -4130.740
 121126852.826 7  23049678.866          43.000        1581.406
                  24359888.551          31.000        1522.882
 130651874.942 6  24862190.358          37.000       -4454.947
 130124406.410 5  24761872.912          33.000        -512.689
                  25508196.127          25.000       -4547.424
 195626427.871 7  37226477.568          42.000       -1895.710
 195955689.535 7  37289132.225          43.000       -1899.294
 07  8 29  8 58  8.9980000  0 12G19G 3G25G27G16G11G 8G13G22G23S29S37
 108244375.990 8  20598225.027          51.000       -1846.694
 109363756.541 7  20811232.956          47.000       -3413.323
 113633623.672 8  21623762.486          49.000       -1265.379
 120509114.731 5  22932137.986          35.000         204.997
 120303032.574 7  22892909.189          45.000       -4128.144
 121125271.494 7  23049377.868          43.000        1582.578
                  24359593.871          29.000        1527.492
 130656327.673 5  24863037.601          34.000       -4453.538
 130124920.449 5  24761969.656          33.000        -512.362
                  25509054.035          27.000       -4539.458
 195628323.868 7  37226838.317          43.000       -1894.118
 195957587.779 7  37289493.515          43.000       -1896.284
 07  8 29  8 58  9.9980000  0 12G19G 3G25G27G16G11G 8G13G22G23S29S37
 108246221.062 8  20598576.318          51.000       -1843.576
 109367168.654 7  20811882.105          47.000       -3410.945
 113634887.980 8  21624003.143          49.000       -1262.889
 120508904.36935  22932097.905          34.000         211.462
 120307159.163 7  22893694.922          46.000       -4124.707
 121123687.022 7  23049076.486          43.000        1585.435
                  24359302.610          31.000        1529.092
 130660777.006 5  24863884.831          34.000       -4443.331
 130125431.392 5  24762065.494          32.000        -508.990
                  25509912.796          27.000       -4537.128
 195630216.477 7  37227198.596          42.000       -1890.073
 195959482.471 6  37289854.108          41.000       -1893.417
 07  8 29  8 58 10.9980000  0 12G19G 3G25G27G16G11G 8G13G22G23S29S37
 108248063.336 8  20598927.121          51.000       -1841.119
 109370577.882 7  20812530.836          47.000       -3408.039
 113636149.743 8  21624243.277          49.000       -1260.642
 120508691.86325  22932057.404          35.000         213.799
 120311282.865 7  22894480.130          46.000       -4122.293
 121122099.630 7  23048774.564          43.000        1588.586
                  24359008.384          32.000        1532.326
 130665223.271 5  24864731.498          34.000       -4442.852
 130125939.602 5  24762160.790          32.000        -507.700
                  25510772.308          27.000       -4532.409
 195632105.655 7  37227558.229          42.000       -1886.841
 195961373.869 6  37290214.090          41.000       -1889.076
 07  8 29  8 58 11.9980000  0 12G19G 3G25G27G16G11G 8G13G22G23S29S37
 108249902.855 8  20599277.069          51.000       -1837.802
 109373984.239 7  20813178.746          47.000       -3405.362
 113637408.994 8  21624483.009          49.000       -1257.753
 120508476.65325  22932016.624          35.000         216.339
 120315403.709 7  22895264.885          46.000       -4119.667
 121120509.374 7  23048472.135          43.000        1592.079
                  24358716.723          30.000        1537.557
 130669666.584 5  24865577.450          34.000       -4442.666
 130126445.004 5  24762255.913          31.000        -503.071
                  25511630.703          26.000       -4529.694
 195633991.820 7  37227917.076          42.000       -1884.605
 195963261.510 7  37290573.408          42.000       -1886.071
 07  8 29  8 58 12.9980000  0 13G19G 3G25G27G16G11G 8G13G22G18G23S29
                                S37
 108251739.505 8  20599626.563          51.000       -1834.911
 109377387.666 7  20813826.028          46.000       -3401.533
 113638665.650 8  21624721.799          49.000       -1255.065
 120508258.70526  22931975.459          36.000         218.328
 120319521.600 7  22896049.169          46.000       -4116.186
 121118916.138 7  23048168.677          44.000        1595.502
 128004390.18735  24358425.671          33.000        1539.023
 130674106.778 5  24866422.077          35.000       -4438.139
 130126947.580 5  24762351.191          32.000        -503.822
                  25770520.329          28.000       -1750.798
                  25512488.330          26.000       -4526.548
 195635874.955 7  37228275.383          42.000       -1879.903
 195965146.011 6  37290932.168          41.000       -1883.832
 07  8 29  8 58 13.9980000  0 13G19G 3G25G27G16G11G 8G13G22G18G23S29
                                S37
 108253573.191 8  20599975.429          51.000       -1831.667
 109380787.986 7  20814472.665          46.000       -3398.273
 113639919.580 8  21624960.204          49.000       -1252.783
 120508037.88126  22931934.103          36.000         221.045
 120323636.385 7  22896832.423          46.000       -4113.510
 121117319.861 7  23047864.922          44.000        1597.311
 128002850.68625  24358133.084          33.000        1541.218
 130678543.739 5  24867266.058          34.000       -4433.639
 130127447.192 5  24762445.948          32.000        -498.574
                  25770841.012          28.000       -1749.579
                  25513344.004          26.000       -4520.319
 195637754.681 7  37228633.025          43.000       -1879.036
 195967027.538 6  37291290.039          41.000       -1879.594
 07  8 29  8 58 14.9980000  0 12G19G 3G25G27G16G11G 8G13G22G18S29S37
 108255404.084 8  20600323.178          51.000       -1829.357
 109384185.155 7  20815118.865          47.000       -3396.088
 113641171.164 8  21625198.366          49.000       -1249.552
 120507814.48027  22931894.214          43.000         225.560
 120327748.178 8  22897615.136          48.000       -4110.220
 121115721.276 7  23047560.696          46.000        1600.528
 128001308.19925  24357841.771          34.000        1543.995
 130682977.274 6  24868112.499          39.000       -4432.111
 130127943.846 6  24762538.365          37.000        -496.792
                  25771163.704          30.000       -1743.361
 195639631.955 7  37228990.285          43.000       -1875.458
 195968906.817 6  37291647.629          41.000       -1877.910
 07  8 29  8 58 15.9980000  0 12G19G 3G25G27G16G11G 8G13G22G18S29S37
 108257232.229 8  20600671.049          51.000       -1826.513
 109387579.763 7  20815764.663          47.000       -3393.316
 113642420.059 8  21625435.411          49.000       -1247.071
 120507588.34127  22931853.486          44.000         227.369
 120331857.245 8  22898396.942          48.000       -4107.410
 121114119.199 7  23047256.296          46.000        1603.943
                  24357548.855          30.000        1551.371
 130687408.248 6  24868958.190          39.000       -4430.734
 130128437.911 5  24762628.689          34.000        -492.943
                  25771490.286          31.000       -1740.832
 195641505.362 7  37229346.899          43.000       -1871.619
 195970782.587 6  37292004.715          41.000       -1873.910
 07  8 29  8 58 16.9980000  0 12G19G 3G25G27G16G11G 8G13G22G18S29S37
 108259057.630 8  20601018.588          51.000       -1823.893
 109390971.561 7  20816409.659          47.000       -3390.526
 113643666.465 8  21625672.176          49.000       -1245.458
 120507359.59127  22931811.414          44.000         229.915
 120335963.491 8  22899177.753          48.000       -4104.813
 121112514.252 7  23046952.017          46.000        1606.696
                  24357251.625          28.000        1552.564
 130691836.219 6  24869802.450          39.000       -4428.184
 130128929.260 5  24762720.286          33.000        -488.829
 135431814.82235  25771817.461          33.000       -1737.591
 195643375.855 7  37229703.094          43.000       -1868.461
 195972655.273 6  37292361.153          41.000       -1872.755
 07  8 29  8 58 17.9980000  0 12G19G 3G25G27G16G11G 8G13G22G18S29S37
 108260880.470 8  20601365.360          51.000       -1821.174
 109394360.682 7  20817054.987          47.000       -3387.369
 113644910.573 8  21625909.099          49.000       -1242.646
 120507128.35627  22931768.296          44.000         232.795
 120340067.077 8  22899958.477          48.000       -4101.775
 121110906.656 7  23046646.518          46.000        1609.789
                  24356956.437          30.000        1549.679
 130696261.392 6  24870645.995          40.000       -4423.552
 130129417.999 5  24762812.232          32.000        -488.345
 135433552.58925  25772144.635          32.000       -1737.117
 195645243.567 7  37230058.469          43.000       -1866.329
 195974525.067 7  37292717.052          42.000       -1868.715
 07  8 29  8 58 18.9980000  0 12G19G 3G25G27G16G11G 8G13G22G18S29S37
 108262700.550 8  20601711.713          51.000       -1818.493
 109397746.956 8  20817699.372          48.000       -3384.714
 113646152.148 8  21626145.463          49.000       -1240.100
 120506895.011 7  22931724.951          44.000         235.630
 120344167.804 8  22900738.572          48.000       -4099.636
 121109296.140 7  23046340.267          47.000        1612.220
                  24356658.895          28.000        1554.116
 130700683.569 6  24871488.615          39.000       -4420.587
 130129904.07135  24762903.289          32.000        -484.299
 135435287.70235  25772471.045          31.000       -1729.431
 195647108.094 7  37230413.268          44.000       -1862.337
 195976391.610 7  37293072.358          42.000       -1863.945
 07  8 29  8 58 19.9980000  0 12G19G 3G25G27G16G11G 8G13G22G18S29S37
 108264517.942 8  20602057.700          51.000       -1816.199
 109401130.459 8  20818343.339          48.000       -3381.796
 113647391.299 8  21626381.024          49.000       -1238.107
 120506658.576 7  22931680.017          44.000         238.324
 120348265.744 8  22901518.004          48.000       -4096.724
 121107682.864 7  23046033.423          46.000        1614.543
                  24356361.825          32.000        1561.296
 130705102.793 6  24872330.711          39.000       -4417.187
 130130387.36225  24762994.397          32.000        -482.427
 135437020.35835  25772799.178          32.000       -1731.875
 195648969.378 7  37230767.456          43.000       -1860.367
 195978255.097 6  37293426.982          40.000       -1861.735
 07  8 29  8 58 20.9980000  0 12G19G 3G25G27G16G11G 8G13G22G18S29S37
 108266332.629 8  20602403.389          51.000       -1813.357
 109404511.119 7  20818986.712          47.000       -3378.908
 113648628.020 8  21626616.690          49.000       -1235.638
 120506419.520 7  22931634.997          44.000         240.589
 120352360.863 8  22902297.367          48.000       -4093.499
 121106066.796 7  23045726.161          46.000        1617.603
                  24356067.090          30.000        1560.768
 130709519.059 6  24873171.656          38.000       -4414.110
 130130867.98125  24763085.366          32.000        -479.515
 135438750.30925  25773126.302          31.000       -1725.443
 195650827.945 7  37231121.208          43.000       -1856.449
 195980115.598 6  37293780.926          41.000       -1858.050
 07  8 29  8 58 21.9980000  0 12G19G 3G25G27G16G11G 8G13G22G18S29S37
 108268144.623 8  20602748.154          50.000       -1810.550
 109407888.640 8  20819629.719          48.000       -3375.753
 113649862.505 8  21626851.728          49.000       -1233.457
                  22931587.689          34.000         239.911
 120356453.008 8  22903076.189          48.000       -4090.260
 121104448.568 7  23045417.188          45.000        1619.550
 127990471.65035  24355777.017          35.000        1564.917
 130713931.882 5  24874012.059          34.000       -4411.260
 130131345.47126  24763177.155          39.000        -476.396
 135440477.18725  25773452.744          32.000       -1723.756
 195652683.736 6  37231474.018          41.000       -1854.067
 195981973.444 7  37294134.503          42.000       -1857.544
 07  8 29  8 58 22.9980000  0 12G19G 3G25G27G16G11G 8G13G22G18S29S37
 108269953.621 8  20603091.925          50.000       -1807.659
 109411262.646 8  20820272.307          48.000       -3371.960
 113651094.545 8  21627086.871          50.000       -1230.743
 120506043.49136  22931537.731          37.000         244.557
 120360541.743 7  22903854.889          47.000       -4087.563
 121102828.219 7  23045108.756          46.000        1621.530
                  24355481.814          30.000        1571.813
 130718340.640 5  24874850.212          35.000       -4407.640
 130131819.59025  24763268.019          33.000        -473.902
 135442199.66635  25773777.844          33.000       -1717.474
 195654536.729 7  37231826.478          42.000       -1851.240
 195983828.624 7  37294487.557          42.000       -1854.036
 07  8 29  8 58 23.9980000  0 12G19G 3G25G27G16G11G 8G13G22G18S29S37
 108271759.952 8  20603435.486          51.000       -1804.978
 109414633.513 8  20820913.342          48.000       -3369.802
 113652324.287 8  21627320.844          50.000       -1228.534
 120505796.38726  22931490.530          40.000         249.544
 120364627.609 8  22904633.344          48.000       -4084.399
 121101205.673 8  23044799.679          48.000        1624.521
 127987363.23236  24355185.596          36.000        1570.392
 130722745.85636  24875687.790          37.000       -4402.544
 130132291.53335  24763359.528          33.000        -474.720
 135443919.59825  25774103.935          32.000       -1720.630
 195656386.924 6  37232179.044          40.000       -1847.963
 195985681.303 6  37294839.982          41.000       -1850.867
 07  8 29  8 58 24.9980000  0 12G19G 3G25G27G16G11G 8G13G22G18S29S37
 108273563.589 8  20603778.471          50.000       -1801.419
 109418001.498 8  20821554.569          50.000       -3366.432
 113653551.645 8  21627554.190          48.000       -1225.516
 120505546.79326  22931443.886          41.000         251.747
 120368710.797 8  22905410.229          48.000       -4081.535
 121099580.604 8  23044489.939          48.000        1627.447
                  24354890.671          29.000        1573.245
 130727147.97135  24876525.209          35.000       -4400.359
 130132761.29435  24763448.421          31.000        -470.490
 135445638.18336  25774428.494          36.000       -1714.920
 195658234.651 6  37232530.597          39.000       -1845.654
 195987530.875 7  37295192.059          42.000       -1847.434
 07  8 29  8 58 25.9980000  0 12G19G 3G25G27G16G11G 8G13G22G18S29S37
 108275364.428 8  20604121.316          49.000       -1799.513
 109421366.619 8  20822194.452          50.000       -3362.931
 113654776.402 8  21627787.290          50.000       -1223.672
 120505294.05927  22931396.196          42.000         255.728
 120372791.512 7  22906186.293          46.000       -4079.307
 121097953.078 7  23044179.605          47.000        1628.133
                  24354593.564          30.000        1572.530
                  24877360.499          28.000       -4399.008
 130133226.57736  24763536.111          38.000        -463.130
 135447352.60625  25774749.439          33.000       -1713.402
 195660079.552 6  37232881.888          39.000       -1843.138
 195989377.677 6  37295543.437          36.000       -1846.025
 07  8 29  8 58 26.9980000  0 11G19G 3G25G27G16G11G 8G22G18S29S37
 108277162.216 8  20604463.132          50.000       -1796.106
 109424728.513 8  20822834.021          50.000       -3359.956
 113655998.422 8  21628019.868          51.000       -1220.444
 120505038.11426  22931346.934          38.000         255.807
 120376869.853 7  22906962.427          47.000       -4077.812
 121096323.695 8  23043869.114          48.000        1630.373
                  24354295.237          31.000        1579.983
 130133689.67326  24763621.862          39.000        -462.350
 135449065.12735  25775073.193          33.000       -1710.559
 195661922.074 6  37233232.587          37.000       -1838.552
 195991222.203 6  37295894.449          40.000       -1845.472
 07  8 29  8 58 27.9980000  0 11G19G 3G25G27G16G11G 8G22G18S29S37
 108278957.294 8  20604804.076          49.000       -1793.431
 109428087.971 8  20823473.363          49.000       -3358.028
 113657217.798 8  21628252.201          51.000       -1217.646
 120504779.35427  22931298.337          42.000         259.853
 120380946.150 8  22907738.440          50.000       -4074.318
 121094691.454 7  23043558.432          46.000        1634.436
 127981111.13935  24353995.828          33.000        1583.893
 130134151.07926  24763710.491          39.000        -464.936
 135450774.95635  25775397.033          31.000       -1714.084
 195663761.885 7  37233582.901          42.000       -1836.348
 195993063.821 6  37296245.288          39.000       -1838.005
 07  8 29  8 58 28.9980000  0 12G19G 3G25G27G16G11G 8G13G22G18S29S37
 108280749.732 8  20605144.775          49.000       -1790.930
 109431445.243 8  20824112.216          51.000       -3355.717
 113658434.469 8  21628484.063          50.000       -1215.130
 120504517.89527  22931248.448          43.000         262.325
 120385020.078 8  22908513.509          48.000       -4072.794
 121093055.329 7  23043246.633          44.000        1637.887
                  24353697.604          31.000        1584.843
 130744552.31635  24879861.135          33.000       -4393.380
 130134610.42536  24763798.076          41.000        -457.970
 135452485.29036  25775721.592          40.000       -1707.472
 195665598.893 7  37233932.708          43.000       -1835.780
 195994901.738 6  37296595.341          40.000       -1835.539
 07  8 29  8 58 29.9980000  0 12G19G 3G25G27G16G11G 8G13G22G18S29S37
 108282539.412 8  20605485.753          49.000       -1787.876
 109434799.931 8  20824750.441          51.000       -3353.388
 113659648.369 8  21628714.739          49.000       -1212.340
 120504253.49927  22931198.681          42.000         265.726
 120389091.836 7  22909288.143          45.000       -4070.709
 121091416.390 7  23042935.619          42.000        1641.719
 127977981.76736  24353400.288          36.000        1586.648
                  24880689.847          31.000       -4389.498
 130135067.80427  24763884.856          42.000        -456.232
 135454191.36826  25776042.625          36.000       -1705.156
 195667432.959 7  37234281.697          42.000       -1829.434
 195996737.159 6  37296944.851          39.000       -1836.017
 07  8 29  8 58 30.9980000  0 12G19G 3G25G27G16G11G 8G13G22G18S29S37
 108284326.397 8  20605825.911          48.000       -1785.762
 109438152.085 8  20825388.056          51.000       -3350.938
 113660859.609 8  21628945.135          51.000       -1209.796
 120503986.806 7  22931147.361          44.000         268.097
 120393161.331 7  22910062.950          47.000       -4069.342
 121089774.553 7  23042624.656          45.000        1643.085
                  24353091.910          35.000        1591.816
 130753273.07135  24881520.583          33.000       -4386.368
 130135523.11727  24763971.585          44.000        -453.672
 135455895.28726  25776366.240          39.000       -1702.570
 195669263.687 6  37234629.969          39.000       -1829.130
 195998570.063 6  37297293.648          39.000       -1830.002
 07  8 29  8 58 31.9980000  0 12G19G 3G25G27G16G11G 8G13G22G18S29S37
 108286110.733 8  20606166.418          49.000       -1782.710
 109441501.833 8  20826025.356          51.000       -3347.772
 113662068.325 8  21629175.270          51.000       -1207.031
 120503716.985 7  22931095.988          45.000         271.056
 120397228.616 8  22910836.572          48.000       -4066.272
 121088129.747 7  23042312.125          44.000        1647.191
                  24352788.343          34.000        1583.900
 130757658.29636  24882349.785          36.000       -4380.015
 130135976.14436  24764057.965          39.000        -450.304
 135457597.43226  25776690.081          37.000       -1702.525
 195671091.539 6  37234977.963          40.000       -1823.875
 196000399.27736  37297642.200          38.000       -1826.973
 07  8 29  8 58 32.9980000  0 12G19G 3G25G27G16G11G 8G13G22G18S29S37
 108287892.613 8  20606505.895          48.000       -1781.351
 109444849.277 8  20826662.133          48.000       -3346.001
 113663274.674 8  21629404.514          50.000       -1204.833
 120503444.955 7  22931043.726          47.000         272.841
 120401293.290 8  22911609.723          48.000       -4062.727
 121086481.702 6  23041999.087          40.000        1651.084
                  24352489.685          32.000        1591.802
                  24883182.073          32.000       -4381.769
 130136427.17226  24764141.988          41.000        -449.386
 135459297.75326  25777013.732          37.000       -1699.926
 195672915.663 7  37235325.031          43.000       -1822.295
 196002226.38516  37297989.774          40.000       -1824.294
 07  8 29  8 58 33.9980000  0 12G19G 3G25G27G16G11G 8G13G22G18S29S37
 108289672.558 8  20606844.256          48.000       -1778.598
 109448194.463 7  20827298.055          47.000       -3343.554
 113664479.513 8  21629633.304          50.000       -1203.695
 120503171.785 8  22930991.393          48.000         274.409
 120405354.395 8  22912382.629          48.000       -4059.451
 121084830.424 6  23041683.239          41.000        1653.406
 127971614.79635  24352188.774          31.000        1591.041
                  24884009.406          28.000       -4378.740
 130136875.01127  24764227.007          43.000        -445.961
 135460995.79426  25777337.277          40.000       -1697.224
 195674736.024 7  37235671.437          44.000       -1817.439
 196004049.500 6  37298336.878          39.000       -1820.908
 07  8 29  8 58 34.9980000  0 12G19G 3G25G27G16G11G 8G13G22G18S29S37
 108291450.058 8  20607182.704          49.000       -1775.908
 109451537.061 8  20827934.308          48.000       -3340.862
 113665682.302 8  21629862.618          49.000       -1201.574
 120502896.500 8  22930938.677          48.000         276.220
 120409412.311 8  22913154.889          48.000       -4056.352
 121083176.094 6  23041365.977          41.000        1655.460
 127970019.09825  24351888.039          32.000        1596.479
                  24884839.392          27.000       -4374.659
 130137319.92427  24764311.188          43.000        -443.793
 135462691.42326  25777659.915          38.000       -1695.261
 195676553.240 7  37236017.354          43.000       -1814.110
 196005868.941 6  37298683.022          36.000       -1815.912
 07  8 29  8 58 35.9980000  0 13G19G 3G25G27G16G11G 8G13G22G18G23S29
                                S37
 108293224.777 8  20607520.262          48.000       -1773.076
 109454877.030 8  20828569.951          48.000       -3338.344
 113666882.310 8  21630090.746          48.000       -1198.392
 120502618.229 8  22930885.507          48.000         280.116
 120413468.436 7  22913926.050          46.000       -4055.054
 121081519.142 7  23041050.932          42.000        1657.968
                  24351584.510          31.000        1598.058
                  24885670.199          27.000       -4369.990
 130137762.93727  24764394.653          43.000        -442.149
 135464385.11226  25777980.772          36.000       -1694.190
                  25532091.601          32.000       -4452.283
 195678367.596 6  37236362.851          41.000       -1813.257
 196007685.821 6  37299028.694          41.000       -1815.767
 07  8 29  8 58 36.9980000  0 13G19G 3G25G27G16G11G 8G13G22G18G23S29
                                S37
 108294996.785 8  20607857.942          48.000       -1770.745
 109458214.576 7  20829205.122          47.000       -3336.637
 113668079.757 7  21630318.594          47.000       -1196.646
 120502336.989 7  22930832.006          47.000         282.379
 120417522.341 7  22914697.717          45.000       -4051.988
 121079859.618 7  23040735.119          43.000        1662.268
                  24351277.790          29.000        1603.951
 130779434.82535  24886499.033          30.000       -4366.687
 130138204.01127  24764478.362          44.000        -439.314
 135466076.472 6  25778303.585          38.000       -1690.570
                  25532939.523          26.000       -4456.594
 195680179.904 7  37236707.564          43.000       -1810.303
 196009500.420 6  37299373.930          41.000       -1813.417
 07  8 29  8 58 37.9980000  0 13G19G 3G25G27G16G11G 8G13G22G18G23S29
                                S37
 108296766.573 8  20608195.238          49.000       -1768.813
 109461549.578 8  20829840.276          49.000       -3333.866
 113669275.292 7  21630546.128          44.000       -1195.006
 120502053.816 7  22930778.295          45.000         283.856
 120421573.581 7  22915468.494          45.000       -4049.656
 121078197.581 6  23040418.172          41.000        1664.030
 127965230.66735  24350973.757          34.000        1609.760
                  24887319.195          27.000       -4364.040
 130138642.55127  24764562.578          43.000        -435.808
                  25778628.945          29.000       -1690.908
                  25533785.077          27.000       -4448.068
 195681989.034 7  37237051.718          43.000       -1807.591
 196011312.370 6  37299719.061          41.000       -1810.867
 07  8 29  8 58 38.9980000  0 13G19G 3G25G27G16G11G 8G13G22G18G23S29
                                S37
 108298534.643 8  20608531.522          50.000       -1766.831
 109464882.205 8  20830474.627          49.000       -3331.444
 113670469.808 7  21630773.593          42.000       -1193.006
 120501769.844 8  22930724.880          48.000         285.087
 120425621.102 7  22916239.115          46.000       -4045.558
 121076533.149 7  23040102.097          44.000        1666.553
 127963623.62135  24350666.546          35.000        1609.204
                  24888118.310          33.000       -4363.659
 130139077.46726  24764645.224          41.000        -431.792
                  25778956.068          30.000       -1686.359
                  25534640.678          22.000       -4447.940
 195683795.084 7  37237395.455          42.000       -1802.538
 196013120.646 6  37300063.198          40.000       -1807.422
 07  8 29  8 58 39.9980000  0 12G19G 3G25G27G16G11G 8G13G22G18S29S37
 108300300.338 8  20608867.667          50.000       -1764.308
 109468212.083 8  20831108.577          50.000       -3328.248
 113671662.320 6  21631000.097          41.000       -1190.987
 120501483.905 8  22930671.431          48.000         287.126
 120429665.401 7  22917009.316          46.000       -4042.852
 121074865.935 7  23039785.690          44.000        1668.141
 127962014.75826  24350358.811          36.000        1608.155
 130792280.33336  24888943.463          38.000       -4359.442
                  24764727.817          26.000        -428.295
                  25779279.701          29.000       -1682.954
 195685598.033 7  37237738.648          42.000       -1801.766
 196014925.638 6  37300406.847          41.000       -1803.153
 07  8 29  8 58 40.9980000  0 12G19G 3G25G27G16G11G 8G13G22G18S29S37
 108302063.550 8  20609203.200          50.000       -1761.899
 109471539.372 8  20831742.021          50.000       -3325.478
 113672852.589 7  21631226.445          42.000       -1189.720
 120501195.565 8  22930617.580          49.000         289.901
 120433707.077 7  22917778.662          46.000       -4040.897
 121073196.126 7  23039468.115          44.000        1670.847
 127960403.21226  24350048.896          37.000        1611.715
 130796640.34226  24889768.945          37.000       -4359.593
                  24764812.189          29.000        -429.488
                  25779594.871          29.000       -1678.938
 195687398.007 7  37238081.250          42.000       -1797.420
 196016727.800 6  37300749.604          41.000       -1802.597
 07  8 29  8 58 41.9980000  0 12G19G 3G25G27G16G11G 8G13G22G18S29S37
 108303824.315 8  20609537.757          51.000       -1759.439
 109474864.133 8  20832374.750          50.000       -3323.155
 113674040.693 7  21631453.089          42.000       -1186.436
 120500904.894 8  22930562.631          49.000         291.918
 120437746.204 7  22918547.398          46.000       -4038.323
 121071523.756 7  23039150.574          44.000        1674.575
 127958789.21426  24349739.121          37.000        1614.955
 130800997.61825  24890604.428          34.000       -4355.875
 130140411.99436  24764896.981          36.000        -426.238
                  25779906.985          31.000       -1681.266
 195689194.919 6  37238423.222          41.000       -1796.237
 196018527.069 7  37301091.892          42.000       -1798.420
 07  8 29  8 58 42.9980000  0 12G19G 3G25G27G16G11G 8G13G22G18S29S37
 108305582.657 8  20609872.418          50.000       -1757.129
 109478186.388 8  20833006.902          50.000       -3321.264
 113675226.616 7  21631679.192          42.000       -1184.906
 120500611.927 8  22930506.930          49.000         294.263
 120441782.829 7  22919315.610          45.000       -4034.630
 121069848.869 7  23038831.585          44.000        1675.868
 127957172.76026  24349429.746          37.000        1615.296
 130805352.15126  24891441.533          36.000       -4353.557
 130140836.51027  24764976.834          42.000        -421.840
                  25780219.939          31.000       -1676.015
 195690989.683 7  37238764.847          42.000       -1792.529
 196020323.513 7  37301433.656          42.000       -1794.876
 07  8 29  8 58 43.9980000  0 12G19G 3G25G27G16G11G 8G13G22G18S29S37
 108307338.707 8  20610206.643          50.000       -1754.639
 109481506.235 8  20833638.636          50.000       -3318.356
 113676410.528 6  21631904.528          41.000       -1182.231
 120500316.773 8  22930450.864          49.000         296.527
 120445817.053 7  22920083.350          46.000       -4033.537
 121068171.574 7  23038511.950          44.000        1678.463
 127955553.83326  24349119.344          37.000        1621.012
 130809704.21126  24892268.065          36.000       -4347.542
 130141258.67926  24765053.703          41.000        -419.799
                  25780535.405          31.000       -1674.004
 195692781.400 7  37239105.859          42.000       -1793.447
 196022117.037 7  37301775.123          42.000       -1792.171
 07  8 29  8 58 44.9980000  0 12G19G 3G25G27G16G11G 8G13G22G18S29S37
 108309092.345 8  20610540.676          50.000       -1752.229
 109484823.587 8  20834270.247          50.000       -3315.860
 113677592.276 7  21632129.846          42.000       -1179.458
 120500019.327 8  22930394.221          49.000         298.904
 120449848.792 7  22920850.603          46.000       -4029.658
 121066491.773 7  23038192.159          43.000        1681.752
 127953932.57026  24348809.778          38.000        1622.640
 130814053.55526  24893094.176          38.000       -4347.267
 130141678.49626  24765131.863          41.000        -419.866
                  25780850.471          31.000       -1668.314
 195694570.473 6  37239446.297          41.000       -1787.852
 196023908.010 6  37302115.875          40.000       -1788.365
 07  8 29  8 58 45.9980000  0 12G19G 3G25G27G16G11G 8G13G22G18S29S37
 108310843.586 8  20610873.941          50.000       -1749.885
 109488138.428 8  20834901.143          50.000       -3313.645
 113678771.848 7  21632354.693          42.000       -1177.822
 120499719.562 8  22930337.073          49.000         301.648
 120453878.026 7  22921617.645          46.000       -4027.870
 121064809.444 7  23037872.122          43.000        1683.561
 127952308.76226  24348499.688          37.000        1625.286
 130818400.29926  24893920.933          38.000       -4344.468
 130142095.89526  24765209.814          41.000        -417.893
                  25781163.439          29.000       -1670.613
 195696357.156 7  37239786.403          42.000       -1784.594
 196025696.478 6  37302456.118          40.000       -1789.819
 07  8 29  8 58 46.9980000  0 12G19G 3G25G27G16G11G 8G13G22G18S29S37
 108312592.371 8  20611206.648          50.000       -1747.528
 109491450.734 8  20835531.604          51.000       -3310.690
 113679949.277 7  21632579.557          43.000       -1177.024
 120499417.501 8  22930279.366          48.000         303.725
 120457904.714 7  22922384.548          46.000       -4025.176
 121063124.553 7  23037551.336          42.000        1685.494
 127950682.53626  24348190.244          38.000        1626.427
 130822744.31126  24894747.237          36.000       -4341.351
 130142510.87626  24765287.975          41.000        -412.888
                  25781475.363          30.000       -1668.868
 195698141.172 7  37240125.811          42.000       -1781.744
 196027482.279 6  37302795.859          41.000       -1782.253
 07  8 29  8 58 47.9980000  0 12G19G 3G25G27G16G11G 8G13G22G18S29S37
 108314338.831 8  20611538.988          50.000       -1744.928
 109494760.606 8  20836161.679          50.000       -3308.481
 113681124.602 7  21632803.409          42.000       -1175.066
 120499113.186 8  22930221.467          49.000         306.008
 120461928.962 7  22923150.684          46.000       -4022.968
 121061437.255 7  23037229.520          43.000        1688.705
 127949053.88126  24347880.208          38.000        1631.071
 130827085.70625  24895572.144          35.000       -4342.429
 130142923.52126  24765365.193          40.000        -411.136
                  25781790.078          29.000       -1667.360
 195699922.286 7  37240464.625          42.000       -1779.985
 196029265.568 7  37303135.301          42.000       -1782.357
 07  8 29  8 58 48.9980000  0 12G19G 3G25G27G16G11G 8G13G22G18S29S37
 108316082.989 8  20611871.102          50.000       -1742.912
 109498068.092 8  20836791.040          50.000       -3305.665
 113682297.905 7  21633027.279          42.000       -1172.506
 120498806.717 8  22930163.254          49.000         308.082
 120465950.836 7  22923915.807          46.000       -4020.292
 121059747.489 7  23036908.175          43.000        1691.148
 127947422.885 6  24347569.280          37.000        1632.022
 130831424.629 5  24896395.900          35.000       -4337.584
 130143333.869 6  24765442.935          40.000        -408.861
                  25782102.457          30.000       -1660.132
 195701700.364 7  37240802.829          42.000       -1775.841
 196031046.318 6  37303474.238          40.000       -1779.651
 07  8 29  8 58 49.9980000  0 12G19G 3G25G27G16G11G 8G13G22G18S29S37
 108317824.783 8  20612202.692          50.000       -1740.685
 109501373.100 8  20837419.859          51.000       -3303.459
 113683469.065 7  21633249.997          42.000       -1169.869
 120498497.968 8  22930104.447          48.000         310.083
 120469970.247 7  22924680.965          46.000       -4018.067
 121058055.295 7  23036586.482          43.000        1694.049
 127945789.443 6  24347258.057          37.000        1634.521
 130835760.92335  24897219.675          34.000       -4332.218
 130143741.859 6  24765520.118          40.000        -406.350
                  25782418.184          31.000       -1659.597
 195703475.953 7  37241140.631          43.000       -1774.221
 196032824.099 7  37303812.633          42.000       -1777.939
 07  8 29  8 58 50.9980000  0 12G19G 3G25G27G16G11G 8G13G22G18S29S37
 108319564.220 8  20612533.915          51.000       -1738.113
 109504675.673 8  20838048.539          51.000       -3301.532
 113684638.138 7  21633473.012          43.000       -1167.527
 120498186.989 8  22930045.204          49.000         312.030
 120473987.191 7  22925445.250          46.000       -4015.605
 121056360.610 7  23036264.072          44.000        1695.754
 127944153.637 6  24346946.414          37.000        1637.429
 130840094.66825  24898043.901          35.000       -4333.248
 130144147.503 6  24765596.882          40.000        -403.972
                  25782732.271          31.000       -1658.846
 195705248.942 7  37241478.173          42.000       -1769.158
 196034598.988 7  37304150.331          42.000       -1774.402
 07  8 29  8 58 51.9980000  0 12G19G 3G25G27G16G11G 8G13G22G18S29S37
 108321301.299 8  20612864.598          51.000       -1735.495
 109507975.784 8  20838676.626          51.000       -3298.725
 113685805.112 7  21633694.840          42.000       -1165.211
 120497873.756 8  22929985.421          49.000         314.650
 120478001.684 7  22926209.309          46.000       -4012.484
 121054663.490 7  23035941.454          44.000        1698.656
 127942515.342 6  24346634.929          37.000        1639.640
 130844425.76235  24898867.029          33.000       -4329.320
 130144550.801 6  24765673.699          40.000        -401.541
 135490832.70635  25783048.260          32.000       -1657.266
 195707018.928 7  37241814.962          42.000       -1767.868
 196036371.134 6  37304487.471          41.000       -1769.395
 07  8 29  8 58 52.9980000  0 12G19G 3G25G27G16G11G 8G13G22G18S29S37
 108323036.015 8  20613194.949          51.000       -1733.268
 109511273.449 8  20839304.329          51.000       -3296.068
 113686969.987 7  21633916.440          42.000       -1164.117
 120497558.281 8  22929925.812          49.000         316.796
 120482013.720 7  22926972.687          46.000       -4010.737
 121052963.892 7  23035617.980          44.000        1700.803
 127940874.728 6  24346322.571          37.000        1641.749
 130848754.26825  24899689.999          33.000       -4329.339
 130144951.757 6  24765749.870          40.000        -399.493
 135492487.44625  25783365.297          33.000       -1653.341
 195708786.370 7  37242151.316          42.000       -1765.227
 196038140.548 6  37304823.912          41.000       -1768.255
 07  8 29  8 58 53.9980000  0 12G19G 3G25G27G16G11G 8G13G22G18S29S37
 108324768.490 8  20613524.514          50.000       -1731.466
 109514568.756 8  20839931.141          51.000       -3293.929
 113688132.852 7  21634137.605          42.000       -1161.569
 120497240.663 8  22929865.190          48.000         318.827
 120486023.404 7  22927735.385          46.000       -4008.117
 121051261.914 7  23035294.175          43.000        1704.023
 127939231.718 6  24346009.427          37.000        1642.852
 130853080.29525  24900512.115          33.000       -4325.727
 130145350.444 6  24765826.006          41.000        -397.590
 135494139.93825  25783682.421          33.000       -1650.571
 195710551.146 7  37242487.199          42.000       -1763.002
 196039907.053 6  37305159.812          41.000       -1764.323
 07  8 29  8 58 54.9980000  0 12G19G 3G25G27G16G11G 8G13G22G18S29S37
 108326498.634 8  20613853.591          50.000       -1728.682
 109517861.657 8  20840558.006          50.000       -3291.874
 113689293.673 7  21634357.601          42.000       -1159.878
 120496920.837 8  22929804.307          48.000         320.983
 120490030.691 7  22928497.838          45.000       -4005.830
 121049557.529 7  23034969.741          43.000        1705.760
 127937586.400 6  24345695.813          36.000        1647.710
 130857403.69525  24901334.283          35.000       -4322.498
 130145746.866 6  24765901.950          41.000        -395.827
 135495790.33125  25783998.970          33.000       -1645.764
 195712313.376 7  37242822.732          42.000       -1761.225
 196041670.766 6  37305495.433          40.000       -1761.627
 07  8 29  8 58 55.9980000  0 12G19G 3G25G27G16G11G 8G13G22G18S29S37
 108328226.580 8  20614182.267          50.000       -1726.724
 109521152.249 8  20841183.807          50.000       -3289.537
 113690452.528 7  21634577.806          42.000       -1157.879
 120496598.934 8  22929742.866          48.000         322.815
 120494035.649 7  22929259.593          45.000       -4003.765
 121047850.809 7  23034645.220          43.000        1708.705
 127935938.796 5  24345381.413          35.000        1648.088
 130861724.72025  24902156.171          34.000       -4322.558
 130146141.053 6  24765977.581          41.000        -391.982
 135497438.58125  25784314.836          32.000       -1644.802
 195714072.969 7  37243157.691          43.000       -1756.738
 196043431.994 7  37305830.530          42.000       -1760.458
 07  8 29  8 58 56.9980000  0 12G19G 3G25G27G16G11G 8G13G22G18S29S37
 108329952.378 8  20614510.786          50.000       -1724.269
 109524440.588 8  20841809.503          50.000       -3286.915
 113691609.493 7  21634797.906          42.000       -1155.437
 120496274.960 8  22929681.180          48.000         325.294
 120498038.359 7  22930021.017          45.000       -4001.312
 121046141.852 7  23034319.984          43.000        1709.951
 127934288.972 5  24345067.188          35.000        1650.433
 130866043.32725  24902977.659          35.000       -4317.666
 130146533.124 6  24766052.233          41.000        -390.948
 135499084.87625  25784630.790          34.000       -1644.474
 195715829.796 7  37243492.143          43.000       -1754.802
 196045190.947 7  37306165.296          42.000       -1758.281
 07  8 29  8 58 57.9980000  0 12G19G 3G25G27G16G11G 8G13G22G18S29S37
 108331675.807 8  20614838.781          50.000       -1722.755
 109527726.465 8  20842434.763          50.000       -3284.518
 113692764.343 7  21635017.413          42.000       -1154.708
 120495948.765 8  22929619.477          48.000         327.248
 120502038.623 7  22930781.656          45.000       -3997.937
 121044430.399 7  23033994.329          44.000        1713.197
 127932636.812 5  24344752.352          35.000        1652.333
 130870359.27925  24903798.850          34.000       -4314.621
 130146922.843 6  24766127.095          41.000        -390.057
 135500728.95125  25784945.942          34.000       -1642.842
 195717584.237 7  37243826.193          42.000       -1752.880
 196046947.444 6  37306499.574          40.000       -1755.738
 07  8 29  8 58 58.9980000  0 12G19G 3G25G27G16G11G 8G13G22G18S29S37
 108333397.590 8  20615165.728          49.000       -1721.235
 109531010.111 8  20843058.836          49.000       -3282.325
 113693918.135 7  21635236.117          45.000       -1153.762
 120495621.646 7  22929556.621          45.000         326.132
 120506035.456 7  22931541.475          44.000       -3993.763
 121042716.700 6  23033667.452          41.000        1715.450
 127930983.363 5  24344438.179          35.000        1656.176
 130874671.34635  24904618.836          32.000       -4314.161
 130147309.444 7  24766201.104          42.000        -383.234
 135502370.44335  25785259.400          32.000       -1641.507
 195719335.677 7  37244159.284          43.000       -1749.747
 196048701.219 6  37306833.415          40.000       -1752.015
 07  8 29  8 58 59.9980000  0 12G19G 3G25G27G16G11G 8G13G22G18S29S37
 108335118.243 8  20615492.816          49.000       -1719.468
 109534291.257 8  20843682.612          49.000       -3280.445
 113695071.917 7  21635455.065          47.000       -1153.175
 120495294.895 7  22929493.399          46.000         326.478
 120510027.810 7  22932300.805          43.000       -3988.886
 121041000.907 7  23033341.222          44.000        1719.612
                  24344126.920          27.000        1656.471
                  24905439.645          30.000       -4306.872
 130147691.325 7  24766273.839          44.000        -377.505
 135504008.87725  25785572.704          35.000       -1635.883
 195721084.038 7  37244492.043          42.000       -1747.015
 196050451.425 6  37307166.315          41.000       -1747.342
 07  8 29  8 59  0.9980000  0 12G19G 3G25G27G16G11G 8G13G22G18S29S37
 108336836.792 8  20615819.206          48.000       -1717.199
 109537569.824 8  20844306.423          50.000       -3277.476
 113696224.216 8  21635673.909          50.000       -1151.277
 120494966.415 8  22929430.143          49.000         329.303
 120514017.146 7  22933059.891          45.000       -3984.825
 121039283.169 7  23033014.676          45.000        1718.469
                  24343814.284          28.000        1661.627
                  24906260.501          32.000       -4311.597
 130148070.36337  24766346.345          42.000        -375.488
 135505644.25526  25785886.931          38.000       -1632.411
 195722829.870 7  37244824.140          44.000       -1742.544
 196052198.937 6  37307498.602          40.000       -1745.907
 07  8 29  8 59  1.9980000  0 11G19G 3G25G27G16G11G 8G22G18S29S37
 108338553.049 8  20616145.159          48.000       -1714.696
 109540845.665 8  20844929.851          50.000       -3274.300
 113697374.555 8  21635893.067          49.000       -1149.509
 120494635.710 7  22929366.939          47.000         332.122
 120518003.82637  22933818.383          44.000       -3983.537
 121037563.609 7  23032687.397          47.000        1719.638
                  24343502.605          31.000        1661.359
 130148446.75236  24766418.798          40.000        -375.682
 135507277.10925  25786199.570          32.000       -1630.622
 195724573.107 6  37245155.799          41.000       -1742.226
 196053943.673 6  37307830.715          39.000       -1745.022
 07  8 29  8 59  2.9980000  0 11G19G 3G25G27G16G11G 8G22G18S29S37
 108340266.916 8  20616470.851          48.000       -1713.901
 109544118.988 8  20845552.825          51.000       -3271.371
 113698522.789 8  21636111.859          49.000       -1147.364
 120494302.724 8  22929303.299          51.000         332.682
 120521988.59627  22934576.421          45.000       -3981.541
 121035842.048 8  23032359.508          48.000        1720.500
 127924310.46735  24343186.932          35.000        1663.175
 130148820.97027  24766490.275          43.000        -374.905
 135508907.67226  25786511.319          37.000       -1629.350
 195726313.971 7  37245487.075          43.000       -1740.093
 196055686.084 7  37308162.323          42.000       -1741.213
 07  8 29  8 59  3.9980000  0 12G19G 3G25G27G16G11G 8G13G22G18S29S37
 108341979.593 8  20616796.717          48.000       -1711.934
 109547388.846 8  20846175.607          51.000       -3268.813
 113699671.723 8  21636330.753          48.000       -1149.124
 120493970.470 8  22929240.111          49.000         330.657
 120525967.32827  22935333.675          45.000       -3977.411
 121034119.634 8  23032031.899          49.000        1723.196
 127922650.12735  24342865.465          35.000        1666.828
 130896238.25635  24908726.101          34.000       -4294.346
 130149189.03036  24766559.747          39.000        -366.257
                  25786821.810          36.000       -1629.641
 195728051.364 7  37245817.740          42.000       -1736.430
 196057424.767 6  37308493.164          41.000       -1736.661
 07  8 29  8 59  4.9980000  0 12G19G 3G25G27G16G11G 8G13G22G18S29S37
 108343690.579 7  20617121.623          47.000       -1710.306
 109550656.287 8  20846796.992          51.000       -3266.821
 113700819.605 8  21636548.777          48.000       -1146.428
 120493637.264 8  22929176.872          49.000         334.207
 120529942.56727  22936090.335          46.000       -3975.651
 121032395.006 8  23031704.115          48.000        1725.809
 127920989.51836  24342545.076          37.000        1659.093
 130900534.60835  24909537.935          33.000       -4300.629
 130149553.60836  24766629.374          41.000        -365.258
                  25787130.909          33.000       -1621.101
 195729785.678 7  37246147.760          42.000       -1731.719
 196059160.282 6  37308823.497          41.000       -1734.360
 07  8 29  8 59  5.9980000  0 12G19G 3G25G27G16G11G 8G13G22G18S29S37
 108345400.111 8  20617447.314          49.000       -1709.013
 109553922.278 8  20847418.238          50.000       -3266.042
 113701966.148 8  21636766.870          49.000       -1146.598
 120493303.325 8  22929112.812          48.000         332.293
                  22936846.455          42.000       -3970.412
 121030667.204 7  23031375.495          45.000        1733.052
                  24342226.502          39.000        1650.396
                  24910356.298          34.000       -4301.569
                  24766698.408          40.000        -362.686
                  25787440.701          32.000       -1624.925
 195731516.450 7  37246477.292          42.000       -1727.552
 196060892.447 6  37309153.325          41.000       -1730.040
 07  8 29  8 59  6.9980000  0 12G19G 3G25G27G16G11G 8G13G22G18S29S37
 108347109.505 8  20617773.616          49.000       -1708.047
 109557188.083 8  20848039.326          49.000       -3266.177
 113703113.105 8  21636985.225          50.000       -1145.576
 120492971.413 8  22929049.712          49.000         331.428
 120537909.83428  22937601.684          48.000       -3966.113
 121028933.652 7  23031046.159          44.000        1737.808
 127917598.07936  24341909.714          36.000        1659.833
                  24911173.619          31.000       -4288.060
                  24766767.565          34.000        -358.238
 135515574.01235  25787756.445          32.000       -1627.213
 195733241.268 6  37246805.462          41.000       -1725.184
 196062618.862 6  37309481.566          39.000       -1724.974
 07  8 29  8 59  7.9980000  0 12G19G 3G25G27G16G11G 8G13G22G18S29S37
 108348817.202 8  20618098.924          49.000       -1705.835
 109560454.554 8  20848661.548          51.000       -3265.953
 113704257.142 8  21637203.040          50.000       -1142.895
 120492638.300 7  22928986.526          47.000         334.775
 120541876.21028  22938356.598          48.000       -3965.375
 121027192.548 7  23030715.322          44.000        1743.689
 127915940.10836  24341591.456          41.000        1658.147
                  24911990.831          30.000       -4284.294
                  24766840.276          32.000        -369.023
                  25788070.096          29.000       -1623.838
 195734960.748 6  37247132.918          38.000       -1716.912
 196064339.995 6  37309809.195          41.000       -1722.316
 07  8 29  8 59  8.9980000  0 12G19G 3G25G27G16G11G 8G13G22G18S29S37
 108350523.456 8  20618423.551          48.000       -1705.530
 109563720.716 8  20849283.439          50.000       -3266.440
 113705399.256 8  21637420.418          48.000       -1141.782
 120492304.179 7  22928923.234          47.000         334.054
 120545840.69827  22939111.391          45.000       -3962.267
 121025446.72337  23030383.544          43.000        1749.551
 127914282.41837  24341275.258          43.000        1656.817
                  24912817.537          36.000       -4278.787
                  24766912.784          30.000        -362.280
                  25788383.435          25.000       -1617.186
 195736675.716 6  37247459.361          41.000       -1711.873
 196066056.803 6  37310135.900          39.000       -1714.968
 07  8 29  8 59  9.9980000  0 12G19G 3G25G27G16G11G 8G13G22G18S29S37
 108352228.702 8  20618747.776          49.000       -1704.483
 109566985.810 8  20849904.860          50.000       -3264.045
 113706540.754 8  21637637.970          48.000       -1141.040
 120491970.494 7  22928859.941          47.000         333.377
 120549801.71437  22939864.719          43.000       -3957.646
                  23030050.891          43.000        1751.074
 127912625.72527  24340960.159          45.000        1655.160
                  24913650.335          34.000       -4269.821
                  24766982.953          29.000        -357.795
                  25788695.689          25.000       -1618.089
 195738386.074 6  37247784.774          40.000       -1709.512
 196067768.885 6  37310461.646          40.000       -1708.827
 07  8 29  8 59 10.9980000  0 12G19G 3G25G27G16G11G 8G13G22G18S29S37
 108353932.444 8  20619072.176          48.000       -1703.281
 109570249.058 8  20850525.931          48.000       -3263.139
 113707681.238 8  21637855.330          48.000       -1139.670
 120491636.136 7  22928796.300          45.000         333.484
 120553759.07927  22940618.307          44.000       -3956.353
 121021980.16437  23029717.138          43.000        1751.971
 127910968.78437  24340644.991          45.000        1656.938
 130926370.26035  24914460.040          33.000       -4277.472
                  24767052.703          32.000        -353.464
                  25789006.736          27.000       -1625.920
 195740093.391 6  37248109.489          40.000       -1704.092
 196069476.742 6  37310786.519          38.000       -1702.178
 07  8 29  8 59 11.9980000  0 12G19G 3G25G27G16G11G 8G13G22G18S29S37
 108355634.633 7  20619395.599          46.000       -1700.618
 109573511.073 8  20851146.600          48.000       -3262.329
 113708820.246 7  21638072.167          46.000       -1139.458
 120491300.715 7  22928732.626          44.000         337.282
 120557714.59926  22941371.321          37.000       -3951.424
 121020223.89537  23029382.410          42.000        1756.939
 127909310.87927  24340329.457          44.000        1658.562
                  24915272.628          29.000       -4273.751
 130152066.74036  24767114.880          40.000        -350.342
                  25789320.648          28.000       -1626.114
 195741797.04136  37248433.787          37.000       -1696.334
 196071181.22436  37311111.321          37.000       -1700.259
 07  8 29  8 59 12.9980000  0 12G19G 3G25G27G16G11G 8G13G22G18S29S37
 108357334.883 7  20619719.458          47.000       -1699.961
 109576772.410 8  20851767.724          48.000       -3261.276
 113709956.615 7  21638288.097          47.000       -1135.539
 120490963.361 7  22928668.392          44.000         339.041
 120561667.01737  22942123.372          42.000       -3953.917
 121018462.58627  23029046.792          42.000        1762.091
 127907651.89527  24340013.713          45.000        1658.626
                  24916085.889          29.000       -4291.159
 130152418.05436  24767178.206          41.000        -350.834
                  25789633.870          27.000       -1605.914
 195743497.576 6  37248757.279          39.000       -1697.992
 196072882.756 6  37311435.145          37.000       -1698.028
 07  8 29  8 59 13.9980000  0 12G19G 3G25G27G16G11G 8G13G22G18S29S37
 108359033.271 8  20620042.340          48.000       -1697.502
 109580032.518 8  20852387.452          50.000       -3258.883
 113711091.111 8  21638504.114          48.000       -1133.693
 120490624.674 7  22928604.072          47.000         340.785
 120565618.66937  22942874.500          44.000       -3951.105
 121016697.32837  23028710.651          42.000        1768.317
 127905991.83627  24339697.551          45.000        1661.434
 130939185.07935  24916898.552          32.000       -4274.207
 130152767.51237  24767242.459          43.000        -348.877
                  25789942.393          29.000       -1596.744
 195745193.767 6  37249079.968          40.000       -1697.388
 196074579.998 6  37311758.082          37.000       -1689.667
 07  8 29  8 59 14.9980000  0 12G19G 3G25G27G16G11G 8G13G22G18S29S37
 108360729.500 8  20620365.083          48.000       -1696.352
 109583289.751 8  20853007.372          48.000       -3256.224
 113712223.828 8  21638719.538          48.000       -1131.719
 120490283.613 7  22928539.367          46.000         342.711
 120569568.17937  22943625.803          42.000       -3947.214
 121014931.08827  23028375.152          44.000        1766.454
 127904328.85827  24339380.953          45.000        1665.024
 130943458.51635  24917708.677          33.000       -4277.145
 130153114.87127  24767307.584          44.000        -346.235
                  25790249.717          27.000       -1621.642
 195746888.134 6  37249402.676          40.000       -1695.272
 196076275.395 6  37312080.839          40.000       -1695.135
 07  8 29  8 59 15.9980000  0 12G19G 3G25G27G16G11G 8G13G22G18S29S37
 108362423.520 7  20620687.285          47.000       -1692.698
 109586543.938 8  20853627.031          48.000       -3251.837
 113713355.146 7  21638934.944          46.000       -1130.319
 120489940.315 7  22928474.138          45.000         342.836
 120573515.43126  22944377.472          41.000       -3945.980
 121013164.49726  23028038.992          41.000        1767.445
 127902662.83327  24339063.831          44.000        1668.712
                  24918519.739          35.000       -4294.351
 130153459.33827  24767372.780          43.000        -342.131
                  25790557.301          26.000       -1602.980
 195748581.773 6  37249724.669          41.000       -1692.486
 196077969.883 6  37312403.285          38.000       -1694.177
 07  8 29  8 59 16.9980000  0 12G19G 3G25G27G16G11G 8G13G22G18S29S37
 108364115.001 7  20621009.120          45.000       -1690.248
 109589794.986 7  20854245.624          47.000       -3249.428
 113714484.349 7  21639150.088          45.000       -1128.391
 120489594.241 7  22928407.899          44.000         347.945
 120577460.45126  22945128.513          40.000       -3943.792
 121011397.13426  23027703.389          39.000        1767.984
 127900993.53727  24338746.518          44.000        1672.367
                  24919329.508          33.000       -4270.629
 130153801.23926  24767438.271          41.000        -341.411
                  25790862.609          27.000       -1605.671
 195750273.678 6  37250046.591          38.000       -1690.404
 196079662.758 6  37312725.416          36.000       -1693.997
 07  8 29  8 59 17.9980000  0 12G19G 3G25G27G16G11G 8G13G22G18S29S37
 108365803.986 7  20621330.799          47.000       -1687.308
 109593043.405 8  20854864.043          48.000       -3248.144
 113715611.382 7  21639364.762          47.000       -1125.292
 120489245.275 7  22928341.712          43.000         351.896
 120581403.95136  22945878.401          39.000       -3943.714
 121009628.51526  23027366.269          41.000        1768.740
 127899320.77027  24338428.070          44.000        1674.649
                  24920140.316          34.000       -4269.250
 130154141.54236  24767502.399          38.000        -343.883
                  25791168.807          30.000       -1608.261
 195751964.024 6  37250368.373          41.000       -1689.876
 196081354.183 6  37313047.339          38.000       -1690.921
 07  8 29  8 59 18.9980000  0 12G19G 3G25G27G16G11G 8G13G22G18S29S37
 108367489.958 7  20621652.023          47.000       -1684.204
 109596288.829 7  20855481.695          47.000       -3243.502
 113716735.373 7  21639578.983          47.000       -1120.736
 120488892.177 7  22928274.303          46.000         355.328
 120585346.99426  22946628.865          41.000       -3943.179
 121007859.63826  23027029.985          39.000        1767.200
 127897642.881 7  24338109.047          45.000        1681.435
                  24920950.706          31.000       -4263.222
 130154480.60036  24767567.406          38.000        -332.301
 135535098.19236  25791471.797          36.000       -1603.935
 195753654.408 6  37250689.684          41.000       -1690.928
 196083045.625 6  37313369.644          40.000       -1691.608
 07  8 29  8 59 19.9980000  0 12G19G 3G25G27G16G11G 8G13G22G18S29S37
 108369172.146 8  20621972.201          49.000       -1680.676
 109599530.611 8  20856098.230          49.000       -3240.734
 113717855.592 8  21639791.789          49.000       -1118.409
 120488533.456 7  22928205.970          46.000         361.829
 120589290.57127  22947379.277          44.000       -3943.871
                  23026695.286          33.000        1756.291
 127895958.040 7  24337788.594          47.000        1688.815
                  24921772.224          28.000       -4272.103
 130154816.32136  24767628.095          40.000        -338.007
 135536707.47035  25791773.368          32.000       -1613.698
 195755345.366 7  37251011.431          42.000       -1691.220
 196084738.306 6  37313691.722          39.000       -1693.962
 07  8 29  8 59 20.9980000  0 12G19G 3G25G27G16G11G 8G13G22G18S29S37
 108370850.654 8  20622291.507          49.000       -1676.200
 109602768.812 7  20856713.806          46.000       -3235.705
 113718972.010 8  21640004.421          50.000       -1114.437
 120488168.984 7  22928136.556          45.000         368.336
 120593234.76527  22948130.108          42.000       -3940.451
 121004342.55234  23026360.803          29.000        1765.228
 127894266.241 7  24337466.728          45.000        1696.040
                  24922587.203          26.000       -4269.066
 130155154.67427  24767692.731          42.000        -338.323
                  25792080.168          35.000       -1593.500
 195757037.039 7  37251333.422          43.000       -1690.536
 196086432.023 6  37314013.976          40.000       -1691.671
 07  8 29  8 59 21.9980000  0 11G19G 3G25G27G16G11G 8G22G18S29S37
 108372525.697 8  20622610.341          48.000       -1673.364
 109606003.703 8  20857329.991          49.000       -3232.788
 113720084.841 8  21640215.623          49.000       -1111.248
 120487799.444 7  22928066.460          46.000         372.602
 120597179.08127  22948880.624          42.000       -3941.262
 121002578.83135  23026027.592          34.000        1766.535
 127892568.086 7  24337143.900          46.000        1699.755
 130155492.39437  24767758.222          44.000        -337.250
                  25792382.389          30.000       -1590.443
 195758729.412 7  37251655.658          42.000       -1691.938
 196088126.087 6  37314336.526          39.000       -1690.290
 07  8 29  8 59 22.9980000  0 11G19G 3G25G27G16G11G 8G22G18S29S37
 108374198.207 8  20622928.407          49.000       -1670.847
 109609236.121 8  20857943.995          48.000       -3231.068
 113721195.486 7  21640427.207          47.000       -1109.482
 120487426.704 7  22927995.613          46.000         374.841
 120601122.65227  22949631.368          44.000       -3941.826
 121000811.13335  23025690.612          33.000        1769.936
 127890866.070 7  24336819.451          46.000        1705.280
 130155829.03926  24767822.824          40.000        -334.522
                  25792684.992          30.000       -1595.975
 195760420.931 7  37251977.633          42.000       -1687.984
 196089818.730 6  37314658.831          40.000       -1692.374
 07  8 29  8 59 23.9980000  0 11G19G 3G25G27G16G11G 8G22G18S29S37
 108375868.491 8  20623246.543          49.000       -1669.167
 109612466.099 8  20858559.361          49.000       -3229.372
 113722304.236 7  21640637.430          46.000       -1108.106
 120487051.672 7  22927923.928          46.000         375.888
 120605064.24127  22950381.431          43.000       -3940.013
                  23025354.800          33.000        1771.024
 127889161.498 7  24336494.929          46.000        1705.217
 130156163.80627  24767887.948          45.000        -334.011
                  25792987.319          27.000       -1589.036
 195762110.263 7  37252299.118          42.000       -1687.950
 196091509.252 6  37314980.405          39.000       -1688.663
 07  8 29  8 59 24.9980000  0 11G19G 3G25G27G16G11G 8G22G18S29S37
 108377537.156 8  20623564.242          49.000       -1667.842
 109615694.402 8  20859173.819          48.000       -3227.198
 113723411.345 7  21640849.067          47.000       -1106.373
 120486675.533 7  22927852.540          47.000         377.406
 120609003.724 7  22951131.093          44.000       -3937.261
                  23025018.026          33.000        1763.356
 127887455.950 7  24336170.181          45.000        1706.015
                  24767949.514          36.000        -328.719
                  25793288.824          30.000       -1589.101
 195763796.147 6  37252620.135          40.000       -1682.276
 196093197.312 6  37315301.873          38.000       -1687.287
 07  8 29  8 59 25.9980000  0 11G19G 3G25G27G16G11G 8G22G18S29S37
 108379204.240 8  20623881.470          48.000       -1665.680
 109618920.892 8  20859787.718          50.000       -3225.416
 113724517.269 8  21641059.168          49.000       -1105.146
 120486298.391 7  22927780.313          42.000         377.678
 120612939.48637  22951880.250          43.000       -3934.165
 120995511.42535  23024680.369          35.000        1777.164
 127885749.340 7  24335845.956          45.000        1706.612
 130156779.43336  24768011.689          40.000        -329.870
                  25793590.278          32.000       -1585.558
 195765479.172 7  37252940.521          42.000       -1682.283
 196094882.811 6  37315622.784          41.000       -1685.535
 07  8 29  8 59 26.9980000  0 11G19G 3G25G27G16G11G 8G22G18S29S37
 108380869.539 8  20624198.454          48.000       -1664.194
 109622145.516 8  20860401.181          50.000       -3223.403
 113725621.855 8  21641269.008          49.000       -1103.883
 120485919.983 7  22927708.227          44.000         378.583
 120616873.29727  22952628.271          43.000       -3932.408
                  23024341.086          36.000        1780.077
 127884041.479 7  24335520.702          45.000        1709.070
 130157107.08326  24768075.333          41.000        -322.573
 135547810.76235  25793890.857          32.000       -1588.100
 195767159.564 6  37253260.228          41.000       -1678.865
 196096565.703 6  37315943.084          40.000       -1680.656
 07  8 29  8 59 27.9980000  0 11G19G 3G25G27G16G11G 8G22G18S29S37
 108382533.058 8  20624514.688          48.000       -1662.301
 109625368.184 8  20861014.801          51.000       -3222.094
 113726724.837 8  21641479.667          50.000       -1102.282
 120485539.784 6  22927635.930          39.000         378.015
 120620804.77827  22953376.746          44.000       -3931.715
 120991931.68935  23023999.236          35.000        1780.829
 127882332.125 7  24335195.623          45.000        1711.350
 130157432.81627  24768138.170          43.000        -324.469
                  25794192.990          33.000       -1588.184
 195768837.202 7  37253579.376          42.000       -1675.062
 196098245.820 6  37316262.737          39.000       -1680.394
 07  8 29  8 59 28.9980000  0 11G19G 3G25G27G16G11G 8G22G18S29S37
 108384195.091 8  20624831.095          49.000       -1661.418
 109628589.282 8  20861627.566          51.000       -3220.734
 113727826.762 8  21641689.123          49.000       -1101.768
 120485158.957 7  22927563.496          46.000         381.495
 120624733.55427  22954124.403          44.000       -3926.708
 120990149.87137  23023657.231          43.000        1784.658
 127880621.995 7  24334870.385          46.000        1710.613
 130157756.02136  24768199.877          41.000        -318.637
                  25794496.661          28.000       -1582.100
 195770511.711 7  37253898.140          42.000       -1673.161
 196099922.659 6  37316581.695          40.000       -1673.941
 07  8 29  8 59 29.9980000  0 11G19G 3G25G27G16G11G 8G22G18S29S37
 108385856.347 8  20625146.717          48.000       -1661.122
 109631809.355 8  20862240.610          50.000       -3220.292
 113728928.313 8  21641898.508          48.000       -1101.732
 120484778.742 7  22927491.146          46.000         378.297
 120628658.62327  22954870.977          42.000       -3924.411
 120988362.97027  23023315.313          44.000        1789.406
 127878913.005 7  24334545.269          47.000        1707.585
 130158076.63137  24768259.486          44.000        -321.144
                  25794798.304          30.000       -1584.805
 195772182.304 6  37254215.980          41.000       -1666.887
 196101594.948 6  37316899.727          40.000       -1670.245
 07  8 29  8 59 30.9980000  0 11G19G 3G25G27G16G11G 8G22G18S29S37
 108387517.338 8  20625462.637          49.000       -1659.905
 109635028.938 8  20862853.305          50.000       -3219.546
 113730030.034 8  21642107.876          49.000       -1100.772
 120484400.339 7  22927419.373          46.000         378.375
                  22955617.009          42.000       -3921.171
 120986571.77736  23022973.117          41.000        1796.000
 127877206.907 7  24334220.554          44.000        1703.126
 130158393.92527  24768319.778          42.000        -316.136
                  25795097.890          31.000       -1583.208
 195773847.030 6  37254532.738          41.000       -1664.483
 196103261.773 6  37317216.852          40.000       -1663.545
 07  8 29  8 59 31.9980000  0 11G19G 3G25G27G16G11G 8G22G18S29S37
 108389177.718 8  20625778.433          49.000       -1660.000
 109638248.009 8  20863466.348          50.000       -3218.825
 113731131.463 8  21642317.488          48.000       -1101.443
 120484022.999 7  22927347.461          47.000         377.853
 120636498.87637  22956362.520          43.000       -3915.209
 120984775.15427  23022629.994          44.000        1797.631
 127875502.99037  24333896.468          45.000        1703.021
 130158708.44337  24768380.139          44.000        -314.455
 135555727.46135  25795397.264          33.000       -1589.417
 195775506.892 7  37254848.572          42.000       -1658.093
 196104923.117 6  37317533.035          40.000       -1656.088
 07  8 29  8 59 32.9980000  0 11G19G 3G25G27G16G11G 8G22G18S29S37
 108390837.255 8  20626094.248          49.000       -1658.582
 109641467.146 8  20864078.432          51.000       -3218.488
 113732231.808 8  21642527.065          48.000       -1099.295
 120483645.891 8  22927275.828          48.000         378.288
 120640413.02727  22957107.103          44.000       -3914.694
 120982973.27027  23022287.485          44.000        1807.540
 127873800.09827  24333572.173          45.000        1702.577
 130159021.89837  24768439.558          42.000        -312.717
                  25795697.548          35.000       -1587.378
 195777161.852 7  37255163.550          42.000       -1652.605
 196106578.97636  37317848.345          40.000       -1651.306
 07  8 29  8 59 33.9980000  0 11G19G 3G25G27G16G11G 8G22G18S29S37
 108392495.421 8  20626409.958          49.000       -1657.383
 109644686.889 8  20864691.144          50.000       -3219.849
 113733329.541 8  21642736.190          50.000       -1096.132
 120483267.317 8  22927204.352          48.000         379.117
 120644326.71627  22957852.122          47.000       -3916.316
 120981165.53527  23021943.560          44.000        1812.487
 127872096.96927  24333247.984          44.000        1704.425
                  24768503.424          32.000        -317.290
                  25796000.430          32.000       -1592.267
 195778812.328 6  37255477.674          40.000       -1647.195
 196108231.538 6  37318162.992          36.000       -1647.029
 07  8 29  8 59 34.9980000  0 12G19G 3G25G27G16G11G 8G13G22G18S29S37
 108394151.108 8  20626724.866          49.000       -1652.572
 109647907.882 8  20865304.013          48.000       -3220.955
 113734422.636 8  21642944.164          50.000       -1090.959
 120482884.799 8  22927131.465          48.000         385.014
 120648242.39827  22958597.561          46.000       -3916.060
 120979350.82828  23021597.821          48.000        1817.684
 127870391.03636  24332923.465          38.000        1711.745
                  24933883.094          32.000       -4225.354
                  24768565.689          31.000        -308.694
                  25796302.233          33.000       -1587.039
 195780459.174 6  37255790.697          39.000       -1642.704
 196109880.373 6  37318476.519          39.000       -1648.147
 07  8 29  8 59 35.9980000  0 12G19G 3G25G27G16G11G 8G13G22G18S29S37
 108395804.288 8  20627039.669          48.000       -1650.728
 109651130.087 8  20865917.525          49.000       -3227.057
 113735511.010 8  21643151.300          49.000       -1084.166
 120482497.792 8  22927057.809          48.000         389.571
 120652161.51327  22959343.416          47.000       -3921.800
 120977530.73327  23021251.907          47.000        1820.956
 127868680.95536  24332598.437          41.000        1710.121
                  24934657.560          41.000       -4205.742
                  24768628.943          32.000        -317.221
                  25796606.008          29.000       -1584.254
 195782103.16236  37256103.264          38.000       -1646.034
 196111527.637 6  37318790.013          38.000       -1646.015
 07  8 29  8 59 36.9980000  0 11G19G 3G25G27G16G11G 8G13G22S29S37
 108397453.993 8  20627353.616          49.000       -1648.888
 109654352.656 8  20866530.518          48.000       -3223.303
 113736593.485 8  21643356.865          49.000       -1080.584
 120482104.693 8  22926983.020          48.000         395.976
 120656084.49928  22960090.057          48.000       -3925.320
 120975705.53727  23020904.336          47.000        1827.109
                  24332273.937          30.000        1721.489
 131036670.36437  24935449.296          43.000       -4198.849
                  24768692.273          31.000        -309.151
 195783745.93736  37256415.834          40.000       -1641.577
 196113174.257 7  37319103.401          42.000       -1646.256
 07  8 29  8 59 37.9980000  0 12G19G 3G25G27G16G11G 8G13G22G23S29S37
 108399100.717 8  20627667.250          51.000       -1646.076
 109657575.456 8  20867143.736          48.000       -3221.895
 113737671.008 8  21643561.786          49.000       -1074.719
 120481706.344 7  22926907.252          47.000         399.944
 120660010.51027  22960837.099          47.000       -3929.693
 120973875.94627  23020556.171          42.000        1832.177
                  24331947.605          28.000        1735.075
 131040865.45027  24936246.704          45.000       -4192.518
                  24768753.376          36.000        -328.893
                  25583500.212          30.000       -4248.111
 195785388.022 7  37256728.177          42.000       -1639.468
 196114819.836 6  37319416.494          40.000       -1644.318
 07  8 29  8 59 38.9980000  0 12G19G 3G25G27G16G11G 8G13G22G23S29S37
 108400745.316 8  20627980.361          50.000       -1642.181
 109660797.777 8  20867756.850          49.000       -3221.750
 113738745.495 8  21643766.163          49.000       -1073.945
 120481305.312 7  22926830.681          47.000         401.411
 120663936.70327  22961583.638          47.000       -3927.427
 120972042.22837  23020207.745          44.000        1837.869
                  24331618.196          29.000        1730.679
                  24937044.895          37.000       -4189.196
 130161001.72137  24768815.148          42.000        -334.095
                  25584315.058          28.000       -4273.441
 195787024.34136  37257039.350          41.000       -1636.735
 196116462.21037  37319729.290          43.000       -1640.893
 07  8 29  8 59 39.9980000  0 12G19G 3G25G27G16G11G 8G13G22G23S29S37
 108402387.981 8  20628293.034          51.000       -1641.602
 109664019.751 8  20868369.649          49.000       -3221.937
 113739817.339 8  21643970.122          49.000       -1069.755
 120480901.923 8  22926754.268          48.000         404.319
 120667862.53728  22962330.578          49.000       -3924.535
 120970204.60527  23019858.497          42.000        1840.658
 127861785.35937  24331288.856          42.000        1724.345
                  24937845.947          30.000       -4189.839
 130161335.79437  24768876.660          42.000        -334.141
                  25585126.033          29.000       -4245.297
 195788659.74626  37257350.209          40.000       -1634.540
 196118102.869 6  37320041.440          40.000       -1641.475
 07  8 29  8 59 40.9980000  0 11G19G 3G25G27G16G11G 8G13G22S29S37
 108404028.712 8  20628605.115          51.000       -1639.592
 109667241.135 8  20868982.746          49.000       -3220.393
 113740886.522 8  21644173.191          49.000       -1068.426
 120480496.143 8  22926676.790          48.000         406.431
 120671788.16328  22963077.587          48.000       -3924.990
 120968363.18727  23019508.063          44.000        1843.965
 127860058.24637  24330959.623          42.000        1725.231
                  24938643.844          31.000       -4182.513
                  24768938.783          34.000        -332.339
 195790292.419 7  37257660.841          42.000       -1631.585
 196119740.102 6  37320353.049          40.000       -1638.610
 07  8 29  8 59 41.9980000  0 11G19G 3G25G27G16G11G 8G13G22S29S37
 108405667.830 8  20628916.881          50.000       -1638.205
 109670461.781 8  20869595.719          49.000       -3219.980
 113741953.783 8  21644376.138          50.000       -1065.748
 120480088.859 8  22926599.190          48.000         408.884
 120675712.55428  22963823.968          48.000       -3922.778
 120966517.91927  23019156.861          44.000        1847.732
                  24330631.038          42.000        1732.349
                  24939438.564          35.000       -4176.487
                  24769001.828          30.000        -339.838
 195791922.095 6  37257970.933          40.000       -1628.882
 196121374.389 6  37320663.753          38.000       -1632.021
 07  8 29  8 59 42.9980000  0 12G19G 3G25G27G16G11G 8G13G22G18S29S37
 108407305.471 8  20629228.455          51.000       -1637.111
 109673681.656 8  20870208.153          49.000       -3219.095
 113743019.236 8  21644578.753          49.000       -1065.036
 120479680.36536  22926521.798          37.000         408.257
 120679635.628 8  22964570.367          48.000       -3921.568
 120964669.03727  23018805.048          44.000        1849.488
                  24330303.613          38.000        1717.038
 131061806.88035  24940232.654          32.000       -4174.862
                  24769066.346          32.000        -329.159
                  25798736.353          32.000       -1616.208
 195793548.229 7  37258280.519          43.000       -1623.825
 196123005.789 7  37320974.316          42.000       -1629.165
 07  8 29  8 59 43.9980000  0 12G19G 3G25G27G16G11G 8G13G22G18S29S37
 108408942.010 8  20629539.976          51.000       -1636.344
 109676900.881 8  20870820.725          49.000       -3218.400
 113744083.506 8  21644781.438          49.000       -1064.284
 120479270.69638  22926443.516          48.000         409.352
 120683556.460 8  22965317.010          48.000       -3920.263
 120962816.71827  23018452.486          45.000        1853.732
                  24329976.532          30.000        1731.246
                  24941028.960          31.000       -4176.368
 130162661.16436  24769131.014          38.000        -333.751
                  25799042.278          31.000       -1603.346
 195795171.113 7  37258589.337          43.000       -1621.100
 196124634.038 6  37321284.180          41.000       -1626.760
 07  8 29  8 59 44.9980000  0 12G19G 3G25G27G16G11G 8G13G22G18S29S37
 108410577.404 8  20629851.341          50.000       -1633.841
 109680119.528 8  20871433.263          49.000       -3218.770
 113745146.404 8  21644983.809          50.000       -1062.006
 120478860.74727  22926365.410          47.000         410.768
 120687474.86037  22966062.623          47.000       -3919.335
 120960960.53227  23018098.946          44.000        1857.393
 127853143.63937  24329644.367          42.000        1731.066
 131070157.07535  24941821.762          34.000       -4165.097
 130162992.38337  24769196.419          42.000        -331.092
 135576490.30535  25799348.404          33.000       -1611.711
 195796790.698 7  37258897.613          42.000       -1618.674
 196126258.773 7  37321593.400          42.000       -1621.128
 07  8 29  8 59 45.9980000  0 12G19G 3G25G27G16G11G 8G13G22G18S29S37
 108412211.349 8  20630162.253          50.000       -1632.553
 109683337.679 8  20872045.731          48.000       -3218.448
 113746207.429 8  21645185.656          49.000       -1059.070
 120478449.33227  22926287.145          44.000         410.172
                  22966807.679          41.000       -3915.912
 120959100.52827  23017744.952          44.000        1861.051
                  24329314.854          36.000        1730.680
                  24942609.607          40.000       -4159.991
                  24769257.356          35.000        -329.248
 135578102.49135  25799655.734          32.000       -1618.594
 195798407.115 7  37259205.454          42.000       -1613.410
 196127880.303 6  37321901.870          40.000       -1615.833
 07  8 29  8 59 46.9980000  0 12G19G 3G25G27G16G11G 8G13G22G18S29S37
 108413843.675 8  20630472.919          51.000       -1631.460
 109686555.417 8  20872657.675          49.000       -3217.069
 113747266.234 8  21645387.050          49.000       -1056.159
 120478040.89537  22926207.818          47.000         413.615
 120695328.18136  22967557.427          40.000       -3917.254
 120957236.55327  23017390.034          43.000        1866.938
                  24328986.008          35.000        1737.420
 131078457.87636  24943401.357          36.000       -4162.870
 130163675.12235  24769323.928          35.000        -330.320
 135579713.75435  25799963.822          34.000       -1607.736
 195800020.596 7  37259512.561          42.000       -1612.259
 196129498.967 6  37322209.953          40.000       -1617.089
 07  8 29  8 59 47.9980000  0 13G19G 3G25G27G16G11G 8G13G22G18G23S29
                                S37
 108415474.177 8  20630783.377          51.000       -1629.214
 109689772.516 8  20873269.794          48.000       -3217.026
 113748322.588 8  21645588.060          49.000       -1054.499
 120477625.74027  22926128.264          47.000         416.666
 120699244.30528  22968298.992          48.000       -3915.270
 120955368.61826  23017034.818          41.000        1868.829
 127847941.24137  24328654.313          43.000        1734.659
                  24944193.722          31.000       -4155.218
 130164007.21735  24769388.790          33.000        -331.132
                  25800272.061          33.000       -1611.526
 134484444.34835  25591539.020          33.000       -4205.964
 195801630.783 6  37259819.181          41.000       -1608.020
 196131114.806 6  37322517.409          40.000       -1614.282
 07  8 29  8 59 48.9980000  0 11G19G 3G25G27G16G11G 8G13G22S29S37
 108417102.752 8  20631093.241          50.000       -1626.934
 109692988.546 8  20873882.106          48.000       -3215.317
 113749376.645 8  21645788.948          49.000       -1051.526
 120477208.23828  22926048.622          48.000         418.677
 120703159.73937  22969043.070          45.000       -3914.406
 120953498.010 7  23016678.748          44.000        1871.686
                  24328325.479          36.000        1730.358
 131086764.29537  24944981.950          42.000       -4150.224
                  24769448.121          39.000        -329.251
 195803239.46136  37260125.466          40.000       -1609.210
                  37322824.652          38.000       -1623.548
 07  8 29  8 59 49.9980000  0 11G19G 3G25G27G16G11G 8G13G22S29S37
 108418729.359 8  20631402.878          51.000       -1625.480
 109696202.973 8  20874493.649          48.000       -3212.587
 113750428.553 8  21645989.137          50.000       -1050.822
 120476788.31327  22925969.608          47.000         421.567
                  22969787.841          42.000       -3925.967
 120951625.326 7  23016322.450          44.000        1874.296
 127844468.46637  24327993.581          43.000        1742.219
                  24945770.945          37.000       -4148.361
 130164657.08737  24769510.733          43.000        -328.409
 195804846.063 7  37260431.247          43.000       -1606.972
 196134378.66837  37323131.380          42.000       -1608.900
 07  8 29  8 59 50.9980000  0 11G19G 3G25G27G16G11G 8G13G22S29S37
 108420353.621 8  20631711.888          51.000       -1622.668
 109699415.313 8  20875105.316          49.000       -3209.677
 113751478.137 8  21646188.664          49.000       -1047.558
 120476365.47928  22925889.792          48.000         425.208
 120710958.96537  22970531.835          47.000       -3915.560
 120949751.321 7  23015965.977          45.000        1873.987
                  24327664.066          29.000        1735.104
 131095042.46737  24946557.252          43.000       -4146.859
                  24769572.751          39.000        -330.204
 195806451.171 7  37260736.540          42.000       -1604.250
 196135989.62126  37323437.701          39.000       -1608.578
 07  8 29  8 59 51.9980000  0 11G19G 3G25G27G16G11G 8G13G22S29S37
 108421975.486 8  20632020.217          51.000       -1620.258
 109702624.463 8  20875716.195          48.000       -3209.554
 113752525.948 8  21646387.772          49.000       -1046.625
 120475939.72528  22925808.842          48.000         427.633
                  22971275.777          42.000       -3904.884
 120947877.728 7  23015609.521          46.000        1874.308
                  24327332.276          29.000        1759.043
 131099188.35836  24947345.409          39.000       -4145.582
 130165293.72436  24769631.926          38.000        -326.652
 195808055.72336  37261041.832          41.000       -1603.222
 196137600.452 6  37323743.969          40.000       -1611.115
 07  8 29  8 59 52.9980000  0 11G19G 3G25G27G16G11G 8G13G22S29S37
 108423595.346 8  20632328.371          51.000       -1618.074
 109705831.784 8  20876326.361          49.000       -3206.394
 113753571.725 8  21646587.020          50.000       -1043.429
 120475511.29527  22925727.403          47.000         431.580
 120718773.64337  22972018.962          44.000       -3909.599
 120946003.188 7  23015252.822          45.000        1875.514
                  24326997.507          31.000        1748.141
 131103332.10027  24948134.370          42.000       -4141.437
                  24769693.212          37.000        -322.982
 195809659.245 6  37261347.107          41.000       -1601.603
 196139210.253 6  37324050.308          41.000       -1608.539
 07  8 29  8 59 53.9980000  0 11G19G 3G25G27G16G11G 8G13G22S29S37
 108425213.080 8  20632636.333          51.000       -1617.648
 109709038.015 8  20876936.735          49.000       -3204.331
 113754614.870 8  21646785.987          51.000       -1042.350
 120475080.22037  22925644.986          45.000         432.470
                  22972763.125          41.000       -3914.479
 120944125.57437  23014895.234          45.000        1880.318
                  24326663.915          37.000        1759.180
 131107471.99227  24948922.371          43.000       -4136.996
                  24769755.984          36.000        -314.126
 195811260.971 7  37261651.804          42.000       -1602.594
 196140818.369 7  37324356.105          43.000       -1609.548
 07  8 29  8 59 54.9980000  0 12G19G 3G25G27G16G11G 8G13G22G18S29S37
 108426828.637 8  20632943.947          51.000       -1613.734
 109712243.117 8  20877546.760          49.000       -3205.229
 113755655.332 8  21646984.083          50.000       -1039.512
 120474646.55127  22925562.098          46.000         435.037
 120726598.93937  22973508.051          42.000       -3931.152
 120942245.01827  23014537.593          47.000        1882.558
 127835724.23036  24326329.550          36.000        1753.309
                  24949709.360          40.000       -4132.323
 130166263.13836  24769816.303          40.000        -329.620
                  25802438.378          25.000       -1488.558
 195812859.679 7  37261956.121          42.000       -1596.360
 196142423.73236  37324661.766          41.000       -1603.731
 07  8 29  8 59 55.9980000  0 12G19G 3G25G27G16G11G 8G13G22G18S29S37
 108428442.372 8  20633250.582          51.000       -1612.218
 109715447.309 8  20878156.628          49.000       -3204.148
 113756693.569 8  21647181.429          50.000       -1036.835
 120474210.65227  22925479.002          46.000         438.174
 120730518.81337  22974253.601          43.000       -3911.516
 120940361.47727  23014179.393          45.000        1885.652
 127833969.34936  24325996.008          38.000        1757.788
 131115741.62727  24950496.174          43.000       -4130.360
                  24769878.166          37.000        -324.627
                  25802723.920          24.000       -1478.515
 195814456.321 7  37262259.912          43.000       -1596.018
 196144027.05126  37324966.726          41.000       -1602.325
 07  8 29  8 59 56.9980000  0 12G19G 3G25G27G16G11G 8G13G22G18S29S37
 108430054.234 8  20633557.270          51.000       -1610.985
 109718650.499 8  20878766.252          49.000       -3201.425
 113757729.453 8  21647378.600          51.000       -1034.758
 120473772.18527  22925395.625          46.000         441.077
 120734429.14737  22974996.963          44.000       -3913.130
 120938475.62827  23013820.634          46.000        1886.823
                  24325661.262          30.000        1762.854
 131119870.85426  24951281.888          39.000       -4129.508
 130166909.77736  24769939.363          39.000        -328.261
                  25803013.647          24.000       -1474.813
 195816051.294 6  37262563.512          41.000       -1592.636
 196145629.349 6  37325271.477          41.000       -1602.190
 07  8 29  8 59 57.9980000  0 12G19G 3G25G27G16G11G 8G13G22G18S29S37
 108431663.914 8  20633863.802          51.000       -1608.444
 109721852.131 8  20879375.527          50.000       -3201.089
 113758762.887 8  21647575.230          51.000       -1032.426
 120473330.86527  22925311.481          46.000         441.511
                  22975740.692          43.000       -3909.875
 120936587.97827  23013461.283          45.000        1887.781
                  24325325.049          39.000        1763.907
 131123997.17337  24952066.958          44.000       -4123.867
 130167231.75936  24770001.260          36.000        -324.739
                  25803310.767          25.000       -1486.904
 195817645.094 7  37262866.728          42.000       -1591.604
 196147229.57237  37325576.141          42.000       -1600.818
 07  8 29  8 59 58.9980000  0 11G19G 3G25G27G16G11G 8G13G22S29S37
 108433271.584 8  20634169.740          50.000       -1607.154
 109725052.341 8  20879984.505          49.000       -3199.889
 113759794.067 8  21647771.685          51.000       -1030.922
 120472886.80727  22925227.040          46.000         444.765
                  22976483.616          42.000       -3914.228
 120934698.65327  23013101.809          47.000        1891.514
                  24324988.697          39.000        1766.543
 131128120.72227  24952851.764          42.000       -4122.424
                  24770062.056          41.000        -327.726
 195819237.72037  37263169.802          43.000       -1593.223
 196148829.45337  37325880.455          42.000       -1601.489
 07  8 29  8 59 59.9980000  0 12G19G 3G25G27G16G11G 8G13G22G23S29S37
 108434877.111 8  20634475.399          50.000       -1604.240
 109728250.959 8  20880593.047          48.000       -3198.919
 113760822.879 8  21647968.158          51.000       -1027.096
 120472439.95027  22925142.321          46.000         449.006
 120746144.07737  22977227.417          43.000       -3906.968
 120932807.63728  23012742.213          48.000        1891.862
 127826909.16637  24324652.049          42.000        1769.725
 131132241.40627  24953635.699          42.000       -4118.481
                  24770124.091          33.000        -327.660
                  25601253.329          26.000       -4298.379
 195820829.22817  37263472.635          42.000       -1589.513
 196150428.62217  37326184.632          43.000       -1594.908
 07  8 29  9  0  0.9980000  0 12G19G 3G25G27G16G11G 8G13G22G23S29S37
 108436480.584 8  20634780.342          50.000       -1602.240
 109731448.018 8  20881201.414          49.000       -3196.728
 113761849.454 8  21648163.671          51.000       -1025.754
 120471990.346 7  22925056.555          45.000         452.153
 120750054.96937  22977970.498          45.000       -3909.697
 120930914.996 7  23012381.901          46.000        1892.357
 127825138.27836  24324315.435          38.000        1772.039
 131136359.51737  24954418.972          42.000       -4114.231
 130168200.44337  24770185.045          43.000        -327.049
                  25602069.314          30.000       -4311.660
 195822419.464 6  37263775.186          41.000       -1590.901
 196152025.766 7  37326488.580          44.000       -1594.755
 07  8 29  9  0  1.9980000  0 12G19G 3G25G27G16G11G 8G13G22G23S29S37
 108438082.150 8  20635085.128          51.000       -1600.554
 109734643.540 8  20881809.276          49.000       -3194.696
 113762874.019 8  21648358.835          51.000       -1024.255
 120471538.367 7  22924970.072          45.000         454.553
 120753961.55237  22978713.530          42.000       -3906.208
 120929020.890 7  23012021.939          47.000        1895.662
                  24323979.031          35.000        1775.779
 131140475.18327  24955202.365          42.000       -4112.294
                  24770248.213          36.000        -332.055
                  25602891.748          27.000       -4298.079
 195824008.42737  37264077.530          43.000       -1587.493
 196153621.532 7  37326792.144          45.000       -1595.420
 07  8 29  9  0  2.9980000  0 12G19G 3G25G27G16G11G 8G13G22G23S29S37
 108439681.635 8  20635389.984          50.000       -1599.182
 109737837.322 8  20882417.312          50.000       -3192.949
 113763896.397 8  21648553.249          52.000       -1021.290
 120471083.760 7  22924883.345          44.000         456.751
 120757869.45128  22979457.764          48.000       -3907.420
 120927125.286 8  23011661.244          48.000        1897.133
 127821591.35236  24323640.270          37.000        1774.763
 131144588.35427  24955985.216          44.000       -4113.933
 130168858.07036  24770310.198          41.000        -325.707
                  25603706.098          24.000       -4295.618
 195825595.628 7  37264379.558          42.000       -1588.462
 196155216.290 7  37327095.691          45.000       -1593.469
 07  8 29  9  0  3.9980000  0 11G19G 3G25G27G16G11G 8G13G22S29S37
 108441279.902 8  20635694.072          50.000       -1596.614
 109741030.184 8  20883024.877          49.000       -3191.891
 113764917.348 8  21648747.732          52.000       -1018.544
 120470627.171 7  22924796.828          45.000         458.805
 120761776.98727  22980202.505          47.000       -3904.605
 120925228.238 8  23011300.339          48.000        1898.404
 127819812.49936  24323301.372          38.000        1782.731
 131148699.22227  24956767.580          44.000       -4110.806
 130169182.90627  24770371.188          45.000        -323.346
 195827182.162 7  37264681.552          43.000       -1587.011
 196156810.497 7  37327399.151          43.000       -1593.055
 07  8 29  9  0  4.9980000  0 11G19G 3G25G27G16G11G 8G13G22S29S37
 108442876.021 8  20635997.742          50.000       -1594.377
 109744221.211 8  20883632.006          50.000       -3189.010
 113765936.074 8  21648941.343          51.000       -1017.012
 120470167.882 7  22924709.264          44.000         461.420
 120765687.11238  22980946.408          48.000       -3906.233
 120923330.172 8  23010939.381          50.000        1898.565
 127818030.44536  24322962.212          38.000        1789.438
 131152807.73827  24957549.543          44.000       -4107.389
 130169507.55536  24770433.276          37.000        -321.820
 195828767.650 7  37264983.058          44.000       -1584.593
 196158403.906 7  37327702.261          43.000       -1592.076
 07  8 29  9  0  5.9980000  0 12G19G 3G25G27G16G11G 8G13G22G18S29S37
 108444469.897 8  20636301.097          50.000       -1592.870
 109747409.738 8  20884238.698          49.000       -3187.226
 113766952.883 8  21649134.570          50.000       -1016.215
 120469705.679 7  22924621.263          43.000         463.697
 120769593.21627  22981689.665          47.000       -3905.241
 120921431.642 8  23010578.127          49.000        1898.509
                  24322623.189          37.000        1787.345
 131156914.88727  24958331.155          44.000       -4109.110
 130169830.42427  24770493.428          45.000        -321.194
                  25805787.756          27.000       -1487.049
 195830352.278 7  37265284.702          44.000       -1584.250
 196159996.681 7  37328005.406          42.000       -1591.875
 07  8 29  9  0  6.9980000  0 12G19G 3G25G27G16G11G 8G13G22G18S29S37
 108446062.270 8  20636604.330          49.000       -1590.649
 109750596.254 8  20884845.216          50.000       -3185.401
 113767968.596 8  21649327.971          50.000       -1015.853
 120469241.841 7  22924533.489          43.000         465.372
 120773498.39427  22982433.952          45.000       -3903.450
 120919532.959 8  23010216.837          48.000        1898.667
 127814466.11636  24322284.324          38.000        1789.128
 131161021.15627  24959112.542          42.000       -4105.516
 130170151.83827  24770555.551          44.000        -319.951
                  25806071.412          28.000       -1478.224
 195831936.256 7  37265586.103          43.000       -1582.680
 196161588.26836  37328308.413          41.000       -1589.855
 07  8 29  9  0  7.9980000  0 12G19G 3G25G27G16G11G 8G13G22G18S29S37
 108447652.666 8  20636906.883          49.000       -1589.307
 109753780.462 8  20885450.862          50.000       -3182.542
 113768982.727 8  21649521.006          50.000       -1013.597
 120468775.551 7  22924445.279          44.000         467.664
 120777402.11727  22983177.942          47.000       -3904.759
 120917634.159 7  23009855.741          46.000        1900.354
 127812674.79635  24321943.470          34.000        1794.164
 131165126.44927  24959893.805          42.000       -4107.376
 130170471.72237  24770617.290          43.000        -318.653
                  25806355.385          25.000       -1463.762
 195833519.639 7  37265887.258          43.000       -1585.220
 196163179.52827  37328611.331          43.000       -1590.376
 07  8 29  9  0  8.9980000  0 12G19G 3G25G27G16G11G 8G13G22G18S29S37
 108449241.040 8  20637209.087          49.000       -1587.049
 109756962.263 8  20886056.193          50.000       -3181.079
 113769995.185 8  21649713.500          50.000       -1011.697
 120468306.700 7  22924356.511          43.000         469.426
 120781305.59937  22983920.171          46.000       -3901.912
 120915735.283 8  23009493.997          48.000        1898.648
                  24321603.121          36.000        1792.976
 131169230.61936  24960675.036          41.000       -4102.872
 130170790.16737  24770678.419          43.000        -317.553
                  25806642.718          24.000       -1471.818
 195835102.94537  37266188.642          44.000       -1582.371
 196164770.73717  37328913.969          44.000       -1591.903
 07  8 29  9  0  9.9980000  0 12G19G 3G25G27G16G11G 8G13G22G18S29S37
 108450827.398 8  20637511.255          48.000       -1585.529
 109760141.646 8  20886661.420          50.000       -3177.335
 113771006.055 8  21649906.151          49.000       -1010.221
 120467835.474 7  22924266.468          43.000         471.220
 120785207.36727  22984661.788          46.000       -3900.865
 120913836.037 8  23009132.307          48.000        1900.744
 127809085.44535  24321260.384          35.000        1800.210
 131173333.72627  24961456.037          42.000       -4104.059
 130171107.08727  24770739.234          44.000        -314.832
                  25806932.792          26.000       -1474.027
 195836685.623 7  37266489.764          42.000       -1580.764
 196166360.863 6  37329216.540          41.000       -1589.955
 07  8 29  9  0 10.9980000  0 12G19G 3G25G27G16G11G 8G13G22G18S29S37
 108452411.640 8  20637812.639          49.000       -1583.389
 109763318.412 8  20887265.722          50.000       -3176.429
 113772015.285 8  21650098.313          49.000       -1008.863
 120467362.100 7  22924176.216          42.000         472.650
                  22985404.398          43.000       -3905.424
 120911936.434 8  23008770.913          48.000        1901.385
                  24320918.341          33.000        1796.650
 131177435.58726  24962236.849          40.000       -4101.122
 130171422.15627  24770799.072          43.000        -311.201
 135618080.68935  25807262.733          35.000       -1583.979
 195838266.63837  37266790.555          43.000       -1576.041
 196167949.52536  37329518.498          41.000       -1591.147
 07  8 29  9  0 11.9980000  0 12G19G 3G25G27G16G11G 8G13G22G18S29S37
 108453993.800 8  20638113.376          49.000       -1581.372
 109766492.385 8  20887869.536          51.000       -3172.291
 113773023.214 8  21650290.057          49.000       -1005.895
                  22924086.262          41.000         475.737
 120793015.69337  22986146.664          45.000       -3895.780
 120910036.571 8  23008409.379          48.000        1899.367
                  24320575.326          31.000        1808.238
 131181537.11926  24963017.310          40.000       -4099.343
 130171733.19236  24770857.408          39.000        -309.797
 135619661.95736  25807583.384          39.000       -1577.079
 195839846.56216  37267091.168          41.000       -1581.002
 196169538.024 6  37329820.948          41.000       -1582.670
 07  8 29  9  0 12.9980000  0 12G19G 3G25G27G16G11G 8G13G22G18S29S37
 108455574.936 8  20638413.992          49.000       -1579.672
 109769664.596 8  20888473.261          51.000       -3171.593
 113774030.642 8  21650482.027          49.000       -1006.611
 120466408.42837  22923995.486          42.000         477.400
                  22986888.595          43.000       -3895.457
 120908136.114 8  23008047.637          49.000        1901.419
 127803687.09836  24320233.036          36.000        1797.850
 131185637.95626  24963797.597          40.000       -4097.680
 130172043.67227  24770915.326          45.000        -308.523
                  25807886.213          36.000       -1582.173
                  37267391.643          40.000       -1580.691
 196171124.10836  37330122.679          39.000       -1585.055
 07  8 29  9  0 13.9980000  0 12G19G 3G25G27G16G11G 8G13G22G18S29S37
 108457154.409 8  20638714.956          49.000       -1579.018
 109772834.510 8  20889076.185          51.000       -3168.376
 113775037.007 8  21650673.177          49.000       -1006.589
 120465930.67627  22923904.832          43.000         476.271
 120800810.45027  22987630.002          44.000       -3895.147
 120906235.078 8  23007685.860          49.000        1903.098
                  24319890.281          34.000        1803.793
 131189737.91227  24964577.970          42.000       -4101.655
 130172351.89436  24770974.239          41.000        -307.348
                  25808185.854          34.000       -1574.198
 195843042.948 7  37267691.981          43.000       -1575.882
 196172709.14337  37330424.307          43.000       -1582.639
 07  8 29  9  0 14.9980000  0 12G19G 3G25G27G16G11G 8G13G22G18S29S37
 108458732.201 8  20639015.118          49.000       -1576.455
 109776002.088 8  20889679.056          51.000       -3165.767
 113776042.336 8  21650864.886          48.000       -1003.834
 120465451.55137  22923813.831          43.000         480.430
 120804702.71737  22988369.718          46.000       -3892.953
 120904333.178 8  23007323.925          48.000        1902.917
                  24319547.697          35.000        1799.392
 131193837.04726  24965357.594          41.000       -4099.003
 130172657.80237  24771032.959          42.000        -306.023
 135624504.53536  25808485.177          38.000       -1573.891
 195844619.38537  37267991.846          43.000       -1574.142
 196174293.087 7  37330725.498          43.000       -1580.674
 07  8 29  9  0 15.9980000  0 12G19G 3G25G27G16G11G 8G13G22G18S29S37
 108460308.451 8  20639315.228          49.000       -1575.387
 109779167.826 8  20890281.927          51.000       -3164.659
 113777046.515 8  21651055.809          48.000       -1003.552
 120464971.21527  22923722.078          42.000         481.648
 120808592.63637  22989109.470          43.000       -3886.238
 120902429.856 8  23006961.869          49.000        1906.117
                  24319201.383          35.000        1807.975
 131197934.84927  24966137.585          42.000       -4095.222
 130172962.11936  24771092.046          36.000        -303.966
                  25808784.834          33.000       -1571.223
 195846193.696 7  37268291.430          42.000       -1576.296
 196175874.366 7  37331026.550          42.000       -1579.943
 07  8 29  9  0 16.9980000  0 12G19G 3G25G27G16G11G 8G13G22G18S29S37
 108461883.296 8  20639614.936          49.000       -1573.880
 109782331.587 8  20890883.733          51.000       -3162.667
 113778049.839 8  21651246.732          48.000       -1003.061
 120464489.77727  22923630.324          42.000         480.985
 120812480.29827  22989849.690          45.000       -3887.261
 120900525.135 8  23006599.200          49.000        1904.318
                  24318855.454          35.000        1816.717
 131202031.42837  24966916.876          42.000       -4097.237
                  24771150.506          35.000        -299.730
 135627637.06636  25809081.367          40.000       -1565.198
 195847766.172 7  37268590.425          43.000       -1568.864
 196177453.783 7  37331326.955          42.000       -1581.667
 07  8 29  9  0 17.9980000  0 12G19G 3G25G27G16G11G 8G13G22G18S29S37
 108463456.946 8  20639914.330          49.000       -1572.465
 109785492.907 8  20891485.225          51.000       -3160.903
 113779052.965 8  21651437.690          49.000       -1002.115
 120464007.82627  22923539.235          42.000         483.553
 120816365.21027  22990589.563          45.000       -3884.390
 120898620.414 7  23006236.602          46.000        1904.644
                  24318509.622          34.000        1809.595
 131206127.12436  24967695.959          41.000       -4096.544
 130173568.10437  24771206.417          42.000        -298.973
 135629204.25526  25809379.504          40.000       -1565.523
                  37268889.504          41.000       -1570.568
 196179031.543 6  37331627.064          41.000       -1580.512
 07  8 29  9  0 18.9980000  0 12G19G 3G25G27G16G11G 8G13G22G18S29S37
 108465029.301 8  20640213.531          49.000       -1572.452
 109788652.024 8  20892086.771          51.000       -3156.442
 113780055.573 8  21651628.229          48.000       -1001.990
 120463524.95637  22923447.342          43.000         482.415
                  22991329.037          43.000       -3874.849
 120896715.451 8  23005874.004          48.000        1905.345
 127792813.76336  24318164.057          36.000        1812.961
 131210223.89627  24968475.285          42.000       -4097.441
 130173864.02126  24771261.475          41.000        -291.704
 135630768.81626  25809677.869          39.000       -1562.362
 195850906.13237  37269188.340          42.000       -1568.489
 196180607.56237  37331926.982          43.000       -1577.437
 07  8 29  9  0 19.9980000  0 12G19G 3G25G27G16G11G 8G13G22G18S29S37
 108466600.368 8  20640512.873          49.000       -1570.069
 109791807.324 8  20892687.025          51.000       -3152.044
 113781058.732 8  21651819.151          48.000       -1004.582
 120463041.87727  22923355.309          42.000         480.653
 120824128.50227  22992067.233          43.000       -3876.104
 120894811.760 8  23005511.702          49.000        1902.275
                  24317818.752          35.000        1813.018
 131214322.63427  24969254.506          42.000       -4101.217
 130174154.67636  24771316.638          40.000        -284.980
 135632327.47726  25809975.501          36.000       -1559.373
 195852474.720 7  37269486.791          42.000       -1568.557
 196182183.04727  37332226.708          43.000       -1573.359
 07  8 29  9  0 20.9980000  0 12G19G 3G25G27G16G11G 8G13G22G18S29S37
 108468170.811 8  20640811.499          49.000       -1569.626
 109794958.355 8  20893286.494          51.000       -3149.444
 113782063.858 8  21652010.370          48.000       -1005.580
 120462559.85527  22923263.486          42.000         480.646
 120828001.46727  22992804.158          45.000       -3870.275
 120892911.209 8  23005149.957          49.000        1898.707
                  24317474.878          35.000        1813.200
 131218425.77426  24970035.943          41.000       -4104.364
 130174437.95027  24771371.468          43.000        -282.050
 135633879.22636  25810271.007          37.000       -1549.636
 195854043.164 7  37269785.312          42.000       -1568.674
 196183758.485 7  37332526.293          42.000       -1574.387
 07  8 29  9  0 21.9980000  0 12G19G 3G25G27G16G11G 8G13G22G18S29S37
 108469740.506 8  20641110.107          49.000       -1569.059
 109798105.872 8  20893885.543          51.000       -3145.873
 113783070.256 8  21652201.624          48.000       -1006.470
 120462078.49427  22923171.628          42.000         480.205
 120831869.94827  22993540.489          45.000       -3865.944
 120891012.316 8  23004788.842          48.000        1896.663
 127787386.12236  24317131.058          37.000        1816.185
 131222531.68427  24970817.903          42.000       -4108.301
 130174716.20126  24771424.414          39.000        -276.377
 135635425.29526  25810565.168          38.000       -1543.963
 195855610.755 7  37270083.554          43.000       -1565.889
 196185331.854 7  37332825.653          42.000       -1571.962
 07  8 29  9  0 22.9980000  0 12G19G 3G25G27G16G11G 8G13G22G18S29S37
 108471309.188 8  20641408.960          49.000       -1567.741
 109801249.967 8  20894484.052          51.000       -3142.091
 113784077.447 8  21652393.576          49.000       -1007.732
 120461597.52927  22923080.137          43.000         482.079
 120835733.81327  22994275.739          46.000       -3861.296
 120889114.349 7  23004427.675          46.000        1897.428
                  24316784.931          35.000        1813.194
 131226639.51726  24971599.568          41.000       -4108.276
 130174989.05927  24771476.331          43.000        -268.580
                  25810859.065          35.000       -1542.648
 195857176.467 7  37270381.621          42.000       -1566.850
 196186903.136 6  37333124.679          41.000       -1572.964
 07  8 29  9  0 23.9980000  0 12G19G 3G25G27G16G11G 8G13G22G18S29S37
 108472877.296 8  20641707.027          49.000       -1567.972
 109804390.025 8  20895081.462          51.000       -3137.619
 113785086.572 8  21652585.545          49.000       -1010.169
 120461117.90427  22922988.662          43.000         481.298
 120839592.13637  22995010.098          46.000       -3856.787
 120887218.19438  23004066.821          49.000        1893.944
                  24316440.462          30.000        1808.467
 131230751.28827  24972382.576          42.000       -4111.643
                  24771527.048          41.000        -252.155
 135638513.96335  25811151.150          34.000       -1532.605
 195858741.254 7  37270679.340          43.000       -1564.149
 196188472.896 7  37333423.359          42.000       -1568.112
 07  8 29  9  0 24.9980000  0 12G19G 3G25G27G16G11G 8G13G22G18S29S37
 108474444.749 8  20642005.252          50.000       -1566.068
 109807525.858 8  20895678.034          50.000       -3133.642
 113786097.575 8  21652777.724          50.000       -1010.881
 120460639.30827  22922897.571          43.000         477.834
 120843444.78627  22995743.080          47.000       -3849.487
 120885324.82028  23003706.630          49.000        1892.395
                  24316095.737          28.000        1817.798
 131234866.971 7  24973165.355          42.000       -4117.301
 130175510.26336  24771576.011          38.000        -256.066
                  25811442.748          32.000       -1521.453
 195860305.363 7  37270976.901          43.000       -1564.345
 196190041.209 7  37333721.776          42.000       -1567.450
 07  8 29  9  0 25.9980000  0 12G19G 3G25G27G16G11G 8G13G22G18S29S37
 108476011.293 8  20642303.302          49.000       -1566.197
 109810657.274 8  20896273.979          50.000       -3128.975
 113787110.192 8  21652970.460          49.000       -1012.928
 120460161.51127  22922806.481          42.000         478.409
 120847292.10328  22996475.031          48.000       -3844.975
 120883433.98628  23003347.137          49.000        1890.544
                  24315751.636          27.000        1818.855
 131238986.493 6  24973949.357          41.000       -4122.167
 130175762.67327  24771622.798          42.000        -249.552
                  25811732.720          34.000       -1516.664
 195861868.646 7  37271274.585          44.000       -1564.234
 196191608.386 7  37334019.860          44.000       -1568.180
 07  8 29  9  0 26.9980000  0 12G19G 3G25G27G16G11G 8G13G22G18S29S37
 108477576.961 8  20642601.300          49.000       -1564.622
 109813785.054 8  20896869.067          50.000       -3126.390
 113788123.949 8  21653163.267          49.000       -1014.260
 120459684.10527  22922715.757          44.000         477.033
 120851135.09728  22997206.405          48.000       -3842.072
 120881545.18528  23002987.802          49.000        1888.955
                  24315406.017          29.000        1818.340
 131243109.060 7  24974733.621          43.000       -4123.839
 130176009.70227  24771670.527          44.000        -243.043
                  25812021.403          33.000       -1506.313
 195863431.978 7  37271572.094          44.000       -1561.504
 196193174.737 7  37334317.945          42.000       -1565.596
 07  8 29  9  0 27.9980000  0 12G19G 3G25G27G16G11G 8G13G22G18S29S37
 108479141.351 8  20642898.861          49.000       -1563.007
 109816910.531 8  20897464.085          50.000       -3124.413
 113789137.293 8  21653355.988          50.000       -1012.735
 120459205.93427  22922624.878          43.000         482.117
 120854975.56728  22997937.169          48.000       -3839.092
 120879655.99728  23002628.502          49.000        1889.524
 127776490.97836  24315057.886          38.000        1820.241
 131247231.408 6  24975517.923          39.000       -4120.439
 130176253.80637  24771718.323          44.000        -243.117
 135644607.37935  25812310.569          33.000       -1508.538
 195864993.438 7  37271869.150          43.000       -1559.233
 196194739.574 7  37334615.665          42.000       -1561.825
 07  8 29  9  0 28.9980000  0 12G19G 3G25G27G16G11G 8G13G22G18S29S37
 108480704.386 8  20643196.283          49.000       -1562.014
 109820034.322 8  20898058.405          49.000       -3122.747
 113790149.717 8  21653548.988          50.000       -1011.393
 120458726.61127  22922533.613          43.000         480.157
 120858814.14328  22998667.618          48.000       -3838.521
 120877765.48828  23002268.958          48.000        1890.737
 127774673.34026  24314711.289          40.000        1818.829
 131251352.36736  24976302.363          38.000       -4119.847
 130176496.10927  24771765.229          43.000        -242.982
                  25812600.051          30.000       -1508.160
 195866553.036 7  37272165.909          44.000       -1557.891
 196196302.658 7  37334912.877          42.000       -1561.069
 07  8 29  9  0 29.9980000  0 12G19G 3G25G27G16G11G 8G13G22G18S29S37
 108482266.298 8  20643493.601          49.000       -1560.674
 109823157.348 8  20898652.690          49.000       -3123.542
 113791160.930 8  21653741.046          50.000       -1009.648
 120458246.19227  22922441.965          43.000         482.729
 120862651.89228  22999397.840          48.000       -3838.370
 120875872.94128  23001908.682          48.000        1893.773
 127772854.56126  24314365.462          39.000        1820.636
 131255471.13436  24977085.915          38.000       -4111.745
 130176737.96527  24771811.543          44.000        -240.773
                  25812886.704          32.000       -1511.791
 195868110.651 7  37272462.494          43.000       -1555.433
 196197863.633 7  37335209.514          42.000       -1559.721
 07  8 29  9  0 30.9980000  0 12G19G 3G25G27G16G11G 8G13G22G18S29S37
 108483826.672 8  20643790.307          49.000       -1558.990
 109826280.589 8  20899247.393          49.000       -3123.107
 113792169.658 8  21653933.104          50.000       -1006.629
 120457763.729 7  22922350.090          42.000         483.650
 120866489.879 8  23000128.429          48.000       -3836.181
 120873976.279 8  23001547.692          49.000        1899.418
 127771034.20826  24314019.389          40.000        1819.577
 131259585.18136  24977868.838          40.000       -4108.103
 130176981.13327  24771857.663          43.000        -243.877
                  25813175.225          31.000       -1515.144
 195869665.715 7  37272758.433          42.000       -1552.822
 196199422.262 6  37335506.117          40.000       -1555.799
 07  8 29  9  0 31.9980000  0 12G19G 3G25G27G16G11G 8G13G22G18S29S37
 108485385.466 8  20644086.786          50.000       -1558.906
 109829404.205 8  20899841.538          49.000       -3124.475
 113793175.675 8  21654124.568          50.000       -1005.671
 120457279.212 7  22922257.728          44.000         489.398
 120870328.140 7  23000858.720          45.000       -3838.777
 120872075.001 8  23001185.479          49.000        1903.598
 127769212.70336  24313673.247          39.000        1823.187
 131263693.88427  24978650.836          42.000       -4105.807
 130177225.83727  24771903.816          42.000        -250.858
 135650664.50135  25813463.258          35.000       -1515.601
 195871217.866 7  37273053.762          44.000       -1550.316
 196200977.706 7  37335802.300          43.000       -1555.431
 07  8 29  9  0 32.9980000  0 12G19G 3G25G27G16G11G 8G13G22G18S29S37
 108486942.734 8  20644383.267          50.000       -1556.620
 109832528.525 8  20900436.311          49.000       -3123.988
 113794178.928 8  21654315.178          51.000       -1001.639
 120456792.569 7  22922165.067          44.000         488.478
 120874167.101 7  23001589.134          47.000       -3837.168
 120870168.743 8  23000822.813          48.000        1909.388
 127767389.14136  24313325.639          40.000        1823.985
 131267797.00227  24979431.472          43.000       -4102.524
                  24771951.052          42.000        -255.026
                  25813750.033          34.000       -1520.969
 195872766.844 7  37273348.410          43.000       -1546.817
 196202530.309 7  37336097.717          44.000       -1549.478
 07  8 29  9  0 33.9980000  0 12G19G 3G25G27G16G11G 8G13G22G18S29S37
 108488498.641 8  20644679.240          50.000       -1554.977
 109835653.297 8  20901030.892          49.000       -3124.550
 113795179.757 8  21654505.962          51.000       -1000.282
 120456304.239 7  22922071.708          44.000         487.788
 120878005.881 7  23002319.687          47.000       -3838.737
 120868257.710 8  23000459.118          49.000        1914.701
 127765565.12436  24312977.385          39.000        1823.012
 131271894.91437  24980211.395          42.000       -4096.072
 130177729.43536  24771998.397          41.000        -248.150
 135653689.44335  25814038.852          35.000       -1520.117
 195874312.323 7  37273642.605          42.000       -1542.575
 196204079.964 7  37336392.486          43.000       -1548.691
 07  8 29  9  0 34.9980000  0 12G19G 3G25G27G16G11G 8G13G22G18S29S37
 108490053.491 8  20644975.074          50.000       -1553.562
 109838778.576 8  20901625.490          49.000       -3126.230
 113796178.691 8  21654695.996          51.000        -998.747
 120455814.688 7  22921978.559          44.000         488.681
 120881844.556 7  23003050.206          46.000       -3835.919
 120866342.506 8  23000094.497          48.000        1917.397
 127763740.67836  24312630.091          40.000        1824.761
 131275988.57936  24980990.200          40.000       -4091.868
 130177978.48027  24772043.976          43.000        -250.270
                  25814327.985          33.000       -1518.583
 195875854.603 6  37273936.014          41.000       -1538.347
 196205626.975 7  37336686.942          42.000       -1545.487
 07  8 29  9  0 35.9980000  0 12G19G 3G25G27G16G11G 8G13G22G18S29S37
 108491607.327 8  20645270.716          50.000       -1553.339
 109841904.158 8  20902220.439          49.000       -3124.608
 113797175.967 8  21654886.134          51.000        -995.863
 120455324.260 7  22921885.044          45.000         489.616
 120885682.58637  23003780.706          42.000       -3838.507
 120864423.188 8  22999729.143          49.000        1920.903
 127761922.13236  24312283.505          37.000        1805.320
 131280078.08026  24981768.655          41.000       -4088.627
 130178229.66936  24772091.683          40.000        -255.574
 135656726.38235  25814616.887          35.000       -1528.033
 195877394.178 6  37274228.796          41.000       -1534.433
 196207171.265 7  37336980.875          43.000       -1542.367
 07  8 29  9  0 36.9980000  0 12G19G 3G25G27G16G11G 8G13G22G18S29S37
 108493160.006 8  20645566.027          50.000       -1551.828
 109845029.680 8  20902815.124          49.000       -3126.301
 113798171.552 8  21655075.330          51.000        -994.698
 120454832.824 7  22921791.599          45.000         491.224
 120889519.83427  23004510.633          44.000       -3835.316
 120862499.920 7  22999362.830          46.000        1926.840
 127760104.87536  24311937.545          41.000        1825.811
 131284163.84027  24982546.134          43.000       -4083.214
 130178479.16126  24772138.436          39.000        -245.872
 135658251.54135  25814904.922          35.000       -1524.339
 195878930.260 7  37274521.085          42.000       -1540.156
 196208712.239 7  37337274.180          44.000       -1538.681
 07  8 29  9  0 37.9980000  0 12G19G 3G25G27G16G11G 8G13G22G18S29S37
 108494711.969 8  20645861.197          50.000       -1552.430
 109848155.410 8  20903410.282          49.000       -3124.988
 113799165.947 8  21655264.333          51.000        -994.806
 120454340.887 7  22921698.328          46.000         493.463
 120893355.97036  23005240.681          38.000       -3832.099
 120860573.045 7  22998996.028          47.000        1929.238
 127758279.86626  24311589.883          40.000        1821.060
 131288246.19727  24983322.932          42.000       -4081.141
                  24772187.431          33.000        -258.771
                  25815195.606          28.000       -1529.473
 195880463.428 6  37274812.942          41.000       -1533.420
 196210250.359 7  37337566.979          42.000       -1532.620
 07  8 29  9  0 38.9980000  0 11G19G 3G25G27G16G11G 8G13G22S29S37
 108496262.836 8  20646156.211          50.000       -1550.728
 109851280.821 8  20904005.125          49.000       -3124.632
 113800158.993 8  21655453.111          51.000        -992.629
 120453848.179 7  22921604.271          45.000         492.743
 120897190.80537  23005968.983          43.000       -3832.960
 120858642.605 7  22998628.736          47.000        1931.825
                  24311243.236          34.000        1826.052
 131292325.40826  24984098.805          38.000       -4076.794
                  24772235.600          35.000        -243.435
 195881993.380 6  37275103.838          41.000       -1531.131
 196211785.087 7  37337858.990          42.000       -1535.622
 07  8 29  9  0 39.9980000  0 12G19G 3G25G27G16G11G 8G13G22G23S29S37
 108497812.987 8  20646451.225          50.000       -1549.695
 109854405.467 8  20904599.566          48.000       -3124.597
 113801151.521 8  21655641.625          50.000        -992.717
 120453355.470 7  22921510.512          44.000         493.764
 120901023.44337  23006698.351          42.000       -3829.519
 120856709.742 7  22998260.590          46.000        1933.131
                  24310896.271          37.000        1821.032
 131296402.58626  24984874.730          40.000       -4074.581
 130179222.73436  24772282.593          38.000        -243.210
 134701157.25235  25632778.035          32.000       -4122.316
 195883520.440 6  37275394.439          41.000       -1525.381
 196213317.308 6  37338150.585          41.000       -1530.770
 07  8 29  9  0 40.9980000  0 13G19G 3G25G27G16G11G 8G13G22G18G23S29
                                S37
 108499362.516 8  20646746.396          50.000       -1548.485
 109857528.410 8  20905193.695          48.000       -3121.926
 113802144.313 8  21655830.698          50.000        -993.369
 120452863.093 7  22921416.961          45.000         492.639
 120904853.15527  23007427.370          43.000       -3827.661
 120854775.980 7  22997892.338          47.000        1933.389
                  24310547.426          39.000        1825.193
 131300479.80927  24985650.984          42.000       -4076.829
 130179466.36036  24772329.361          41.000        -240.799
                  25816067.875          33.000       -1522.023
                  25633564.028          30.000       -4120.162
 195885045.621 7  37275684.863          42.000       -1523.539
 196214847.436 6  37338441.690          40.000       -1528.182
 07  8 29  9  0 41.9980000  0 12G19G 3G25G27G16G11G 8G13G22G18S29S37
 108500911.427 8  20647041.217          50.000       -1547.969
 109860649.800 8  20905787.456          48.000       -3121.143
 113803137.309 8  21656019.317          50.000        -993.579
 120452371.111 7  22921323.375          47.000         492.563
 120908680.09227  23008155.813          46.000       -3824.940
 120852841.195 7  22997524.244          44.000        1935.993
                  24310201.737          37.000        1826.818
 131304556.99326  24986426.558          41.000       -4080.348
                  24772374.331          41.000        -238.748
 135665883.20035  25816359.243          35.000       -1519.066
 195886568.450 6  37275974.660          38.000       -1521.482
 196216375.250 6  37338732.624          38.000       -1518.412
 07  8 29  9  0 42.9980000  0 13G19G 3G25G27G16G11G 8G13G22G18G23S29
                                S37
 108502459.738 8  20647335.690          50.000       -1547.217
 109863770.276 8  20906380.817          48.000       -3119.857
 113804130.123 8  21656208.269          50.000        -991.734
 120451879.406 7  22921230.121          47.000         493.160
 120912504.47237  23008883.662          45.000       -3823.939
 120850904.277 7  22997155.888          45.000        1938.584
 127749142.16736  24309853.552          41.000        1824.628
                  24987202.432          36.000       -4073.184
 130179943.62836  24772419.701          40.000        -240.250
                  25816647.574          30.000       -1514.037
 134713405.90835  25635108.932          31.000       -4116.716
 195888089.004 7  37276263.933          43.000       -1519.508
 196217899.979 7  37339022.889          42.000       -1524.144
 07  8 29  9  0 43.9980000  0 13G19G 3G25G27G16G11G 8G13G22G18G23S29
                                S37
 108504007.119 8  20647630.407          51.000       -1546.381
 109866890.002 8  20906974.404          48.000       -3118.682
 113805122.139 8  21656397.325          49.000        -991.406
 120451387.298 7  22921136.623          46.000         492.197
 120916327.11227  23009611.668          47.000       -3821.925
 120848964.682 7  22996786.556          44.000        1943.180
 127747318.01837  24309506.625          42.000        1826.540
                  24987977.466          33.000       -4072.887
                  24772466.275          31.000        -240.534
 135668930.17335  25816939.183          31.000       -1520.348
 134717520.90735  25635904.924          31.000       -4115.670
 195889606.865 7  37276552.788          42.000       -1515.912
 196219422.043 7  37339312.529          43.000       -1520.648
 07  8 29  9  0 44.9980000  0 12G19G 3G25G27G16G11G 8G13G22G23S29S37
 108505553.188 8  20647925.002          51.000       -1545.076
 109870008.847 8  20907568.217          49.000       -3118.156
 113806112.761 8  21656586.311          50.000        -990.914
 120450894.160 8  22921043.648          48.000         492.488
 120920148.24827  23010339.116          47.000       -3820.028
 120847022.394 7  22996417.013          44.000        1942.941
 127745491.80737  24309159.714          42.000        1825.060
                  24988753.095          34.000       -4068.375
                  24772515.552          29.000        -201.205
                  25636694.006          30.000       -4115.899
 195891121.861 6  37276841.049          40.000       -1513.644
 196220941.683 6  37339601.592          40.000       -1519.737
 07  8 29  9  0 45.9980000  0 13G19G 3G25G27G16G11G 8G13G22G18G23S29
                                S37
 108507098.299 8  20648219.125          50.000       -1545.128
 109873127.263 8  20908161.960          48.000       -3121.653
 113807102.187 8  21656774.826          50.000        -990.077
 120450400.041 7  22920949.522          47.000         492.803
 120923968.70128  23011066.319          48.000       -3819.286
 120845077.55537  22996047.471          44.000        1945.637
 127743666.06127  24308811.199          43.000        1825.662
 131320849.72036  24989526.995          39.000       -4066.649
                  24772557.594          34.000        -190.853
 135671882.67135  25817500.921          35.000       -1524.905
                  25637479.630          28.000       -4122.229
 195892634.54437  37277129.118          42.000       -1510.438
 196222459.317 7  37339890.691          42.000       -1517.518
 07  8 29  9  0 46.9980000  0 13G19G 3G25G27G16G11G 8G13G22G18G23S29
                                S37
 108508642.726 8  20648513.075          51.000       -1543.058
 109876245.877 7  20908755.304          47.000       -3116.106
 113808090.473 8  21656962.958          50.000        -987.505
 120449904.937 7  22920855.467          47.000         496.892
 120927788.93937  23011793.627          47.000       -3818.773
 120843130.28727  22995676.969          45.000        1950.491
                  24308464.483          41.000        1831.921
                  24990298.961          41.000       -4058.866
                  24772599.423          39.000        -234.552
                  25817801.644          29.000       -1515.017
                  25638263.900          28.000       -4107.324
 195894144.30037  37277415.930          42.000       -1510.277
 196223975.10837  37340179.231          42.000       -1514.459
 07  8 29  9  0 47.9980000  0 11G19G 3G25G27G16G11G 8G13G22S29S37
 108510185.683 8  20648806.640          51.000       -1543.368
 109879363.895 8  20909348.750          48.000       -3117.745
 113809076.947 8  21657150.740          50.000        -986.609
 120449408.466 8  22920761.026          48.000         495.954
 120931608.36237  23012520.620          46.000       -3819.644
 120841180.02827  22995305.751          45.000        1951.126
                  24308115.390          38.000        1828.741
 131328961.66236  24991070.626          41.000       -4060.987
                  24772648.278          33.000        -248.996
 195895652.80227  37277702.831          42.000       -1504.892
 196225488.93636  37340467.266          41.000       -1509.803
 07  8 29  9  0 48.9980000  0 11G19G 3G25G27G16G11G 8G13G22S29S37
 108511727.941 8  20649100.310          50.000       -1541.437
 109882481.732 8  20909942.215          48.000       -3116.347
 113810062.557 8  21657338.243          50.000        -984.658
 120448911.307 7  22920666.271          47.000         497.301
 120935427.33337  23013247.248          45.000       -3817.194
 120839227.59927  22994934.307          45.000        1953.264
                  24307766.701          37.000        1831.865
 131333021.39627  24991843.062          44.000       -4057.768
 130181399.89036  24772696.773          38.000        -245.876
 195897159.920 7  37277989.364          43.000       -1505.336
 196227000.83137  37340754.898          42.000       -1510.015
 07  8 29  9  0 49.9980000  0 11G19G 3G25G27G16G11G 8G13G22S29S37
 108513269.107 8  20649393.789          50.000       -1540.368
 109885598.936 8  20910535.436          48.000       -3116.441
 113811046.866 8  21657525.450          49.000        -982.547
 120448412.931 7  22920571.186          47.000         499.130
 120939245.59337  23013973.788          46.000       -3816.472
 120837273.12127  22994562.198          44.000        1954.170
 127736349.47237  24307419.109          42.000        1829.298
 131337079.08527  24992615.828          42.000       -4055.313
                  24772742.095          36.000        -237.164
 195898665.028 7  37278275.862          43.000       -1503.323
 196228511.177 6  37341042.425          40.000       -1510.684
 07  8 29  9  0 50.9980000  0 11G19G 3G25G27G16G11G 8G13G22S29S37
 108514809.244 8  20649686.708          50.000       -1539.138
 109888715.181 8  20911128.430          48.000       -3114.491
 113812030.310 8  21657712.551          50.000        -983.219
 120447913.431 8  22920476.117          48.000         498.721
 120943063.00637  23014700.190          46.000       -3811.444
 120835317.52427  22994190.405          44.000        1956.672
 127734518.89427  24307071.256          43.000        1827.818
 131341135.12827  24993388.104          43.000       -4056.622
 130181870.21336  24772786.385          37.000        -233.568
 195900168.986 7  37278562.030          43.000       -1498.841
 196230019.960 6  37341329.708          41.000       -1511.048
 07  8 29  9  0 51.9980000  0 11G19G 3G25G27G16G11G 8G13G22S29S37
 108516348.070 8  20649979.419          51.000       -1538.197
 109891829.245 8  20911720.795          48.000       -3113.099
 113813013.116 8  21657899.565          50.000        -982.739
 120447413.071 8  22920381.154          48.000         500.926
 120946878.20437  23015426.188          47.000       -3814.453
 120833361.43227  22993818.244          44.000        1955.624
 127732687.34237  24306723.249          42.000        1835.275
 131345190.95036  24994160.242          41.000       -4056.150
                  24772829.872          35.000        -229.944
 195901671.615 7  37278848.090          42.000       -1503.157
 196231527.509 6  37341616.923          41.000       -1506.935
 07  8 29  9  0 52.9980000  0 11G19G 3G25G27G16G11G 8G13G22S29S37
 108517885.683 8  20650271.711          50.000       -1536.675
 109894941.210 8  20912312.934          48.000       -3110.702
 113813995.569 8  21658086.387          50.000        -982.106
 120446911.753 8  22920285.771          48.000         501.658
 120950691.77728  23016151.978          48.000       -3812.449
 120831405.72527  22993445.874          45.000        1955.633
 127730854.20337  24306375.134          43.000        1832.688
 131349246.93837  24994932.257          42.000       -4056.014
 130182327.40637  24772873.287          43.000        -232.400
 195903173.215 7  37279133.942          43.000       -1501.381
 196233033.972 6  37341903.316          41.000       -1507.428
 07  8 29  9  0 53.9980000  0 11G19G 3G25G27G16G11G 8G13G22S29S37
 108519421.997 8  20650564.072          51.000       -1535.313
 109898050.041 8  20912904.725          48.000       -3107.125
 113814978.104 8  21658273.750          51.000        -982.380
 120446409.251 7  22920190.302          46.000         504.004
 120954503.19028  23016877.315          48.000       -3810.395
 120829452.16627  22993074.340          44.000        1953.208
 127729018.70636  24306025.957          40.000        1839.571
                  24995705.159          34.000       -4064.817
 130182557.08927  24772916.827          44.000        -228.791
 195904675.272 7  37279420.002          42.000       -1504.712
 196234540.656 6  37342190.110          41.000       -1508.162
 07  8 29  9  0 54.9980000  0 11G19G 3G25G27G16G11G 8G13G22S29S37
 108520956.802 8  20650856.102          51.000       -1533.878
 109901154.790 8  20913495.696          48.000       -3102.786
 113815960.965 8  21658460.764          50.000        -982.127
 120445905.675 7  22920094.308          47.000         504.178
 120958311.97128  23017601.849          48.000       -3807.323
 120827502.095 7  22992703.033          45.000        1948.636
 127727180.59936  24305676.221          40.000        1840.789
 131357370.39537  24996476.633          43.000       -4064.067
 130182782.71826  24772959.773          39.000        -224.379
 195906178.265 7  37279705.890          42.000       -1503.383
 196236048.376 6  37342477.114          38.000       -1507.225
 07  8 29  9  0 55.9980000  0 12G19G 3G25G27G16G11G 8G13G22G18S29S37
 108522490.317 8  20651148.097          51.000       -1532.094
 109904255.667 8  20914085.549          48.000       -3099.446
 113816944.431 8  21658647.533          50.000        -983.871
 120445401.024 8  22919998.245          48.000         505.789
 120962118.11828  23018326.244          48.000       -3803.396
 120825555.526 7  22992332.808          45.000        1947.389
 127725339.80337  24305326.170          42.000        1842.731
 131361432.33336  24997250.140          39.000       -4041.859
 130183004.85735  24773003.243          32.000        -220.715
 135687103.17436  25820397.319          38.000       -1495.417
 195907682.818 7  37279992.299          43.000       -1506.331
 196237557.126 7  37342764.449          42.000       -1508.228
 07  8 29  9  0 56.9980000  0 12G19G 3G25G27G16G11G 8G13G22G18S29S37
 108524022.494 8  20651439.743          50.000       -1530.791
 109907352.687 8  20914674.985          49.000       -3094.601
 113817928.481 8  21658835.402          51.000        -983.811
 120444895.492 8  22919902.182          49.000         506.348
 120965921.49037  23019049.992          47.000       -3802.151
 120823612.307 7  22991963.368          45.000        1941.511
 127723496.61727  24304976.189          43.000        1843.474
                  24998021.864          38.000       -4071.844
                  24773043.941          31.000        -211.164
 135688599.49136  25820682.629          38.000       -1497.868
 195909188.493 6  37280278.850          41.000       -1504.926
 196239066.393 7  37343051.714          43.000       -1508.196
 07  8 29  9  0 57.9980000  0 12G19G 3G25G27G16G11G 8G13G22G18S29S37
 108525553.288 8  20651731.075          51.000       -1530.026
 109910446.139 8  20915263.581          48.000       -3093.692
 113818912.735 8  21659022.626          49.000        -984.328
 120444388.864 8  22919805.630          48.000         506.767
 120969722.56428  23019773.393          48.000       -3798.204
 120821671.842 7  22991594.121          45.000        1940.887
 127721651.16727  24304624.411          43.000        1847.772
 131369555.83437  24998795.398          43.000       -4070.743
                  24773085.193          28.000        -210.633
 135690090.91735  25820966.810          35.000       -1487.904
 195910695.354 6  37280565.835          41.000       -1506.803
 196240576.074 6  37343338.979          41.000       -1509.214
 07  8 29  9  0 58.9980000  0 12G19G 3G25G27G16G11G 8G13G22G18S29S37
 108527082.783 8  20652022.477          51.000       -1528.528
 109913536.417 8  20915851.550          48.000       -3088.791
 113819897.116 8  21659209.954          50.000        -984.614
 120443881.250 7  22919709.027          47.000         508.467
 120973521.24837  23020496.041          47.000       -3796.882
 120819733.310 7  22991225.257          44.000        1938.672
 127719803.62936  24304272.702          39.000        1846.800
 131373627.08527  24999570.571          43.000       -4070.710
                  24773126.620          25.000        -211.719
                  25821252.768          32.000       -1483.753
 195912202.269 7  37280852.717          42.000       -1505.270
 196242086.040 7  37343626.333          42.000       -1507.499
 07  8 29  9  0 59.9980000  0 12G19G 3G25G27G16G11G 8G13G22G18S29S37
 108528610.999 8  20652313.215          51.000       -1527.736
 109916623.826 8  20916439.432          48.000       -3085.968
 113820881.536 8  21659397.212          50.000        -983.778
 120443372.755 8  22919612.666          48.000         507.879
 120977317.61228  23021218.341          48.000       -3796.074
 120817796.332 7  22990856.499          45.000        1936.959
 127717954.08037  24303920.192          42.000        1851.563
 131377699.74726  25000345.359          40.000       -4075.036
                  24773169.134          28.000        -196.122
 135693086.71135  25821535.974          31.000       -1466.792
 195913708.992 6  37281139.582          41.000       -1504.432
 196243595.897 7  37343913.597          43.000       -1508.967
 07  8 29  9  1  0.9980000  0 12G19G 3G25G27G16G11G 8G13G22G18S29S37
 108530137.800 8  20652603.744          51.000       -1525.837
 109919708.408 8  20917026.475          48.000       -3083.251
 113821865.663 8  21659584.628          50.000        -983.142
 120442863.081 7  22919515.260          47.000         510.409
 120981111.88928  23021940.781          49.000       -3793.736
 120815860.368 7  22990487.827          45.000        1934.362
 127716102.73126  24303567.837          39.000        1850.749
 131381773.33436  25001121.164          36.000       -4068.754
                  24773210.753          26.000        -195.645
                  25821817.599          28.000       -1478.054
 195915215.147 6  37281426.183          41.000       -1507.270
 196245105.528 7  37344201.002          42.000       -1509.914
 07  8 29  9  1  1.9980000  0 12G19G 3G25G27G16G11G 8G13G22G18S29S37
 108531663.488 8  20652893.960          51.000       -1523.962
 109922790.611 8  20917613.170          48.000       -3081.601
 113822849.686 8  21659771.502          49.000        -984.262
 120442352.520 7  22919417.766          47.000         511.076
 120984904.35427  23022662.261          47.000       -3791.111
 120813925.472 7  22990119.697          45.000        1934.570
 127714249.99136  24303214.350          41.000        1856.128
 131385847.41727  25001897.469          42.000       -4075.204
                  24773249.446          28.000        -180.272
 135696042.41835  25822098.427          33.000       -1472.556
 195916721.710 7  37281712.926          42.000       -1504.913
 196246614.873 7  37344488.164          43.000       -1507.459
 07  8 29  9  1  2.9980000  0 12G19G 3G25G27G16G11G 8G13G22G18S29S37
 108533187.771 8  20653183.948          51.000       -1523.221
 109925870.259 8  20918198.958          48.000       -3077.491
 113823833.323 8  21659958.638          50.000        -983.380
 120441840.769 7  22919321.005          47.000         511.566
 120988694.85728  23023383.584          49.000       -3788.974
 120811991.297 7  22989751.846          45.000        1932.795
 127712394.79627  24302861.489          44.000        1856.335
 131389922.09426  25002673.201          39.000       -4075.506
                  24773288.093          30.000        -195.274
                  25822380.267          29.000       -1469.972
 195918227.771 7  37281999.458          42.000       -1507.043
 196248123.259 7  37344775.045          43.000       -1509.880
 07  8 29  9  1  3.9980000  0 12G19G 3G25G27G16G11G 8G13G22G18S29S37
 108534710.848 8  20653474.023          51.000       -1522.758
 109928947.223 8  20918784.413          49.000       -3075.922
 113824816.850 8  21660146.106          51.000        -983.576
 120441328.087 7  22919222.900          47.000         513.562
 120992483.45028  23024104.488          48.000       -3787.105
 120810058.478 7  22989383.803          46.000        1931.702
 127710537.79527  24302508.228          44.000        1858.879
 131393997.83526  25003449.351          40.000       -4076.116
 130184709.44435  24773326.592          35.000        -183.733
 135698984.40836  25822658.249          36.000       -1469.383
 195919733.579 6  37282285.991          40.000       -1506.765
 196249631.359 7  37345062.031          43.000       -1508.232
 07  8 29  9  1  5.0020000  0 12G19G 3G25G27G16G11G 8G13G22G18S29S37
 108536238.770 8  20653764.587          50.000       -1521.060
 109932034.084 8  20919371.841          49.000       -3072.973
 113825804.016 8  21660333.766          51.000        -983.074
 120440812.241 7  22919124.516          47.000         514.100
 120996285.35328  23024828.079          48.000       -3786.489
 120808118.925 7  22989014.434          45.000        1931.495
 127708671.41527  24302153.762          44.000        1860.087
 131398090.61126  25004230.528          40.000       -4075.969
 130184896.03035  24773363.325          31.000        -184.479
 135700456.16035  25822937.700          33.000       -1461.816
 195921245.692 6  37282573.589          39.000       -1503.657
 196251145.262 6  37345350.188          36.000       -1506.077
 07  8 29  9  1  6.0020000  0 12G19G 3G25G27G16G11G 8G13G22G18S29S37
 108537759.181 8  20654054.174          51.000       -1520.065
 109935106.278 8  20919956.249          49.000       -3071.868
 113826786.744 8  21660520.553          51.000        -982.460
 120440297.284 8  22919027.040          48.000         515.128
 121000070.32128  23025548.216          48.000       -3784.457
 120806187.312 7  22988647.334          45.000        1930.853
 127706810.60227  24301800.204          45.000        1861.973
 131402167.01826  25005007.027          36.000       -4077.415
 130185082.15036  24773403.407          40.000        -186.219
 135701919.29536  25823216.135          38.000       -1462.052
 195922750.492 6  37282859.964          38.000       -1505.326
 196252652.370 6  37345636.807          37.000       -1507.025
 07  8 29  9  1  7.0020000  0 12G19G 3G25G27G16G11G 8G13G22G18S29S37
 108539278.458 8  20654342.749          50.000       -1518.196
 109938176.616 8  20920539.995          48.000       -3068.646
 113827769.043 8  21660707.602          51.000        -981.865
 120439781.314 7  22918928.796          47.000         517.663
 121003853.807 8  23026268.300          48.000       -3782.175
 120804255.919 7  22988279.396          45.000        1931.828
 127704948.34027  24301446.576          45.000        1864.293
 131406243.57426  25005783.475          37.000       -4077.175
                  24773438.169          27.000        -184.683
 135703380.09926  25823495.079          37.000       -1457.740
 195924255.325 7  37283146.374          45.000       -1504.225
 196254158.635 6  37345923.218          40.000       -1505.094
 07  8 29  9  1  8.0020000  0 12G19G 3G25G27G16G11G 8G13G22G18S29S37
 108540796.472 8  20654631.882          51.000       -1517.658
 109941244.822 8  20921123.950          48.000       -3066.902
 113828750.824 8  21660894.878          51.000        -981.648
 120439264.280 8  22918831.040          48.000         517.514
 121007635.613 8  23026988.244          49.000       -3780.823
 120802324.708 7  22987911.458          46.000        1931.563
 127703084.48627  24301091.499          44.000        1864.461
 131410319.81625  25006558.387          33.000       -4077.246
                  24773474.832          31.000        -183.084
 135704838.36426  25823773.637          38.000       -1457.153
 195925759.018 7  37283432.558          45.000       -1503.584
 196255664.565 6  37346209.733          41.000       -1507.342
 07  8 29  9  1  9.0020000  0 12G19G 3G25G27G16G11G 8G13G22G18S29S37
 108542313.518 8  20654920.561          51.000       -1516.602
 109944311.503 8  20921707.416          48.000       -3065.683
 113829732.186 8  21661081.578          50.000        -981.215
 120438746.437 8  22918733.546          49.000         518.478
 121011416.174 8  23027708.432          49.000       -3779.843
 120800393.349 7  22987543.904          45.000        1932.072
 127701219.32727  24300737.766          45.000        1865.919
 131414395.78325  25007332.601          33.000       -4076.352
 130185683.19335  24773511.844          33.000        -184.589
 135706295.01526  25824050.188          37.000       -1456.985
 195927261.890 7  37283718.533          45.000       -1502.772
 196257170.053 6  37346496.370          41.000       -1506.237
 07  8 29  9  1 10.0020000  0 12G19G 3G25G27G16G11G 8G13G22G18S29S37
 108543829.737 8  20655209.170          51.000       -1515.960
 109947377.241 8  20922291.056          48.000       -3064.756
 113830713.003 8  21661268.208          50.000        -980.497
 120438227.900 8  22918635.214          49.000         519.339
 121015195.815 8  23028428.289          49.000       -3779.760
 120798461.130 7  22987176.473          46.000        1933.167
 127699353.29727  24300383.335          45.000        1867.141
 131418470.75325  25008107.391          33.000       -4075.449
 130185868.01625  24773548.298          33.000        -183.015
 135707750.93326  25824327.106          37.000       -1455.816
 195928763.699 7  37284004.368          44.000       -1501.386
 196258674.374 6  37346782.677          40.000       -1504.197
 07  8 29  9  1 11.0020000  0 12G19G 3G25G27G16G11G 8G13G22G18S29S37
 108545344.909 8  20655497.710          51.000       -1514.231
 109950441.828 8  20922874.155          48.000       -3063.903
 113831693.048 8  21661454.682          50.000        -979.538
 120437708.432 8  22918536.830          49.000         519.863
 121018974.310 8  23029147.535          49.000       -3777.603
 120796527.782 7  22986808.745          46.000        1934.524
 127697486.17227  24300028.538          45.000        1867.680
 131422544.46625  25008881.536          32.000       -4071.072
 130186051.80825  24773583.844          33.000        -183.707
 135709205.97626  25824603.588          36.000       -1453.455
 195930264.065 7  37284289.854          44.000       -1499.167
 196260177.351 6  37347068.581          40.000       -1503.406
 07  8 29  9  1 12.0020000  0 12G19G 3G25G27G16G11G 8G13G22G18S29S37
 108546859.134 8  20655785.814          51.000       -1513.683
 109953505.358 8  20923457.063          48.000       -3062.998
 113832672.400 8  21661641.242          51.000        -979.167
 120437188.148 8  22918437.765          49.000         521.008
 121022751.764 8  23029866.449          49.000       -3777.050
 120794593.376 7  22986440.825          46.000        1934.980
 127695618.05427  24299673.252          45.000        1868.864
 131426616.85835  25009655.751          32.000       -4069.687
 130186234.69125  24773618.519          32.000        -179.290
 135710660.20926  25824880.907          37.000       -1454.052
 195931763.412 7  37284575.113          44.000       -1498.329
 196261678.570 6  37347354.348          40.000       -1499.699
 07  8 29  9  1 13.0020000  0 12G19G 3G25G27G16G11G 8G13G22G18S29S37
 108548372.406 8  20656073.760          51.000       -1512.983
 109956567.868 8  20924039.865          48.000       -3062.537
 113833651.091 8  21661827.489          51.000        -977.995
 120436667.066 8  22918338.701          49.000         522.665
 121026528.216 8  23030585.015          49.000       -3775.482
 120792657.935 7  22986072.574          45.000        1936.358
 127693748.978 7  24299317.913          45.000        1870.102
                  25010427.854          30.000       -4067.165
 130186416.67735  24773653.838          33.000        -179.064
 135712114.176 6  25825157.493          36.000       -1453.474
 195933260.946 7  37284860.181          44.000       -1496.941
 196263178.418 6  37347639.991          40.000       -1498.906
 07  8 29  9  1 14.0020000  0 12G19G 3G25G27G16G11G 8G13G22G18S29S37
 108549884.973 8  20656361.793          51.000       -1512.142
 109959629.988 8  20924622.633          49.000       -3062.169
 113834628.988 8  21662013.735          51.000        -977.228
 120436145.339 8  22918239.339          49.000         522.177
 121030304.034 8  23031302.394          49.000       -3775.071
 120790720.692 7  22985703.537          45.000        1938.190
 127691879.357 7  24298961.091          44.000        1870.324
 131434750.02536  25011201.405          36.000       -4065.426
 130186597.48925  24773688.249          33.000        -181.255
 135713567.907 6  25825434.166          38.000       -1454.524
 195934757.313 7  37285144.968          43.000       -1497.689
 196264676.906 7  37347925.179          42.000       -1500.111
 07  8 29  9  1 15.0020000  0 12G19G 3G25G27G16G11G 8G13G22G18S29S37
 108551396.642 8  20656649.443          51.000       -1511.073
 109962691.991 8  20925205.226          49.000       -3061.245
 113835605.723 8  21662199.807          50.000        -975.946
 120435622.803 8  22918139.542          48.000         522.951
 121034079.230 8  23032020.052          48.000       -3774.102
 120788780.855 7  22985334.571          46.000        1941.149
 127690009.196 7  24298604.619          44.000        1870.621
 131438816.71526  25011977.050          37.000       -4065.375
                  24773722.887          32.000        -184.483
 135715022.520 6  25825711.467          37.000       -1453.373
 195936250.926 7  37285429.234          42.000       -1492.903
 196266173.432 7  37348209.986          45.000       -1495.087
 07  8 29  9  1 16.0020000  0 12G19G 3G25G27G16G11G 8G13G22G18S29S37
 108552907.502 8  20656936.796          50.000       -1510.583
 109965753.516 8  20925788.029          49.000       -3060.654
 113836581.610 8  21662384.640          48.000        -974.923
 120435099.540 7  22918038.924          47.000         524.134
 121037853.621 7  23032738.355          44.000       -3773.833
 120786839.096 7  22984965.063          45.000        1941.909
 127688138.528 7  24298248.442          46.000        1870.726
 131442881.57236  25012753.951          36.000       -4065.400
 130186969.08635  24773756.638          34.000        -177.498
 135716475.44635  25825987.882          32.000       -1445.599
 195937743.167 6  37285713.411          41.000       -1491.884
 196267667.926 6  37348494.408          41.000       -1493.354
 07  8 29  9  1 17.0020000  0 12G19G 3G25G27G16G11G 8G13G22G18S29S37
 108554417.469 8  20657224.045          51.000       -1509.214
 109968814.181 8  20926370.622          49.000       -3060.249
 113837556.803 8  21662570.258          50.000        -974.944
 120434575.494 8  22917938.935          48.000         524.773
 121041627.258 7  23033456.833          43.000       -3773.391
 120784896.047 7  22984595.782          45.000        1944.638
 127686266.902 7  24297891.726          44.000        1873.232
 131446947.03135  25013529.946          34.000       -4063.203
 130187148.12435  24773790.997          33.000        -177.751
                  25826264.151          30.000       -1453.948
 195939234.113 7  37285996.891          42.000       -1488.418
 196269161.197 7  37348778.568          43.000       -1492.114
 07  8 29  9  1 18.0020000  0 12G19G 3G25G27G16G11G 8G13G22G18S29S37
 108555926.439 8  20657511.293          51.000       -1508.191
 109971873.656 8  20926952.989          49.000       -3058.613
 113838531.274 8  21662755.842          49.000        -973.930
 120434050.556 8  22917839.068          48.000         525.408
 121045399.479 7  23034175.399          42.000       -3771.582
 120782952.189 7  22984226.029          45.000        1943.726
 127684394.323 7  24297535.253          45.000        1873.678
                  25014302.643          31.000       -4058.114
 130187328.90335  24773823.368          35.000        -176.341
                  25826539.288          29.000       -1455.222
 195940724.310 7  37286280.753          42.000       -1489.990
 196270652.953 7  37349062.430          43.000       -1491.685
 07  8 29  9  1 19.0020000  0 12G19G 3G25G27G16G11G 8G13G22G18S29S37
 108557434.489 8  20657798.367          50.000       -1507.332
 109974931.732 8  20927535.007          48.000       -3056.775
 113839505.387 8  21662940.675          49.000        -973.971
 120433524.990 7  22917739.096          46.000         526.618
 121049170.764 5  23034892.987          33.000       -3769.992
 120781008.116 7  22983855.770          43.000        1943.542
 127682520.394 7  24297178.431          43.000        1874.793
 131455102.98335  25015074.378          34.000       -4061.798
 130187505.76035  24773852.388          35.000        -176.155
                  25826816.207          29.000       -1450.771
 195942213.593 7  37286563.953          42.000       -1490.454
 196272143.707 7  37349346.032          44.000       -1490.319
 07  8 29  9  1 20.0020000  0 12G19G 3G25G27G16G11G 8G13G22G18S29S37
 108558941.503 8  20658084.464          50.000       -1506.131
 109977988.024 8  20928116.448          49.000       -3055.276
 113840479.109 8  21663125.891          50.000        -973.289
 120432998.405 7  22917638.652          45.000         527.005
 121052940.616 7  23035609.895          42.000       -3768.410
 120779064.109 7  22983485.686          45.000        1943.550
 127680645.226 7  24296822.116          45.000        1876.529
 131459164.71635  25015846.410          34.000       -4062.278
 130187681.98925  24773884.723          34.000        -176.456
 135722289.70235  25827093.038          33.000       -1447.556
 195943701.895 7  37286847.484          43.000       -1488.728
 196273633.838 7  37349629.529          43.000       -1488.795
 07  8 29  9  1 21.0020000  0 11G19G 3G25G27G16G11G 8G22G18S29S37
 108560447.554 8  20658370.578          50.000       -1505.960
 109981042.867 8  20928697.175          48.000       -3054.694
 113841452.424 8  21663310.916          50.000        -973.292
 120432471.109 7  22917538.383          45.000         526.898
 121056709.141 7  23036326.227          44.000       -3768.032
 120777120.047 7  22983115.951          46.000        1944.301
 127678768.807 7  24296465.067          44.000        1876.681
                  24773917.234          29.000        -172.670
 135723737.98625  25827368.855          32.000       -1451.085
 195945189.630 7  37287130.824          42.000       -1488.263
 196275123.573 7  37349912.972          44.000       -1489.813
 07  8 29  9  1 22.0020000  0 11G19G 3G25G27G16G11G 8G22G18S29S37
 108561952.789 8  20658657.041          50.000       -1504.795
 109984096.475 8  20929278.041          48.000       -3052.963
 113842425.413 8  21663496.465          50.000        -972.329
 120431943.136 7  22917437.661          45.000         528.578
 121060476.691 7  23037042.960          45.000       -3767.700
 120775175.688 7  22982745.606          46.000        1945.383
 127676891.375 7  24296106.954          43.000        1877.735
                  24773947.929          31.000        -173.251
 135725184.79325  25827644.972          33.000       -1446.578
 195946676.198 6  37287413.692          40.000       -1487.570
 196276612.514 7  37350196.208          42.000       -1487.009
 07  8 29  9  1 23.0020000  0 11G19G 3G25G27G16G11G 8G22G18S29S37
 108563457.038 8  20658943.260          50.000       -1503.788
 109987148.966 8  20929858.732          48.000       -3052.150
 113843397.692 8  21663681.751          50.000        -971.857
 120431414.259 7  22917336.608          45.000         529.474
 121064243.162 7  23037759.100          45.000       -3766.189
 120773230.303 7  22982375.469          46.000        1945.382
 127675012.913 7  24295749.138          43.000        1878.695
                  24773979.042          31.000        -175.506
 135726630.71925  25827919.708          33.000       -1445.279
 195948161.762 6  37287696.456          40.000       -1485.508
 196278100.177 7  37350479.337          42.000       -1487.242
 07  8 29  9  1 24.0020000  0 11G19G 3G25G27G16G11G 8G22G18S29S37
 108564960.489 8  20659229.077          50.000       -1502.519
 109990200.564 8  20930439.249          48.000       -3050.822
 113844369.425 8  21663866.375          50.000        -971.400
 120430884.727 7  22917235.693          45.000         529.847
 121068008.734 7  23038475.659          45.000       -3764.873
 120771284.038 7  22982005.124          46.000        1946.986
 127673133.602 7  24295391.025          43.000        1880.030
                  24774013.647          31.000        -171.010
 135728076.05025  25828194.828          34.000       -1445.565
 195949646.258 6  37287978.852          40.000       -1487.917
 196279586.618 7  37350762.258          42.000       -1485.752
 07  8 29  9  1 25.0020000  0 11G19G 3G25G27G16G11G 8G22G18S29S37
 108566463.025 8  20659514.842          50.000       -1501.588
 109993251.171 8  20931020.080          49.000       -3049.737
 113845340.531 8  21664050.998          50.000        -970.301
 120430354.424 7  22917134.797          45.000         531.473
 121071773.315 7  23039191.973          45.000       -3763.419
 120769336.765 7  22981634.918          46.000        1948.011
 127671253.394 7  24295032.511          43.000        1881.355
 130188499.33235  24774047.764          32.000        -166.103
 135729520.54425  25828469.774          34.000       -1445.312
 195951129.432 6  37288260.938          40.000       -1480.447
 196281071.791 7  37351044.987          42.000       -1485.529
 07  8 29  9  1 26.0020000  0 11G19G 3G25G27G16G11G 8G22G18S29S37
 108567964.553 8  20659800.817          50.000       -1501.302
 109996300.654 8  20931600.352          49.000       -3049.123
 113846310.882 8  21664235.569          50.000        -970.182
 120429823.217 7  22917033.620          45.000         531.093
 121075536.784 7  23039907.973          45.000       -3762.742
 120767388.401 7  22981263.822          46.000        1949.153
 127669372.128 7  24294674.293          43.000        1882.243
 130188669.82725  24774080.883          33.000        -170.655
 135730964.22825  25828744.738          34.000       -1442.879
 195952610.866 6  37288542.671          41.000       -1480.282
 196282555.627 7  37351327.263          44.000       -1482.306
 07  8 29  9  1 27.0020000  0 11G19G 3G25G27G16G11G 8G22G18S29S37
 108569465.315 8  20660086.477          50.000       -1500.154
 109999349.300 8  20932180.485          49.000       -3048.110
 113847280.731 8  21664419.879          50.000        -969.506
 120429291.399 7  22916932.078          45.000         532.145
 121079299.404 7  23040623.921          45.000       -3761.926
 120765439.172 7  22980892.900          46.000        1949.623
 127667490.036 7  24294316.250          42.000        1883.084
 130188839.69925  24774114.126          33.000        -169.679
 135732407.34025  25829019.753          34.000       -1443.212
 195954091.600 6  37288824.544          41.000       -1482.302
 196284038.277 7  37351609.468          43.000       -1481.518
 07  8 29  9  1 28.0020000  0 11G19G 3G25G27G16G11G 8G22G18S29S37
 108570965.296 8  20660371.876          50.000       -1499.403
 110002397.070 8  20932760.251          48.000       -3046.916
 113848250.080 8  21664604.433          50.000        -968.835
 120428758.931 7  22916830.867          45.000         533.675
 121083061.164 7  23041339.415          45.000       -3761.293
 120763489.083 7  22980521.630          46.000        1950.792
 127665607.172 7  24293958.032          43.000        1883.055
 130189008.83325  24774147.055          33.000        -168.184
 135733849.77325  25829294.508          34.000       -1441.461
 195955571.441 6  37289106.036          40.000       -1477.088
 196285520.047 7  37351891.342          42.000       -1479.418
 07  8 29  9  1 29.0020000  0 11G19G 3G25G27G16G11G 8G22G18S29S37
 108572464.361 8  20660657.135          50.000       -1498.940
 110005443.815 8  20933340.052          49.000       -3046.265
 113849218.778 8  21664788.620          50.000        -968.329
 120428225.664 7  22916729.097          44.000         533.596
 121086821.906 7  23042054.997          45.000       -3759.996
 120761537.987 7  22980150.429          46.000        1950.968
 127663723.329 7  24293599.535          42.000        1885.072
 130189177.03725  24774179.669          32.000        -169.081
 135735291.43025  25829568.807          35.000       -1442.308
 195957050.004 6  37289387.298          40.000       -1477.514
 196287000.599 7  37352173.058          42.000       -1481.876
 07  8 29  9  1 30.0020000  0 11G19G 3G25G27G16G11G 8G22G18S29S37
 108573962.887 8  20660942.743          51.000       -1498.125
 110008490.456 8  20933920.272          49.000       -3046.541
 113850186.859 8  21664972.755          50.000        -967.587
 120427691.902 7  22916627.590          45.000         534.491
 121090582.218 7  23042770.630          45.000       -3760.156
 120759585.167 7  22979779.124          46.000        1954.129
 127661839.226 7  24293241.910          43.000        1884.109
                  24774212.005          32.000        -168.438
 135736733.74325  25829842.951          33.000       -1441.409
 195958526.640 7  37289668.143          44.000       -1474.997
 196288479.691 7  37352454.514          43.000       -1477.757
 07  8 29  9  1 31.0020000  0 11G19G 3G25G27G16G11G 8G22G18S29S37
 108575460.786 8  20661227.653          51.000       -1497.916
 110011537.295 8  20934500.404          49.000       -3047.998
 113851153.861 8  21665157.029          50.000        -967.178
 120427157.726 7  22916526.292          45.000         535.653
 121094342.100 7  23043486.874          46.000       -3759.826
 120757629.669 7  22979407.121          46.000        1956.345
 127659955.007 7  24292883.517          43.000        1883.829
 130189510.44336  24774240.257          38.000        -167.972
 135738177.152 5  25830117.720          35.000       -1447.323
 195960001.177 7  37289948.761          43.000       -1472.706
 196289956.514 7  37352735.585          44.000       -1475.684
 07  8 29  9  1 32.0020000  0 11G19G 3G25G27G16G11G 8G22G18S29S37
 108576958.601 8  20661513.051          51.000       -1497.855
 110014586.392 8  20935080.692          49.000       -3051.426
 113852119.403 8  21665340.816          50.000        -963.631
 120426623.148 7  22916424.539          45.000         534.196
 121098102.842 8  23044203.152          48.000       -3763.207
 120755668.873 7  22979033.987          46.000        1964.965
 127658071.764 6  24292525.455          41.000        1881.640
                  24774271.109          31.000        -168.930
 135739625.50725  25830392.890          35.000       -1453.178
 195961472.199 7  37290228.576          43.000       -1469.188
 196291430.054 6  37353016.169          41.000       -1470.519
 07  8 29  9  1 33.0020000  0 11G19G 3G25G27G16G11G 8G22G18S29S37
 108578456.411 8  20661797.943          50.000       -1498.088
 110017639.461 8  20935661.888          49.000       -3054.374
 113853082.378 8  21665524.097          50.000        -960.984
 120426088.477 7  22916323.048          47.000         534.348
 121101865.170 8  23044919.362          48.000       -3762.882
 120753699.522 7  22978658.792          45.000        1972.054
 127656190.33236  24292167.970          41.000        1881.056
                  24774303.702          35.000        -178.883
                  25830669.578          31.000       -1458.442
 195962938.303 7  37290507.712          42.000       -1462.628
 196292898.944 7  37353295.724          42.000       -1464.580
 07  8 29  9  1 34.0020000  0 12G19G 3G25G27G16G11G 8G13G22G18S29S37
 108579954.022 8  20662083.115          50.000       -1497.510
 110020695.323 8  20936243.381          48.000       -3057.029
 113854043.288 8  21665707.150          50.000        -959.531
 120425553.299 8  22916221.402          48.000         537.120
 121105628.50638  23045635.605          48.000       -3766.320
 120751723.522 7  22978282.499          46.000        1979.537
 127654310.12427  24291809.750          43.000        1877.000
 131515897.63936  25026643.380          38.000       -4025.603
                  24774335.184          36.000        -174.700
                  25830949.151          27.000       -1452.297
 195964399.735 7  37290785.782          43.000       -1461.188
 196294363.896 7  37353574.596          42.000       -1464.023
 07  8 29  9  1 35.0020000  0 11G19G 3G25G27G16G11G 8G13G22S29S37
 108581451.259 8  20662368.059          51.000       -1497.124
 110023753.295 8  20936825.188          48.000       -3058.336
 113855002.286 8  21665889.401          50.000        -958.141
 120425017.608 8  22916119.719          49.000         535.767
 121109392.66328  23046351.902          48.000       -3764.872
 120749742.046 7  22977905.523          44.000        1983.237
 127652429.28736  24291451.342          39.000        1879.838
 131519920.43927  25027402.029          43.000       -4022.449
                  24774366.766          36.000        -180.052
 195965857.405 7  37291063.417          44.000       -1456.773
 196295825.527 7  37353852.876          42.000       -1459.445
 07  8 29  9  1 36.0020000  0 11G19G 3G25G27G16G11G 8G13G22S29S37
 108582948.172 8  20662652.393          50.000       -1497.163
 110026812.886 8  20937407.693          48.000       -3059.660
 113855959.785 8  21666071.774          50.000        -956.697
 120424481.554 8  22916017.705          48.000         535.461
 121113157.23327  23047068.181          46.000       -3763.715
 120747755.790 7  22977527.763          43.000        1989.699
 127650550.57737  24291092.232          43.000        1876.663
 131523941.64837  25028167.155          42.000       -4014.267
 130190358.74836  24774401.561          40.000        -184.089
 195967311.720 7  37291340.161          43.000       -1453.877
 196297283.434 7  37354130.319          42.000       -1455.493
 07  8 29  9  1 37.0020000  0 11G19G 3G25G27G16G11G 8G13G22S29S37
 108584444.946 8  20662937.268          51.000       -1496.574
 110029874.096 8  20937990.128          49.000       -3061.600
 113856916.079 8  21666254.007          50.000        -955.845
 120423945.318 8  22915915.761          48.000         536.448
 121116921.96227  23047784.652          47.000       -3763.527
 120745765.116 7  22977148.920          45.000        1993.164
 127648672.55037  24290735.533          44.000        1877.624
 131527955.21527  25028930.533          43.000       -4010.974
                  24774435.905          34.000        -177.078
                  37291613.534          29.000       -1413.313
 196298737.87735  37354407.221          35.000       -1451.529
 07  8 29  9  1 38.0020000  0 11G19G 3G25G27G16G11G 8G13G22S29S37
 108585941.627 8  20663222.248          51.000       -1496.370
 110032936.772 8  20938572.773          48.000       -3063.698
 113857871.430 8  21666435.752          50.000        -953.126
 120423409.132 8  22915813.608          48.000         536.274
 121120686.81327  23048501.245          46.000       -3765.608
 120743770.508 7  22976769.118          45.000        1997.465
 127646796.76235  24290379.863          35.000        1879.929
 131531965.04827  25029694.628          43.000       -4006.654
                  24774471.413          31.000        -186.198
 195970185.87637  37291886.582          43.000       -1447.374
 196300190.43037  37354683.597          42.000       -1450.803
 07  8 29  9  1 39.0020000  0 11G19G 3G25G27G16G11G 8G13G22S29S37
 108587437.944 8  20663507.402          51.000       -1496.437
 110036000.494 8  20939156.063          48.000       -3065.715
 113858825.586 8  21666617.216          50.000        -953.576
 120422872.660 8  22915711.733          48.000         536.865
 121124451.55427  23049217.681          47.000       -3765.501
 120741771.935 7  22976389.140          44.000        2000.115
 127644918.62737  24290021.086          42.000        1878.945
 131535971.03627  25030457.936          46.000       -4002.612
 130190956.97836  24774515.455          38.000        -191.770
 195971631.09127  37292162.036          42.000       -1442.385
 196301640.949 7  37354959.625          43.000       -1449.922
 07  8 29  9  1 40.0020000  0 11G19G 3G25G27G16G11G 8G13G22S29S37
 108588933.787 8  20663792.347          51.000       -1495.580
 110039065.098 8  20939739.232          49.000       -3064.880
 113859778.481 8  21666798.612          50.000        -952.319
 120422335.675 7  22915609.005          47.000         538.294
 121128216.45527  23049933.977          47.000       -3765.498
 120739769.809 7  22976008.221          45.000        2003.282
 127643042.29127  24289663.425          43.000        1875.194
 131539973.29937  25031219.832          42.000       -3997.568
                  24774556.168          29.000        -187.954
 195973073.679 7  37292436.633          42.000       -1440.027
 196303088.494 7  37355235.026          42.000       -1446.524
 07  8 29  9  1 41.0020000  0 11G19G 3G25G27G16G11G 8G13G22S29S37
 108590429.377 8  20664076.733          51.000       -1494.618
 110042130.765 8  20940322.313          49.000       -3066.203
 113860730.390 8  21666979.484          50.000        -949.935
 120421798.144 8  22915506.938          48.000         537.310
 121131981.89528  23050650.763          48.000       -3764.924
 120737764.862 7  22975626.394          45.000        2006.763
 127641165.98927  24289307.040          44.000        1877.495
 131543972.56727  25031981.098          43.000       -3998.127
                  24774587.584          38.000        -174.520
 195974514.538 7  37292710.985          43.000       -1440.283
 196304534.712 6  37355510.164          41.000       -1443.915
 07  8 29  9  1 42.0020000  0 11G19G 3G25G27G16G11G 8G13G22S29S37
 108591924.367 8  20664361.434          51.000       -1494.744
 110045197.159 8  20940905.849          48.000       -3065.363
 113861680.927 8  21667160.635          51.000        -950.020
 120421259.705 8  22915404.453          48.000         539.421
 121135747.78128  23051367.443          48.000       -3766.118
 120735756.952 7  22975244.706          46.000        2009.407
 127639289.06037  24288949.467          43.000        1875.942
                  25032741.754          37.000       -3995.381
 130191515.71236  24774621.848          40.000        -194.327
 195975953.765 7  37292984.937          42.000       -1439.142
 196305978.48037  37355784.954          42.000       -1442.472
 07  8 29  9  1 43.0020000  0 11G19G 3G25G27G16G11G 8G13G22S29S37
 108593418.453 8  20664645.611          51.000       -1492.957
 110048263.619 8  20941489.437          49.000       -3064.914
 113862630.203 8  21667340.966          49.000        -949.206
 120420720.627 8  22915301.811          48.000         539.790
 121139513.145 7  23052083.775          47.000       -3763.408
 120733746.040 7  22974861.954          45.000        2011.450
 127637412.30537  24288591.338          43.000        1878.390
                  25033508.462          37.000       -4000.525
 130191709.63927  24774657.569          45.000        -194.957
 195977390.344 6  37293258.331          40.000       -1434.607
 196307420.560 6  37356059.290          41.000       -1439.258
 07  8 29  9  1 44.0020000  0 11G19G 3G25G27G16G11G 8G13G22S29S37
 108594911.806 8  20664929.858          51.000       -1493.062
 110051329.968 8  20942073.041          50.000       -3066.264
 113863578.443 8  21667521.367          50.000        -947.862
 120420180.860 8  22915199.204          49.000         540.019
 121143278.13937  23052800.263          47.000       -3764.115
 120731732.863 7  22974478.696          44.000        2015.469
 127635535.17127  24288235.056          44.000        1877.491
                  25034278.667          33.000       -3987.852
                  24774695.296          34.000        -195.283
 195978825.082 7  37293531.183          42.000       -1434.753
 196308859.72937  37356333.397          43.000       -1440.076
 07  8 29  9  1 45.0020000  0 11G19G 3G25G27G16G11G 8G13G22S29S37
 108596405.061 8  20665213.773          51.000       -1493.029
 110054396.588 8  20942656.524          48.000       -3066.954
 113864526.440 8  21667702.203          50.000        -947.952
 120419640.890 8  22915096.545          48.000         540.469
 121147042.83027  23053516.386          47.000       -3763.990
 120729718.156 7  22974095.071          44.000        2015.608
 127633657.65127  24287878.462          42.000        1879.625
                  25035037.733          27.000       -3991.754
 130192090.37837  24774731.086          43.000        -195.512
 195980258.554 7  37293804.157          44.000       -1433.532
 196310298.752 7  37356607.157          43.000       -1438.429
 07  8 29  9  1 46.0020000  0 11G19G 3G25G27G16G11G 8G13G22S29S37
 108597898.260 8  20665497.915          51.000       -1492.046
 110057463.676 8  20943239.937          48.000       -3066.727
 113865474.036 8  21667882.377          50.000        -946.952
 120419100.660 8  22914993.659          48.000         541.179
 121150807.61528  23054233.049          48.000       -3763.489
 120727701.94537  22973711.464          45.000        2019.460
 127631780.10327  24287522.005          42.000        1875.823
                  25035796.243          31.000       -3986.375
 130192285.32537  24774767.645          42.000        -192.729
 195981690.560 7  37294076.556          42.000       -1430.866
 196311735.62936  37356880.654          40.000       -1438.088
 07  8 29  9  1 47.0020000  0 11G19G 3G25G27G16G11G 8G13G22S29S37
 108599391.333 8  20665782.161          51.000       -1493.262
 110060531.28237  20943823.943          47.000       -3068.886
 113866421.108 8  21668062.847          50.000        -948.159
 120418560.210 7  22914890.825          46.000         541.919
 121154572.27828  23054949.189          48.000       -3761.781
 120725683.53027  22973327.507          44.000        2018.041
                  24287165.428          38.000        1879.803
                  25036551.264          34.000       -3981.440
 130192480.80137  24774805.371          42.000        -198.269
 195983121.195 6  37294348.918          40.000       -1431.463
 196313172.415 6  37357154.029          40.000       -1438.556
 07  8 29  9  1 48.0020000  0 11G19G 3G25G27G16G11G 8G13G22S29S37
 108600883.067 8  20666066.182          51.000       -1490.670
 110063598.32628  20944407.479          48.000       -3067.439
 113867366.693 8  21668242.271          49.000        -945.269
 120418018.736 8  22914787.834          48.000         542.847
 121158336.02837  23055665.607          47.000       -3764.123
 120723662.45527  22972942.975          45.000        2023.207
                  24286807.947          38.000        1888.436
 131571923.11636  25037304.643          37.000       -3978.576
 130192673.85035  24774842.401          33.000        -197.204
 195984549.46136  37294620.793          38.000       -1429.909
 196314605.23836  37357425.905          39.000       -1436.173
 07  8 29  9  1 49.0020000  0 11G19G 3G25G27G16G11G 8G13G22S29S37
 108602374.383 8  20666349.661          51.000       -1490.561
 110066665.83828  20944991.136          48.000       -3067.554
 113868311.353 8  21668422.532          50.000        -943.859
 120417476.694 8  22914684.598          48.000         541.972
 121162100.01427  23056381.885          45.000       -3765.433
 120721638.94527  22972557.763          44.000        2027.249
 127626152.02036  24286449.254          39.000        1879.648
                  25038062.332          32.000       -3977.989
                  24774879.972          37.000        -195.033
 195985975.70336  37294892.235          40.000       -1421.652
                  37357697.957          38.000       -1426.712
 07  8 29  9  1 50.0020000  0 11G19G 3G25G27G16G11G 8G13G22S29S37
 108603865.125 8  20666633.262          51.000       -1490.150
 110069733.60928  20945574.898          48.000       -3066.974
 113869255.026 8  21668602.794          51.000        -942.598
 120416934.047 8  22914581.432          48.000         542.276
 121165863.50937  23057097.869          47.000       -3762.803
 120719613.00527  22972172.183          44.000        2027.274
 127624273.34827  24286091.646          43.000        1876.927
                  25038819.484          30.000       -3966.441
 130193059.65137  24774915.536          43.000        -193.737
 195987399.49137  37295163.447          43.000       -1418.876
 196317454.31627  37357969.552          42.000       -1428.415
 07  8 29  9  1 51.0020000  0 11G19G 3G25G27G16G11G 8G13G22S29S37
 108605355.328 8  20666917.351          51.000       -1489.802
 110072801.22628  20946159.061          48.000       -3068.148
 113870198.022 8  21668781.763          49.000        -942.653
 120416391.036 8  22914478.198          48.000         543.918
 121169626.36127  23057814.009          47.000       -3761.869
                  22971785.977          32.000        2032.802
                  24285735.506          30.000        1882.057
 131583849.37635  25039574.008          34.000       -3980.762
 130193256.63636  24774952.999          41.000        -199.580
 195988821.835 6  37295434.377          41.000       -1424.061
 196318882.74737  37358241.181          42.000       -1430.038
 07  8 29  9  1 52.0020000  0 10G19G 3G25G27G16G11G 8G13G22S29
 108606846.49337  20667200.080          47.000       -1488.575
                  20946743.120          37.000       -3069.422
 113871143.35938  21668960.332          50.000        -940.885
 120415847.60737  22914374.456          43.000         543.151
                  23058529.382          30.000       -3756.952
 120715514.12437  22971398.721          43.000        2028.788
                  24285377.025          30.000        1879.041
 131587822.64936  25040326.133          39.000       -3974.282
                  24774989.278          36.000        -199.598
                  37295703.338          36.000       -1423.270
 07  8 29  9  1 53.0020000  0 10G19G 3G25G27G16G11G 8G13G22S29
 108608335.56128  20667481.291          51.000       -1488.800
 110078933.53238  20947324.701          48.000       -3066.765
 113872084.98928  21669138.463          50.000        -941.356
 120415303.54928  22914268.603          48.000         544.491
                  23059244.855          30.000       -3764.855
 120713482.49527  22971011.851          44.000        2033.995
 127618634.19036  24285018.753          40.000        1874.594
 131591797.89536  25041081.677          38.000       -3969.484
                  24775029.971          28.000        -201.872
 195991662.79037  37295973.487          42.000       -1416.837
 07  8 29  9  1 54.0020000  0 10G19G 3G25G27G16G11G 8G13G22S29
 108609824.05628  20667765.014          51.000       -1488.548
 110082000.61428  20947907.993          48.000       -3066.229
 113873025.94628  21669317.922          50.000        -939.557
 120414758.99627  22914165.228          47.000         544.575
 121180900.91938  23059958.762          48.000       -3762.086
 120711449.50537  22970625.469          44.000        2035.288
                  24284661.581          34.000        1871.947
 131595766.89926  25041834.847          38.000       -3965.359
                  24775072.862          26.000        -205.427
                  37296243.406          39.000       -1418.364
 07  8 29  9  1 55.0020000  0 10G19G 3G25G27G16G11G 8G13G22S29
 108611312.00028  20668049.453          51.000       -1487.465
 110085066.78828  20948492.418          48.000       -3064.891
 113873966.76128  21669497.572          50.000        -940.457
 120414213.98528  22914062.656          48.000         545.679
 121184661.56128  23060673.995          48.000       -3760.480
 120709416.30527  22970239.295          44.000        2033.765
 127614872.50537  24284302.913          43.000        1883.327
 131599736.55036  25042589.672          38.000       -3969.606
 130194087.04935  24775111.009          34.000        -203.271
 195994498.47637  37296513.048          43.000       -1415.242
 07  8 29  9  1 56.0020000  0 10G19G 3G25G27G16G11G 8G13G22S29
 108612799.36128  20668332.967          51.000       -1486.690
 110088132.13028  20949076.163          48.000       -3065.512
 113874907.31728  21669676.523          50.000        -941.260
 120413668.70427  22913959.612          47.000         543.734
 121188421.19037  23061390.012          46.000       -3762.281
 120707382.36237  22969852.232          43.000        2033.061
                  24283944.569          35.000        1871.255
 131603704.66226  25043342.144          40.000       -3967.593
 130194281.82236  24775146.052          36.000        -197.147
 195995914.969 6  37296782.741          41.000       -1416.792
 07  8 29  9  1 57.0020000  0 10G19G 3G25G27G16G11G 8G13G22S29
 108614286.17028  20668616.218          51.000       -1487.120
 110091196.98738  20949659.455          48.000       -3063.463
 113875847.42128  21669855.686          50.000        -938.969
 120413122.65328  22913855.854          48.000         545.202
 121192179.67436  23062105.436          36.000       -3760.402
 120705347.81927  22969465.500          44.000        2032.527
 127611121.47436  24283589.060          41.000        1882.678
                  25044097.026          39.000       -3959.846
                  24775184.479          34.000        -191.804
 195997329.81836  37297052.016          41.000       -1413.398
 07  8 29  9  1 58.0020000  0 10G19G 3G25G27G16G11G 8G13G22S29
 108615772.14328  20668898.982          51.000       -1485.187
 110094260.64328  20950242.746          48.000       -3062.460
 113876787.10728  21670034.340          50.000        -940.685
 120412575.93428  22913752.061          49.000         547.516
                  23062821.751          25.000       -3759.800
 120703313.30927  22969078.263          45.000        2034.547
 127609238.96237  24283228.870          42.000        1883.386
 131611577.09036  25044850.577          39.000       -3963.418
                  24775220.528          26.000        -199.729
 195998745.198 7  37297321.447          42.000       -1416.467
 07  8 29  9  1 59.0020000  0 10G19G 3G25G27G16G11G 8G13G22S29
 108617257.77928  20669181.763          51.000       -1485.626
 110097323.12628  20950825.566          48.000       -3061.876
 113877727.20528  21670213.153          50.000        -940.127
 120412029.06228  22913647.760          48.000         546.951
                  23063539.844          26.000       -3760.953
 120701279.44327  22968691.531          45.000        2035.132
                  24282871.415          39.000        1871.664
                  25045604.932          35.000       -3964.199
                  24775261.357          24.000        -212.256
 196000159.754 6  37297590.564          41.000       -1415.366
 07  8 29  9  2  0.0020000  0  9G19G 3G25G27G16G11G 8G13S29
 108618742.65528  20669464.387          51.000       -1484.580
 110100383.95628  20951408.072          48.000       -3060.493
 113878667.29828  21670392.314          50.000        -940.495
 120411481.64928  22913543.654          48.000         552.203
                  23064256.279          25.000       -3763.204
 120699246.18927  22968304.816          45.000        2032.269
 127605463.83237  24282512.400          43.000        1886.628
                  25046361.552          34.000       -3973.851
 196001574.255 7  37297859.925          42.000       -1416.869
 07  8 29  9  2  1.0020000  0  9G19G 3G25G27G16G11G 8G13S29
 108620226.826 8  20669746.837          51.000       -1483.066
 110103441.77928  20951989.899          48.000       -3056.330
 113879608.444 8  21670571.667          50.000        -942.573
 120410933.99438  22913439.842          49.000         548.513
                  23064972.441          27.000       -3752.153
 120697216.52027  22967918.082          45.000        2027.707
                  24282153.903          42.000        1886.762
                  25047117.845          37.000       -3973.286
 196002990.589 7  37298129.583          43.000       -1418.589
 07  8 29  9  2  2.0020000  0  9G19G 3G25G27G16G11G 8G13S29
 108621709.851 8  20670028.920          51.000       -1482.986
 110106495.85128  20952571.429          48.000       -3052.134
 113880550.531 8  21670750.741          50.000        -941.213
 120410385.54128  22913335.646          48.000         548.189
                  23065686.697          29.000       -3748.256
 120695190.98927  22967532.658          45.000        2023.884
                  24281796.122          41.000        1888.346
 131627461.30036  25047873.123          41.000       -3978.379
 196004408.180 7  37298399.450          43.000       -1419.882
 07  8 29  9  2  3.0020000  0  9G19G 3G25G27G16G11G 8G13S29
 108623191.836 8  20670310.916          51.000       -1482.141
 110109546.18228  20953151.790          49.000       -3049.209
 113881493.637 8  21670930.443          50.000        -943.950
 120409836.41528  22913231.016          48.000         550.607
                  23066400.223          33.000       -3738.522
 120693169.93527  22967148.298          45.000        2020.618
 127599810.31937  24281436.682          43.000        1888.839
 131631440.26235  25048630.968          35.000       -3979.832
 196005828.084 7  37298669.736          44.000       -1421.896
 07  8 29  9  2  4.0020000  0  9G19G 3G25G27G16G11G 8G13S29
 108624673.340 8  20670592.737          51.000       -1480.776
 110112594.53628  20953731.905          49.000       -3047.010
 113882437.426 8  21671109.726          50.000        -944.350
 120409287.05328  22913126.401          49.000         550.068
 121218485.62336  23067110.949          39.000       -3747.377
 120691150.96427  22966764.061          45.000        2017.849
 127597915.36337  24281075.290          44.000        1891.870
                  25049388.342          31.000       -3982.917
 196007248.374 7  37298940.162          42.000       -1419.855
 07  8 29  9  2  5.0020000  0  9G19G 3G25G27G16G11G 8G13S29
 108626154.157 8  20670874.558          51.000       -1481.285
 110115641.51828  20954311.514          48.000       -3046.991
 113883381.298 8  21671289.603          49.000        -944.701
 120408737.28828  22913021.699          48.000         547.218
 121222233.89636  23067822.430          36.000       -3744.816
 120689132.53927  22966379.858          45.000        2015.671
 127596021.54536  24280713.842          41.000        1889.150
                  25050146.970          29.000       -3988.580
 196008668.21437  37299210.554          43.000       -1419.655
 07  8 29  9  2  6.0020000  0 10G19G 3G25G27G16G11G 8G13S29S37
 108627634.461 8  20671156.065          51.000       -1480.468
 110118687.34928  20954891.124          48.000       -3044.560
 113884325.192 8  21671469.288          50.000        -943.879
 120408186.99028  22912916.964          49.000         550.322
                  23068533.422          34.000       -3745.572
 120687114.76337  22965995.902          46.000        2017.814
 127594126.24036  24280354.195          38.000        1894.344
                  25050905.635          28.000       -3991.269
 196010088.39937  37299481.015          42.000       -1419.542
 196340218.75237  37362301.517          43.000       -1425.310
 07  8 29  9  2  7.0020000  0 10G19G 3G25G27G16G11G 8G13S29S37
 108629114.380 8  20671437.869          51.000       -1479.566
 110121732.997 8  20955470.506          49.000       -3045.521
 113885269.108 8  21671648.694          50.000        -943.910
 120407636.48128  22912812.176          49.000         552.746
 121229705.55336  23069246.105          37.000       -3747.740
 120685096.84927  22965612.172          45.000        2018.071
 127592234.04036  24279993.501          40.000        1900.068
                  25051666.919          26.000       -3989.240
 196011508.12126  37299751.424          41.000       -1417.094
 196341643.35527  37362572.363          42.000       -1423.615
 07  8 29  9  2  8.0020000  0 10G19G 3G25G27G16G11G 8G13S29S37
 108630593.516 8  20671719.150          51.000       -1478.656
 110124777.142 8  20956049.907          49.000       -3042.349
 113886212.578 8  21671828.431          50.000        -943.491
 120407085.26328  22912707.091          48.000         553.507
                  23069959.452          41.000       -3748.857
 120683078.60527  22965228.249          45.000        2017.332
 127590338.28736  24279632.542          39.000        1895.140
                  25052422.902          25.000       -3975.178
 196012927.363 6  37300021.484          41.000       -1417.152
 196343067.010 7  37362843.382          43.000       -1423.580
 07  8 29  9  2  9.0020000  0  9G19G 3G25G27G16G11G 8S29S37
 108632072.173 8  20672000.534          51.000       -1479.217
 110127820.605 8  20956628.905          48.000       -3042.630
 113887155.882 8  21672007.645          50.000        -944.120
 120406533.65828  22912602.128          49.000         553.128
 121237193.36237  23070670.934          44.000       -3744.984
 120681060.05927  22964844.206          45.000        2019.424
                  24279271.324          38.000        1899.456
 196014345.334 6  37300291.561          41.000       -1415.329
 196344490.09937  37363114.349          42.000       -1422.075
 07  8 29  9  2 10.0020000  0  9G19G 3G25G27G16G11G 8S29S37
 108633550.285 8  20672281.815          51.000       -1478.233
 110130863.296 8  20957208.008          48.000       -3041.521
 113888099.077 8  21672187.312          50.000        -944.783
 120405981.72928  22912496.920          48.000         552.029
                  23071384.392          31.000       -3729.172
 120679041.06037  22964460.092          45.000        2020.501
                  24278909.683          42.000        1892.056
                  37300561.446          39.000       -1415.474
 196345912.20636  37363384.984          38.000       -1424.989
 07  8 29  9  2 11.0020000  0 10G19G 3G25G27G16G11G 8G23S29S37
 108635027.625 8  20672563.025          51.000       -1476.857
 110133904.544 8  20957786.693          48.000       -3039.070
 113889042.062 8  21672366.823          50.000        -942.423
 120405429.34828  22912391.923          48.000         553.217
 121244679.45838  23072095.431          49.000       -3743.300
 120677022.15527  22964075.890          44.000        2018.422
 127584630.26737  24278548.012          43.000        1899.886
                  25703155.753          30.000       -3996.643
 196017190.320 7  37300831.174          43.000       -1417.579
 196347337.77537  37363656.755          43.000       -1420.338
 07  8 29  9  2 12.0020000  0 10G19G 3G25G27G16G11G 8G13S29S37
 108636504.024 8  20672843.974          51.000       -1476.208
 110136943.230 8  20958364.907          49.000       -3036.553
 113889985.498 8  21672546.246          50.000        -943.723
 120404876.19028  22912286.786          49.000         553.624
 121248421.12428  23072807.453          49.000       -3740.134
 120675005.67927  22963691.966          45.000        2013.073
 127582730.60927  24278186.881          43.000        1901.885
                  25055453.060          32.000       -3981.913
 196018607.906 7  37301101.007          42.000       -1415.986
 196348759.48627  37363927.163          43.000       -1422.442
 07  8 29  9  2 13.0020000  0 11G19G 3G25G27G16G11G 8G13G23S29S37
 108637979.580 8  20673124.609          51.000       -1474.381
 110139978.694 8  20958942.720          48.000       -3033.241
 113890929.860 8  21672726.000          50.000        -944.170
 120404322.537 8  22912181.107          49.000         553.808
 121252160.97737  23073519.510          44.000       -3739.532
 120672992.75627  22963308.759          44.000        2013.653
 127580828.89027  24277825.539          43.000        1902.083
                  25056215.127          32.000       -3986.474
                  25704675.908          26.000       -4005.746
 196020027.435 7  37301371.238          44.000       -1423.103
 196350182.854 7  37364198.025          44.000       -1422.267
 07  8 29  9  2 14.0020000  0 11G19G 3G25G27G16G11G 8G13G23S29S37
 108639454.029 8  20673405.680          51.000       -1474.419
 110143011.366 8  20959519.834          48.000       -3032.044
 113891874.658 8  21672905.981          50.000        -946.679
 120403768.189 8  22912075.725          49.000         553.842
                  23074231.569          38.000       -3731.834
 120670982.19127  22962925.847          45.000        2008.645
                  24277463.835          44.000        1912.264
                  25056976.442          26.000       -3994.364
                  25705441.539          25.000       -3998.516
 196021447.207 7  37301641.543          44.000       -1419.743
 196351606.746 7  37364468.957          43.000       -1423.572
 07  8 29  9  2 15.0020000  0 10G19G 3G25G27G16G11G 8G22S29S37
 108640927.905 8  20673686.018          51.000       -1473.303
 110146041.371 8  20960096.390          48.000       -3030.375
 113892820.419 8  21673085.544          50.000        -945.757
 120403213.748 8  22911970.396          48.000         555.400
 121259634.23538  23074941.198          48.000       -3734.650
 120668974.28127  22962543.896          45.000        2007.312
 127577021.28237  24277100.048          43.000        1907.032
 130197684.42535  24775795.673          32.000        -145.661
 196022867.773 7  37301911.846          43.000       -1422.333
 196353031.564 7  37364740.063          44.000       -1423.700
 07  8 29  9  2 16.0020000  0 10G19G 3G25G27G16G11G 8G22S29S37
 108642401.163 8  20673966.478          51.000       -1472.833
 110149070.109 8  20960672.789          48.000       -3028.539
 113893766.324 7  21673265.369          47.000        -945.175
 120402658.944 7  22911865.154          42.000         556.360
 121263369.04827  23075651.859          47.000       -3732.847
 120666966.86727  22962161.614          46.000        2006.701
 127575115.79027  24276737.398          44.000        1905.826
 130197835.87937  24775824.042          43.000        -158.120
 196024288.608 7  37302182.221          42.000       -1420.781
 196354456.090 7  37365011.466          42.000       -1424.242
 07  8 29  9  2 17.0020000  0 10G19G 3G25G27G16G11G 8G22S29S37
 108643873.860 8  20674246.607          50.000       -1471.550
 110152097.862 8  20961248.856          48.000       -3027.198
 113894712.019 8  21673445.629          49.000        -945.353
                  22911757.225          36.000         556.390
 121267103.18428  23076363.339          48.000       -3733.307
 120664959.46927  22961779.908          42.000        2006.917
                  24276375.392          30.000        1903.500
 130197993.03827  24775848.770          45.000        -156.640
 196025708.518 7  37302452.473          42.000       -1419.456
 196355879.718 7  37365282.486          42.000       -1424.471
 07  8 29  9  2 18.0020000  0 11G19G 3G25G27G16G11G 8G13G22S29S37
 108645345.748 8  20674526.700          51.000       -1472.107
 110155123.697 8  20961824.749          48.000       -3025.237
 113895658.072 7  21673625.785          44.000        -946.733
                  22911653.467          30.000         559.559
 121270836.04737  23077072.900          45.000       -3733.157
 120662953.10737  22961397.642          42.000        2004.049
                  24276017.224          25.000        1897.894
 131691216.88435  25060005.364          33.000       -3993.979
                  24775876.886          41.000        -146.902
 196027118.95935  37302721.248          32.000       -1401.904
 196357303.351 6  37365553.436          40.000       -1421.257
 07  8 29  9  2 19.0020000  0 10G19G 3G25G16G11G 8G13G22S29S37
 108646816.715 8  20674806.358          50.000       -1469.809
 110158146.976 7  20962400.188          47.000       -3022.655
 113896604.52236  21673806.063          39.000        -947.074
 121274567.20337  23077783.874          42.000       -3732.546
 120660949.09637  22961016.198          44.000        2003.589
                  24275659.587          30.000        1911.129
 131695207.24236  25060763.681          36.000       -3992.854
 130198269.04036  24775906.828          38.000        -153.055
                  37302988.618          30.000       -1405.760
 196358727.591 6  37365824.838          40.000       -1425.727
 07  8 29  9  2 20.0020000  0 10G19G 3G25G16G11G 8G13G22S29S37
 108648286.977 8  20675086.067          51.000       -1470.587
 110161168.625 8  20962975.104          48.000       -3021.460
 113897550.95036  21673986.288          40.000        -947.660
 121278297.08728  23078493.890          48.000       -3729.324
 120658945.97927  22960635.085          45.000        2004.035
                  24275303.149          31.000        1911.998
                  25061521.824          25.000       -3989.499
 130198420.19027  24775934.156          42.000        -150.794
 196029948.99437  37303259.162          42.000       -1417.873
 196360151.995 7  37366095.893          44.000       -1423.458
 07  8 29  9  2 21.0020000  0 10G19G 3G25G16G11G 8G13G22S29S37
 108649756.397 8  20675365.987          52.000       -1468.781
 110164188.677 8  20963549.757          49.000       -3019.451
 113898497.18527  21674166.201          45.000        -945.949
 121282025.76428  23079203.801          49.000       -3727.290
 120656943.05927  22960254.129          45.000        2002.854
 127565695.49735  24274944.879          34.000        1912.747
 131703168.84836  25062279.860          38.000       -3993.793
 130198569.70337  24775961.834          42.000        -145.423
 196031369.28926  37303529.952          41.000       -1423.318
 196361575.612 7  37366366.931          42.000       -1421.605
 07  8 29  9  2 22.0020000  0  9G19G 3G25G16G11G 8G22S29S37
 108651224.968 8  20675645.505          51.000       -1467.899
 110167206.514 8  20964124.185          49.000       -3015.434
 113899443.87128  21674346.252          49.000        -947.389
 121285753.21328  23079913.431          49.000       -3726.687
 120654942.09527  22959873.452          45.000        1999.838
                  24274597.811          37.000        1910.810
 130198716.77626  24775989.825          41.000        -143.751
 196032790.069 6  37303800.640          41.000       -1422.745
 196362999.279 7  37366637.916          42.000       -1419.746
 07  8 29  9  2 23.0020000  0 10G19G 3G25G27G16G11G 8G22S29S37
 108652692.526 8  20675924.569          51.000       -1467.466
 110170221.685 8  20964697.652          48.000       -3014.444
 113900390.99928  21674526.233          50.000        -947.799
                  22911099.597          32.000         559.912
 121289479.08627  23080623.080          47.000       -3724.596
 120652943.44527  22959493.437          45.000        1997.905
 127562008.97935  24274243.347          34.000        1916.555
                  24776018.251          28.000        -144.936
 196034212.061 6  37304071.572          41.000       -1422.339
 196364423.513 7  37366908.933          42.000       -1425.733
 07  8 29  9  2 24.0020000  0 10G19G 3G25G27G16G11G 8G22S29S37
 108654159.373 8  20676203.913          51.000       -1465.964
 110173234.581 8  20965270.753          48.000       -3012.188
 113901338.71528  21674706.965          50.000        -947.307
 120398179.80136  22911012.015          40.000         560.425
 121293203.46628  23081331.193          48.000       -3723.666
 120650947.06427  22959113.895          46.000        1996.239
 127560092.64626  24273878.533          36.000        1918.420
 130199009.16136  24776047.778          37.000        -142.804
 196035634.692 6  37304342.452          41.000       -1422.312
 196365848.352 7  37367180.162          43.000       -1424.686
 07  8 29  9  2 25.0020000  0 10G19G 3G25G27G16G11G 8G22S29S37
 108655625.476 8  20676482.855          51.000       -1465.660
 110176245.924 8  20965843.854          48.000       -3010.710
 113902286.46028  21674887.348          49.000        -947.631
 120397620.11628  22910907.924          49.000         559.741
 121296926.87727  23082039.079          47.000       -3721.844
 120648951.44327  22958734.265          45.000        1995.670
 127558175.26125  24273514.102          35.000        1916.127
 130199149.83635  24776075.892          33.000        -138.334
 196037056.976 7  37304613.280          43.000       -1421.599
 196367272.752 7  37367451.461          42.000       -1424.216
 07  8 29  9  2 26.0020000  0 11G19G 3G25G27G16G11G 8G13G22S29S37
 108657090.880 8  20676761.535          50.000       -1465.195
 110179255.956 8  20966417.024          48.000       -3009.505
 113903234.08328  21675067.574          48.000        -947.679
 120397059.91328  22910801.513          48.000         560.615
 121300649.21428  23082747.209          48.000       -3722.244
 120646955.96027  22958354.688          45.000        1996.031
 127556256.90226  24273151.680          37.000        1919.308
 131723154.66425  25066083.954          35.000       -3998.735
 130199289.20735  24776104.650          32.000        -137.288
 196038478.880 7  37304884.037          42.000       -1421.644
 196368696.705 6  37367722.392          41.000       -1424.803
 07  8 29  9  2 27.0020000  0 11G19G 3G25G27G16G11G 8G13G22S29S37
 108658555.667 8  20677040.337          51.000       -1463.611
 110182264.699 8  20966989.619          48.000       -3008.069
 113904181.83828  21675247.643          48.000        -947.255
 120396499.21528  22910695.119          48.000         560.920
 121304370.67028  23083456.316          48.000       -3720.728
 120644960.97227  22957974.534          44.000        1994.553
 127554337.68825  24272786.831          35.000        1920.646
 131727153.61226  25066844.712          36.000       -4000.792
                  24776134.421          28.000        -133.796
 196039900.503 6  37305154.760          41.000       -1421.802
 196370120.266 7  37367993.273          42.000       -1423.154
 07  8 29  9  2 28.0020000  0 11G19G 3G25G27G16G11G 8G13G22S29S37
 108660019.754 8  20677318.930          50.000       -1463.769
 110185271.998 8  20967561.567          48.000       -3006.392
 113905129.59928  21675427.659          49.000        -947.983
 120395938.12528  22910588.219          48.000         561.049
 121308091.10128  23084164.988          48.000       -3719.929
 120642966.65127  22957595.149          45.000        1993.149
                  24272421.178          30.000        1917.504
 131731152.92926  25067605.664          38.000       -4001.059
 130199590.35835  24776158.415          34.000        -134.844
 196041321.906 6  37305425.431          41.000       -1421.390
 196371543.641 7  37368264.048          43.000       -1423.271
 07  8 29  9  2 29.0020000  0 11G19G 3G25G27G16G11G 8G13G22S29S37
 108661483.032 8  20677597.680          51.000       -1462.785
 110188277.640 8  20968133.639          48.000       -3004.509
 113906077.35428  21675607.711          48.000        -947.307
 120395376.41228  22910481.948          48.000         562.854
 121311810.31428  23084871.757          48.000       -3718.262
 120640973.05827  22957215.886          45.000        1993.931
 127550502.50635  24272053.713          31.000        1923.299
 131735152.78526  25068367.558          39.000       -4000.855
                  24776184.886          26.000        -136.984
 196042743.203 7  37305696.119          42.000       -1420.463
 196372967.093 7  37368534.910          43.000       -1423.298
 07  8 29  9  2 30.0020000  0 11G19G 3G25G27G16G11G 8G13G22S29S37
 108662945.505 8  20677875.907          51.000       -1462.277
 110191281.788 8  20968705.989          48.000       -3003.762
 113907025.03828  21675787.622          48.000        -947.465
 120394814.08928  22910375.013          48.000         562.539
 121315528.41028  23085578.962          48.000       -3717.691
 120638979.83327  22956836.012          44.000        1993.212
                  24271690.801          24.000        1921.931
 131739152.74726  25069129.313          39.000       -3999.938
                  24776207.556          27.000        -131.035
 196044164.017 7  37305966.597          42.000       -1420.564
 196374390.164 7  37368805.930          44.000       -1421.873
 07  8 29  9  2 31.0020000  0 11G19G 3G25G27G16G11G 8G13G22S29S37
 108664407.411 8  20678154.203          51.000       -1461.113
 110194285.199 8  20969278.060          48.000       -3002.725
 113907972.452 8  21675968.040          48.000        -946.779
 120394251.846 8  22910267.974          49.000         563.539
 121319245.839 8  23086286.534          48.000       -3716.295
 120636986.552 7  22956456.191          45.000        1994.827
                  24271327.298          24.000        1928.876
 131743151.987 6  25069891.313          39.000       -3996.512
                  24776231.846          28.000        -132.888
 196045583.976 7  37306236.989          42.000       -1417.285
 196375812.162 7  37369076.636          43.000       -1420.939
 07  8 29  9  2 32.0020000  0 11G19G 3G25G27G16G11G 8G13G22S29S37
 108665868.601 8  20678432.273          51.000       -1460.599
 110197287.811 8  20969849.502          48.000       -3001.830
 113908919.419 8  21676148.336          48.000        -946.970
 120393688.531 8  22910160.550          48.000         563.690
 121322962.463 8  23086993.879          48.000       -3716.101
 120634991.972 7  22956076.265          45.000        1994.484
                  24270962.342          25.000        1922.906
 131747150.229 6  25070652.560          39.000       -3998.393
                  24776258.579          27.000        -135.069
 196047002.679 7  37306507.275          44.000       -1418.397
 196377233.113 7  37369347.097          45.000       -1420.639
 07  8 29  9  2 33.0020000  0 11G19G 3G25G27G16G11G 8G13G22S29S37
 108667329.312 8  20678710.168          51.000       -1459.937
 110200289.817 8  20970420.857          48.000       -3001.290
 113909866.161 8  21676328.440          48.000        -946.205
 120393124.874 8  22910053.319          49.000         564.317
 121326678.510 8  23087701.084          48.000       -3715.335
 120632996.858 7  22955696.409          44.000        1995.809
                  24270598.716          24.000        1927.246
 131751147.756 6  25071413.547          38.000       -3996.600
                  24776286.780          25.000        -132.622
 196048420.959 7  37306777.248          42.000       -1417.422
 196378653.502 7  37369617.610          45.000       -1420.450
 07  8 29  9  2 34.0020000  0 11G19G 3G25G27G16G11G 8G13G22S29S37
 108668789.411 8  20678988.097          51.000       -1459.530
 110203291.123 8  20970991.881          48.000       -3001.439
 113910812.567 8  21676508.561          48.000        -946.198
 120392560.727 8  22909945.965          49.000         563.846
 121330393.851 8  23088408.219          48.000       -3715.181
 120631001.022 7  22955316.605          44.000        1996.517
                  24270234.213          24.000        1921.490
 131755144.390 6  25072174.708          38.000       -3998.241
                  24776312.869          24.000        -129.171
 196049837.602 7  37307046.889          42.000       -1418.091
 196380073.246 7  37369888.106          43.000       -1420.295
 07  8 29  9  2 35.0020000  0 10G19G 3G25G27G16G11G 8G13S29S37
 108670249.092 8  20679265.870          51.000       -1459.420
 110206291.917 8  20971562.783          48.000       -3000.488
 113911758.824 8  21676688.734          48.000        -946.505
 120391996.322 8  22909838.420          49.000         565.023
 121334108.685 8  23089115.093          48.000       -3714.903
 120629004.707 7  22954936.731          44.000        1996.675
                  24269868.965          23.000        1926.779
 131759140.380 6  25072935.678          37.000       -3995.343
 196051254.179 7  37307316.478          43.000       -1415.442
 196381492.225 7  37370158.445          43.000       -1417.924
 07  8 29  9  2 36.0020000  0  9G19G 3G25G27G16G11G13S29S37
 108671708.106 8  20679543.521          51.000       -1458.333
 110209291.929 8  20972133.492          48.000       -2999.414
 113912704.679 8  21676868.524          48.000        -945.749
 120391431.354 8  22909731.066          48.000         565.263
 121337822.765 8  23089822.368          48.000       -3713.330
 120627007.638 7  22954556.474          44.000        1997.416
 131763135.395 6  25073695.757          37.000       -3994.985
 196052669.748 7  37307585.875          42.000       -1415.030
 196382909.948 7  37370428.680          44.000       -1418.066
 07  8 29  9  2 37.0020000  0 10G19G 3G25G27G16G11G13G22S29S37
 108673166.613 8  20679821.119          51.000       -1457.677
 110212291.363 8  20972704.062          48.000       -2999.036
 113913650.325 8  21677048.471          48.000        -945.415
 120390866.055 8  22909623.573          48.000         566.118
 121341536.256 8  23090528.962          48.000       -3712.938
 120625009.995 7  22954176.129          44.000        1998.568
 131767129.661 6  25074456.222          36.000       -3991.991
                  24776470.933          26.000        -128.082
 196054084.398 6  37307855.290          41.000       -1412.043
 196384326.569 7  37370698.199          43.000       -1415.964
 07  8 29  9  2 38.0020000  0 10G19G 3G25G27G16G11G13G22S29S37
 108674624.597 8  20680098.822          51.000       -1457.863
 110215290.163 8  20973274.527          48.000       -2998.919
 113914595.678 8  21677228.208          48.000        -945.194
 120390300.339 8  22909515.818          48.000         565.472
 121345249.123 8  23091235.505          48.000       -3712.397
 120623011.725 7  22953795.889          44.000        1998.608
 131771123.139 5  25075215.829          35.000       -3993.277
                  24776490.913          25.000        -131.044
 196055498.480 7  37308124.284          43.000       -1414.479
 196385742.392 7  37370967.892          44.000       -1415.785
 07  8 29  9  2 39.0020000  0 10G19G 3G25G27G16G11G13G22S29S37
 108676082.195 8  20680376.368          51.000       -1457.262
 110218288.495 8  20973845.045          48.000       -2997.806
 113915540.949 8  21677408.295          48.000        -944.562
 120389734.407 8  22909408.429          48.000         566.762
 121348961.529 8  23091941.977          48.000       -3711.618
 120621013.019 7  22953415.597          44.000        2000.925
 131775116.016 5  25075975.087          34.000       -3994.887
                  24776513.895          26.000        -129.525
 196056911.443 7  37308393.263          42.000       -1411.803
 196387157.432 7  37371237.289          43.000       -1413.619
 07  8 29  9  2 40.0020000  0 10G19G 3G25G27G16G11G13G22S29S37
 108677539.238 8  20680653.495          51.000       -1456.670
 110221286.176 8  20974415.231          48.000       -2997.345
 113916485.912 8  21677588.084          48.000        -944.685
 120389168.034 8  22909300.605          48.000         566.781
 121352673.289 8  23092648.379          48.000       -3711.245
 120619013.658 7  22953034.764          44.000        2000.021
 131779108.024 5  25076735.081          34.000       -3991.281
                  24776533.860          27.000        -125.786
 196058323.630 7  37308661.909          42.000       -1411.443
 196388571.409 7  37371506.389          43.000       -1413.571
 07  8 29  9  2 41.0020000  0 10G19G 3G25G27G16G11G13G22S29S37
 108678995.718 8  20680930.605          51.000       -1456.185
 110224283.181 8  20974985.714          48.000       -2996.079
 113917430.577 8  21677767.682          48.000        -944.480
 120388601.243 8  22909192.832          48.000         567.374
 121356384.384 8  23093354.607          48.000       -3710.671
 120617013.631 7  22952654.419          44.000        2001.097
 131783099.166 5  25077494.706          34.000       -3990.241
                  24776553.927          26.000        -128.277
 196059734.815 7  37308930.573          42.000       -1410.117
 196389984.522 7  37371775.228          43.000       -1410.855
 07  8 29  9  2 42.0020000  0 10G19G 3G25G27G16G11G13G22S29S37
 108680451.575 8  20681207.627          51.000       -1455.374
 110227279.480 7  20975555.359          47.000       -2995.638
 113918374.900 8  21677947.332          48.000        -944.028
 120388033.984 8  22909084.920          48.000         567.381
 121360094.778 8  23094060.940          48.000       -3710.149
 120615012.926 7  22952273.568          44.000        2000.671
 131787089.47735  25078253.946          33.000       -3995.739
                  24776573.820          24.000        -128.137
 196061145.465 6  37309199.254          41.000       -1409.574
 196391396.995 7  37372044.135          44.000       -1412.621
 07  8 29  9  2 43.0020000  0 10G19G 3G25G27G16G11G13G22S29S37
 108681907.086 8  20681484.545          51.000       -1455.111
 110230275.322 7  20976125.545          47.000       -2995.688
 113919319.147 8  21678126.982          48.000        -944.282
 120387466.499 8  22908976.258          48.000         567.454
 121363804.743 8  23094766.575          48.000       -3709.159
 120613011.807 7  22951892.578          44.000        2002.321
 131791079.19335  25079013.208          33.000       -3988.675
                  24776593.662          26.000        -124.652
 196062555.377 7  37309467.656          43.000       -1409.127
 196392808.808 7  37372312.817          45.000       -1410.574
 07  8 29  9  2 44.0020000  0 10G19G 3G25G27G16G11G13G22S29S37
 108683362.085 8  20681761.497          51.000       -1454.867
 110233270.553 7  20976695.470          47.000       -2994.857
 113920263.157 8  21678306.894          48.000        -943.766
 120386898.645 8  22908868.590          48.000         568.195
 121367514.102 8  23095472.401          48.000       -3708.599
 120611010.067 7  22951511.744          44.000        2001.808
 131795068.11525  25079772.153          32.000       -3987.065
                  24776614.654          26.000        -127.765
 196063964.104 7  37309735.797          43.000       -1406.545
 196394219.711 7  37372581.342          44.000       -1409.215
 07  8 29  9  2 45.0020000  0 10G19G 3G25G27G16G11G13G22S29S37
 108684816.687 8  20682038.153          51.000       -1453.981
 110236265.287 7  20977264.975          47.000       -2994.211
 113921207.023 8  21678486.562          48.000        -943.087
 120386330.532 8  22908760.416          48.000         568.532
 121371222.966 8  23096178.507          48.000       -3708.556
 120609007.869 7  22951130.946          44.000        2003.057
 131799056.36625  25080530.854          32.000       -3986.493
                  24776635.856          28.000        -126.648
 196065372.232 7  37310003.727          43.000       -1407.723
 196395629.882 7  37372849.848          44.000       -1410.251
 07  8 29  9  2 46.0020000  0 10G19G 3G25G27G16G11G13G22S29S37
 108686270.738 8  20682314.774          51.000       -1453.504
 110239259.378 7  20977834.638          47.000       -2993.172
 113922150.608 8  21678666.648          48.000        -943.120
 120385762.000 8  22908652.365          48.000         569.555
 121374931.184 8  23096884.020          48.000       -3707.634
 120607005.021 7  22950749.763          44.000        2002.732
 131803043.74025  25081289.710          33.000       -3990.543
                  24776657.757          28.000        -125.201
 196066779.703 6  37310271.815          41.000       -1406.224
 196397039.254 7  37373118.128          43.000       -1409.478
 07  8 29  9  2 47.0020000  0 10G19G 3G25G27G16G11G13G22S29S37
 108687724.139 8  20682591.605          51.000       -1453.179
 110242252.724 7  20978404.405          47.000       -2992.804
 113923093.814 8  21678846.001          48.000        -943.059
 120385192.962 8  22908544.261          48.000         569.567
 121378638.660 8  23097589.480          48.000       -3706.940
 120605001.451 7  22950368.616          44.000        2003.474
 131807030.31135  25082047.765          33.000       -3989.303
                  24776675.538          28.000        -126.202
 196068185.996 7  37310539.450          42.000       -1405.911
 196398447.596 7  37373386.042          43.000       -1407.642
 07  8 29  9  2 48.0020000  0 10G19G 3G25G27G16G11G13G22S29S37
 108689177.154 8  20682867.947          51.000       -1452.599
 110245245.581 7  20978973.736          47.000       -2993.022
 113924036.892 8  21679025.704          48.000        -942.547
 120384623.664 8  22908436.035          48.000         569.831
 121382345.667 8  23098295.062          48.000       -3706.411
 120602997.408 7  22949987.102          43.000        2004.380
 131811016.17625  25082805.804          33.000       -3984.826
                  24776695.170          28.000        -123.884
 196069591.601 6  37310807.154          41.000       -1405.189
 196399855.277 7  37373654.007          43.000       -1406.963
 07  8 29  9  2 49.0020000  0 10G19G 3G25G27G16G11G13G22S29S37
 108690629.767 8  20683144.323          51.000       -1452.530
 110248238.041 7  20979543.503          47.000       -2992.251
 113924979.784 8  21679205.197          48.000        -942.686
 120384054.102 8  22908327.913          48.000         570.231
 121386052.205 8  23099000.522          48.000       -3706.431
 120600992.704 7  22949605.885          44.000        2005.970
 131815001.28725  25083563.895          34.000       -3982.820
                  24776714.453          29.000        -123.523
 196070996.291 7  37311074.666          43.000       -1404.626
 196401262.446 7  37373921.764          44.000       -1407.175
 07  8 29  9  2 50.0020000  0 10G19G 3G25G27G16G11G13G22S29S37
 108692082.204 8  20683420.403          51.000       -1452.103
 110251230.870 8  20980112.869          48.000       -2992.526
 113925922.212 8  21679384.359          48.000        -941.728
 120383484.364 7  22908219.408          47.000         570.495
 121389758.727 8  23099706.401          48.000       -3706.469
 120598986.292 7  22949225.105          45.000        2007.161
 131818984.41425  25084321.549          34.000       -3980.442
                  24776733.577          29.000        -127.284
 196072399.356 7  37311341.986          43.000       -1402.419
 196402668.161 7  37374189.276          44.000       -1404.662
 07  8 29  9  2 51.0020000  0 10G19G 3G25G27G16G11G13G22S29S37
 108693534.316 8  20683697.024          51.000       -1451.223
 110254223.798 8  20980683.159          48.000       -2992.141
 113926864.267 8  21679564.061          49.000        -941.586
 120382914.467 8  22908111.566          48.000         570.731
 121393465.029 8  23100411.303          48.000       -3706.116
 120596978.459 7  22948843.155          44.000        2008.966
 131822966.58935  25085079.342          34.000       -3981.177
                  24776754.484          27.000        -123.899
 196073801.721 7  37311608.800          42.000       -1402.070
 196404072.647 7  37374456.475          43.000       -1402.201
 07  8 29  9  2 52.0020000  0 10G19G 3G25G27G16G11G13G22S29S37
 108694986.059 8  20683973.087          50.000       -1451.383
 110257216.638 8  20981252.630          48.000       -2992.833
 113927805.985 8  21679743.414          50.000        -941.159
 120382344.205 8  22908002.746          48.000         570.608
 121397170.973 8  23101115.943          48.000       -3705.587
 120594969.359 7  22948461.222          45.000        2010.092
 131826946.86935  25085837.153          34.000       -3980.228
                  24776774.481          33.000        -125.310
 196075202.181 6  37311875.494          41.000       -1398.249
 196405475.855 7  37374723.464          43.000       -1400.819
 07  8 29  9  2 53.0020000  0 10G19G 3G25G27G16G11G13G22S29S37
 108696437.642 8  20684249.254          50.000       -1451.326
 110260210.392 7  20981821.977          47.000       -2994.816
 113928746.921 8  21679922.227          49.000        -940.159
 120381773.845 7  22907894.171          45.000         570.100
 121400877.176 8  23101821.647          48.000       -3706.249
 120592957.566 7  22948078.541          44.000        2014.858
 131830926.38035  25086597.321          34.000       -3977.849
                  24776797.393          26.000        -125.595
 196076601.192 6  37312141.697          41.000       -1397.299
 196406877.031 7  37374990.034          42.000       -1399.659
 07  8 29  9  2 54.0020000  0 10G19G 3G25G27G16G11G13G22S29S37
 108697889.264 8  20684525.613          50.000       -1451.445
 110263207.352 7  20982392.231          47.000       -2998.418
 113929685.659 8  21680101.041          48.000        -937.396
 120381203.071 7  22907785.665          46.000         570.882
 121404584.546 8  23102527.490          48.000       -3707.112
 120590938.798 7  22947694.516          44.000        2021.381
                  25087352.344          32.000       -3965.622
                  24776819.935          32.000        -134.619
 196077995.983 6  37312407.204          40.000       -1392.487
 196408273.899 7  37375255.750          42.000       -1395.617
 07  8 29  9  2 55.0020000  0 10G19G 3G25G27G16G11G13G22S29S37
 108699341.101 8  20684801.501          51.000       -1451.988
 110266207.138 8  20982963.097          49.000       -3001.108
 113930622.986 8  21680279.155          49.000        -937.561
 120380632.369 8  22907677.195          48.000         570.758
 121408293.151 8  23103233.246          49.000       -3709.743
 120588914.677 7  22947309.166          45.000        2027.866
 131838879.26736  25088104.606          36.000       -3963.696
                  24776843.058          32.000        -131.804
 196079386.864 7  37312671.873          43.000       -1388.081
 196409667.462 7  37375521.029          44.000       -1393.630
 07  8 29  9  2 56.0020000  0 10G19G 3G25G27G16G11G13G22S29S37
 108700793.048 8  20685077.895          51.000       -1451.529
 110269209.029 8  20983534.346          48.000       -3002.897
 113931559.053 8  21680457.462          49.000        -935.346
 120380061.480 8  22907568.480          48.000         570.965
 121412002.642 8  23103939.037          48.000       -3709.535
 120586886.226 7  22946923.151          44.000        2031.808
                  25088858.212          32.000       -3960.637
                  24776864.445          32.000        -105.346
 196080774.913 7  37312936.140          43.000       -1385.872
 196411058.711 7  37375785.803          44.000       -1389.129
 07  8 29  9  2 57.0020000  0 10G19G 3G25G27G16G11G13G22S29S37
 108702244.785 8  20685354.376          51.000       -1451.663
 110272212.439 8  20984105.998          48.000       -3003.868
 113932493.836 8  21680635.053          49.000        -934.061
 120379490.205 8  22907459.696          48.000         571.717
 121415712.816 7  23104645.038          47.000       -3708.935
 120584853.924 7  22946536.525          45.000        2034.130
 131846788.64836  25089609.795          36.000       -3955.610
                  24776884.466          35.000        -134.476
 196082160.296 7  37313199.832          43.000       -1382.133
 196412447.774 7  37376050.156          42.000       -1388.400
 07  8 29  9  2 58.0020000  0 11G19G 3G25G27G16G11G 8G13G22S29S37
 108703696.589 8  20685630.613          50.000       -1451.224
 110275217.387 8  20984677.789          48.000       -3005.210
 113933427.732 8  21680813.081          49.000        -933.524
 120378918.803 8  22907350.998          48.000         571.789
 121419423.60237  23105351.195          44.000       -3711.669
 120582818.400 7  22946149.340          45.000        2036.237
 127494285.61327  24261355.946          43.000        1926.087
 131850741.82127  25090361.361          42.000       -3948.825
 130203528.94036  24776907.865          37.000        -138.557
 196083543.420 7  37313462.858          42.000       -1382.814
 196413834.50836  37376314.336          41.000       -1386.249
 07  8 29  9  2 59.0020000  0 11G19G 3G25G27G16G11G 8G13G22S29S37
 108705148.304 8  20685906.728          50.000       -1451.570
 110278223.529 8  20985249.806          48.000       -3006.508
 113934360.763 8  21680990.986          49.000        -932.124
 120378347.203 7  22907241.987          46.000         571.465
 121423134.86227  23106057.091          47.000       -3711.882
 120580779.908 7  22945760.987          44.000        2039.519
 127492358.15427  24260991.656          43.000        1928.433
 131854691.70027  25091112.401          43.000       -3947.584
 130203671.72237  24776928.071          42.000        -144.503
 196084924.705 6  37313725.659          41.000       -1380.994
 196415220.325 6  37376578.009          40.000       -1384.888
 07  8 29  9  3  0.0020000  0 11G19G 3G25G27G16G11G 8G13G22S29S37
 108706599.832 8  20686182.738          50.000       -1450.342
 110281230.801 8  20985822.016          48.000       -3008.310
 113935292.847 8  21681167.967          49.000        -931.254
 120377775.179 8  22907133.429          48.000         572.889
 121426846.78237  23106763.686          43.000       -3711.595
 120578738.594 7  22945372.704          45.000        2043.332
 127490431.96936  24260625.203          38.000        1933.028
 131858638.47236  25091863.181          39.000       -3945.075
                  24776953.288          33.000        -139.389
 196086303.83036  37313988.600          41.000       -1377.994
 196416603.63837  37376841.351          42.000       -1382.859
 07  8 29  9  3  1.0020000  0 11G19G 3G25G27G16G11G 8G13G22S29S37
 108708051.515 8  20686459.219          50.000       -1451.748
 110284239.142 8  20986394.417          48.000       -3009.293
 113936224.545 8  21681344.999          49.000        -931.322
 120377203.535 8  22907024.941          48.000         571.943
 121430558.41627  23107469.879          47.000       -3710.385
 120576694.532 7  22944983.879          45.000        2046.690
 127488505.63927  24260258.065          44.000        1925.689
 131862583.12636  25092614.432          36.000       -3940.048
 130203908.23135  24776979.982          32.000        -152.763
 196087681.14926  37314250.565          41.000       -1374.201
 196417985.11026  37377104.064          40.000       -1382.607
 07  8 29  9  3  2.0020000  0 11G19G 3G25G27G16G11G 8G13G22S29S37
 108709503.043 8  20686735.421          51.000       -1450.891
 110287248.579 8  20986967.046          48.000       -3010.184
 113937155.401 8  21681522.206          49.000        -931.861
 120376631.748 8  22906916.331          48.000         571.583
 121434270.29227  23108175.914          47.000       -3712.190
 120574647.331 7  22944594.356          45.000        2048.983
                  24259892.168          33.000        1923.618
 131866524.03726  25093363.656          41.000       -3943.032
 130204049.75835  24777007.731          34.000        -145.305
 196089055.978 7  37314512.231          42.000       -1373.301
 196419364.197 7  37377366.395          42.000       -1378.063
 07  8 29  9  3  3.0020000  0 11G19G 3G25G27G16G11G 8G13G22S29S37
 108710954.664 8  20687011.798          51.000       -1450.838
 110290259.255 8  20987539.901          48.000       -3010.808
 113938085.562 8  21681699.136          50.000        -926.744
 120376060.038 7  22906807.443          47.000         575.080
 121437982.44428  23108882.421          48.000       -3712.779
 120572597.320 7  22944204.240          44.000        2052.054
 127484668.86836  24259525.923          39.000        1924.390
 131870462.41427  25094112.814          44.000       -3935.525
 130204197.36936  24777040.866          37.000        -152.462
 196090428.631 7  37314773.548          43.000       -1372.161
 196420741.345 7  37377628.480          43.000       -1377.621
 07  8 29  9  3  4.0020000  0 11G19G 3G25G27G16G11G 8G13G22S29S37
 108712405.824 8  20687287.738          50.000       -1452.227
 110293270.691 8  20988113.140          48.000       -3012.202
 113939014.628 8  21681875.661          50.000        -929.506
 120375487.722 8  22906698.238          48.000         571.532
 121441694.96027  23109588.840          46.000       -3715.527
 120570544.527 7  22943813.410          43.000        2058.849
                  24259159.189          41.000        1924.054
 131874397.66236  25094862.580          36.000       -3934.625
 130204344.67536  24777070.794          39.000        -149.491
 196091799.538 6  37315034.449          41.000       -1366.747
 196422116.631 6  37377890.182          40.000       -1374.262
 07  8 29  9  3  5.0020000  0 11G19G 3G25G27G16G11G 8G13G22S29S37
 108713857.401 8  20687563.941          51.000       -1450.375
 110296283.108 7  20988685.822          46.000       -3011.301
 113939943.704 8  21682052.659          50.000        -928.310
 120374915.737 7  22906589.175          47.000         572.792
 121445407.62937  23110295.155          47.000       -3713.744
 120568490.159 7  22943422.367          45.000        2054.734
                  24258793.295          40.000        1928.331
                  25095613.618          30.000       -3941.533
 130204494.41937  24777094.422          42.000        -149.551
 196093168.97436  37315295.223          41.000       -1370.274
 196423490.85437  37378151.657          42.000       -1373.498
 07  8 29  9  3  6.0020000  0 11G19G 3G25G27G16G11G 8G13G22S29S37
 108715308.241 8  20687840.404          50.000       -1450.515
 110299294.67838  20989259.532          48.000       -3012.650
 113940871.976 8  21682229.535          49.000        -927.867
 120374342.53538  22906479.919          48.000         572.908
                  23111002.188          33.000       -3708.058
 120566434.111 7  22943030.802          44.000        2056.432
 127478899.27237  24258428.059          43.000        1919.585
                  25096368.000          31.000       -3961.979
                  24777122.499          32.000        -149.931
 196094536.91226  37315555.617          41.000       -1366.691
 196424863.975 7  37378412.975          42.000       -1371.490
 07  8 29  9  3  7.0020000  0 11G19G 3G25G27G16G11G 8G13G22S29S37
 108716758.904 8  20688116.449          50.000       -1450.529
 110302307.22728  20989832.702          48.000       -3012.793
 113941799.813 8  21682406.305          48.000        -927.643
 120373769.87228  22906371.483          48.000         573.267
 121452850.48935  23111709.180          33.000       -3718.294
 120564376.217 7  22942639.325          43.000        2059.042
                  24258061.850          41.000        1924.614
                  25097128.817          32.000       -3995.243
                  24777154.325          29.000        -157.656
 196095903.39537  37315815.642          42.000       -1367.728
 196426235.532 7  37378673.995          43.000       -1371.696
 07  8 29  9  3  8.0020000  0 11G19G 3G25G27G16G11G 8G13G22S29S37
 108718209.353 8  20688392.547          51.000       -1450.222
 110305320.18428  20990406.011          48.000       -3013.175
 113942727.110 8  21682582.762          50.000        -927.333
 120373196.81228  22906262.350          48.000         574.598
 121456562.45836  23112414.399          40.000       -3708.679
 120562316.737 7  22942247.428          44.000        2060.115
                  24257695.364          30.000        1933.491
                  25097897.606          28.000       -4034.973
                  24777184.603          29.000        -151.765
 196097268.535 6  37316075.424          40.000       -1365.445
 196427605.849 6  37378934.876          41.000       -1371.250
 07  8 29  9  3  9.0020000  0 10G19G 3G25G27G16G11G 8G22S29S37
 108719659.625 8  20688668.313          51.000       -1449.785
 110308333.36128  20990979.373          48.000       -3012.893
 113943654.076 8  21682759.359          49.000        -924.802
 120372623.59328  22906153.600          48.000         573.788
 121460274.17737  23113119.874          47.000       -3715.144
 120560255.891 7  22941855.357          46.000        2061.233
                  24257328.280          36.000        1930.655
                  24777212.736          31.000        -145.366
 196098632.19337  37316334.893          42.000       -1362.587
 196428975.07637  37379195.391          42.000       -1369.005
 07  8 29  9  3 10.0020000  0 10G19G 3G25G27G16G11G 8G22S29S37
 108721109.545 8  20688944.271          51.000       -1449.311
 110311346.57728  20991552.631          48.000       -3012.019
 113944580.663 8  21682935.170          49.000        -925.954
 120372050.18128  22906044.501          49.000         573.428
 121463986.18638  23113825.528          48.000       -3709.776
 120558193.723 7  22941462.868          45.000        2063.579
                  24256963.463          38.000        1923.471
                  24777240.566          37.000        -152.232
 196099995.22227  37316594.361          42.000       -1360.856
 196430343.416 7  37379455.819          43.000       -1366.970
 07  8 29  9  3 11.0020000  0 10G19G 3G25G27G16G11G 8G22S29S37
 108722559.398 8  20689220.002          51.000       -1449.251
 110314359.64928  20992126.237          49.000       -3012.475
 113945507.277 8  21683111.696          49.000        -926.668
 120371476.97828  22905935.472          48.000         574.057
 121467697.47328  23114532.314          48.000       -3710.775
 120556130.541 7  22941070.308          46.000        2063.274
 127469266.08337  24256594.969          42.000        1928.246
                  24777270.004          43.000        -153.320
 196101356.886 7  37316853.584          42.000       -1359.137
 196431710.379 7  37379715.827          43.000       -1366.570
 07  8 29  9  3 12.0020000  0 11G19G 3G25G27G16G11G 8G13G22S29S37
 108724008.800 8  20689495.802          51.000       -1450.599
 110317371.93428  20992699.547          48.000       -3010.056
 113946433.940 8  21683287.891          49.000        -927.301
 120370903.48928  22905826.148          48.000         576.740
 121471408.13727  23115238.978          47.000       -3708.642
 120554067.552 7  22940677.834          45.000        2060.885
 127467340.90635  24256230.032          31.000        1927.648
                  25100851.360          31.000       -3922.895
 130205554.92537  24777293.388          44.000        -151.342
                  37317112.755          38.000       -1359.901
 196433076.906 7  37379975.851          42.000       -1371.770
 07  8 29  9  3 13.0020000  0 11G19G 3G25G27G16G11G 8G13G22S29S37
 108725457.712 8  20689771.795          52.000       -1449.191
 110320383.683 8  20993272.543          48.000       -3008.576
 113947360.753 8  21683464.243          49.000        -925.397
 120370329.71837  22905716.507          47.000         574.544
 121475116.35235  23115945.311          35.000       -3709.692
 120552005.037 7  22940285.292          45.000        2061.730
                  24255864.572          38.000        1926.807
                  25101593.358          31.000       -3928.993
 130205704.58937  24777318.780          43.000        -147.457
 196104111.85037  37317371.854          43.000       -1362.803
 196434443.42317  37380235.913          44.000       -1366.434
 07  8 29  9  3 14.0020000  0 10G19G 3G25G27G16G11G 8G22S29S37
 108726905.957 8  20690047.038          51.000       -1447.816
 110323393.395 8  20993845.207          48.000       -3008.333
 113948287.548 8  21683640.699          49.000        -927.629
 120369755.21628  22905607.531          49.000         574.198
 121478825.96737  23116651.469          46.000       -3707.327
 120549943.480 7  22939893.010          45.000        2061.165
                  24255499.252          34.000        1927.144
                  24777349.944          30.000        -152.596
 196105473.420 7  37317631.060          44.000       -1361.516
 196435810.199 7  37380495.956          42.000       -1367.792
 07  8 29  9  3 15.0020000  0 11G19G 3G25G27G16G11G 8G13G22S29S37
 108728353.607 8  20690322.542          51.000       -1447.441
 110326401.008 8  20994417.487          48.000       -3006.795
 113949215.115 8  21683817.138          50.000        -928.968
 120369180.41528  22905498.100          48.000         574.215
 121482534.11928  23117355.254          49.000       -3708.801
 120547884.524 7  22939500.937          45.000        2057.140
                  24255131.191          38.000        1925.061
                  25103077.116          32.000       -3927.333
                  24777377.748          33.000        -137.043
 196106835.805 7  37317890.405          42.000       -1362.346
 196437177.982 7  37380756.209          44.000       -1367.400
 07  8 29  9  3 16.0020000  0 11G19G 3G25G27G16G11G 8G13G22S29S37
 108729800.436 8  20690597.977          51.000       -1446.192
 110329405.857 8  20994989.053          48.000       -3004.013
 113950143.547 8  21683993.734          50.000        -928.893
 120368605.25728  22905388.408          48.000         574.992
                  23118060.786          39.000       -3702.013
 120545828.514 7  22939109.737          45.000        2053.590
                  24254763.987          36.000        1928.606
                  25103826.566          30.000       -3932.964
 130206132.22036  24777403.257          36.000        -144.442
 196108199.562 7  37318149.855          42.000       -1363.951
 196438546.471 7  37381016.617          43.000       -1370.317
 07  8 29  9  3 17.0020000  0 10G19G 3G25G27G16G11G 8G22S29S37
 108731246.864 8  20690873.167          51.000       -1445.994
 110332409.157 8  20995560.495          48.000       -3003.736
 113951072.519 8  21684170.713          50.000        -929.880
 120368030.01628  22905279.240          48.000         575.283
 121489934.08437  23118765.861          47.000       -3704.063
 120543773.843 7  22938718.887          45.000        2053.995
 127457716.41036  24254397.097          40.000        1930.375
                  24777431.496          33.000        -134.716
 196109563.187 7  37318409.391          42.000       -1364.432
 196439915.037 7  37381276.958          42.000       -1368.729
 07  8 29  9  3 18.0020000  0 11G19G 3G25G27G16G11G 8G13G22S29S37
 108732692.900 8  20691148.374          51.000       -1445.963
 110335411.361 8  20996132.008          48.000       -3001.336
 113952001.887 8  21684347.746          49.000        -929.237
 120367454.73727  22905170.002          47.000         575.963
 121493638.59128  23119470.292          48.000       -3703.608
 120541719.888 7  22938327.898          45.000        2054.038
 127455784.85727  24254028.723          42.000        1931.053
 131929360.89236  25105322.696          40.000       -3930.904
                  24777453.806          36.000        -111.594
 196110926.762 7  37318668.772          42.000       -1362.800
 196441283.338 7  37381537.315          43.000       -1367.701
 07  8 29  9  3 19.0020000  0 11G19G 3G25G27G16G11G 8G13G22S29S37
 108734138.418 8  20691423.390          51.000       -1445.650
 110338412.332 8  20996703.555          48.000       -3000.755
 113952931.432 8  21684524.639          49.000        -929.124
 120366879.16028  22905060.293          48.000         576.802
 121497342.08328  23120176.153          49.000       -3702.969
 120539666.357 7  22937937.117          44.000        2052.667
                  24253661.659          33.000        1934.540
                  25106072.913          33.000       -3939.026
 130206528.04437  24777478.487          44.000        -140.386
 196112290.073 7  37318928.362          43.000       -1362.187
 196442651.144 7  37381797.742          43.000       -1368.237
 07  8 29  9  3 20.0020000  0 11G19G 3G25G27G16G11G 8G13G22S29S37
 108735583.452 8  20691698.301          50.000       -1445.155
 110341411.908 8  20997274.004          48.000       -2999.263
 113953861.246 8  21684701.078          48.000        -929.473
 120366303.38427  22904950.688          47.000         576.345
 121501044.49628  23120881.579          48.000       -3702.510
 120537613.729 7  22937546.825          44.000        2050.889
 127451913.07036  24253292.726          37.000        1931.276
                  25106823.183          31.000       -3944.600
 130206666.69936  24777505.502          36.000        -135.179
                  37319188.540          29.000       -1373.210
                  37382058.916          29.000       -1378.642
 07  8 29  9  3 21.0020000  0 11G19G 3G25G27G16G11G 8G13G22S29S37
 108737027.500 8  20691973.142          50.000       -1443.371
 110344408.676 8  20997844.401          48.000       -2994.809
 113954791.655 8  21684878.668          49.000        -930.919
 120365727.03628  22904841.188          48.000         577.001
 121504745.25737  23121585.801          47.000       -3698.734
 120535563.900 7  22937156.637          45.000        2047.409
 127449975.62436  24252923.760          36.000        1936.392
                  25107572.970          35.000       -3935.785
                  24777533.703          33.000        -131.859
 196115021.41336  37319447.836          39.000       -1365.165
 196445408.36337  37382318.333          42.000       -1371.186
 07  8 29  9  3 22.0020000  0 11G19G 3G25G27G16G11G 8G13G22S29S37
 108738470.842 8  20692247.861          50.000       -1442.803
 110347402.739 7  20998413.732          47.000       -2992.659
 113955723.155 8  21685055.980          49.000        -930.962
 120365150.49528  22904731.478          48.000         575.912
                  23122290.163          32.000       -3695.819
 120533517.260 7  22936766.972          44.000        2045.264
 127448038.13036  24252553.728          41.000        1936.465
                  25108322.000          33.000       -3942.874
                  24777558.973          31.000        -124.607
 196116387.04836  37319707.286          41.000       -1366.184
 196446777.71137  37382578.500          43.000       -1366.922
 07  8 29  9  3 23.0020000  0 11G19G 3G25G27G16G11G 8G13G22S29S37
 108739913.309 8  20692522.039          50.000       -1441.855
 110350393.348 7  20998982.925          47.000       -2987.886
 113956655.812 8  21685232.506          48.000        -932.288
 120364573.44228  22904621.822          48.000         578.708
                  23122994.541          29.000       -3695.141
 120531474.680 7  22936378.337          43.000        2041.244
 127446099.69227  24252184.676          44.000        1941.785
                  25109073.262          29.000       -3954.021
                  24777584.033          31.000        -122.243
 196117754.83826  37319967.502          41.000       -1368.184
 196448148.772 7  37382839.257          43.000       -1371.826
 07  8 29  9  3 24.0020000  0 11G19G 3G25G27G16G11G 8G13G22S29S37
 108741354.724 8  20692795.921          50.000       -1441.275
 110353380.057 7  20999551.350          47.000       -2985.233
 113957589.840 8  21685410.254          49.000        -933.009
 120363995.90928  22904511.588          48.000         577.342
                  23123698.222          29.000       -3691.267
 120529437.025 7  22935990.539          45.000        2035.554
 127444158.77027  24251817.104          46.000        1941.165
                  25109824.252          35.000       -3948.205
                  24777610.492          28.000        -110.892
 196119124.984 6  37320228.278          41.000       -1370.550
 196449521.827 7  37383100.661          43.000       -1373.735
 07  8 29  9  3 25.0020000  0 11G19G 3G25G27G16G11G 8G13G22S29S37
 108742795.197 8  20693070.326          51.000       -1439.495
 110356362.706 8  21000118.937          48.000       -2980.494
 113958525.411 8  21685588.751          49.000        -936.244
 120363418.508 8  22904401.512          48.000         577.615
                  23124401.622          32.000       -3694.688
 120527404.745 7  22935604.050          43.000        2031.880
 127442215.51727  24251449.202          47.000        1944.289
                  25110574.365          34.000       -3954.509
                  24777635.673          30.000        -108.693
 196120497.334 7  37320489.611          43.000       -1373.431
 196450897.229 7  37383362.273          43.000       -1376.259
 07  8 29  9  3 26.0020000  0 11G19G 3G25G27G16G11G 8G13G22S29S37
 108744234.623 8  20693344.312          51.000       -1438.889
 110359341.290 8  21000685.564          48.000       -2978.714
 113959462.480 8  21685767.440          49.000        -937.638
 120362840.182 8  22904291.489          48.000         578.615
 121523229.31936  23125101.639          40.000       -3690.320
 120525377.506 7  22935218.310          44.000        2025.348
 127440270.04527  24251079.886          43.000        1945.613
 131960920.84835  25111328.299          35.000       -3961.785
                  24777661.499          26.000        -109.924
 196121872.461 7  37320751.381          43.000       -1376.100
 196452274.883 7  37383624.479          44.000       -1379.668
 07  8 29  9  3 27.0020000  0 11G19G 3G25G27G16G11G 8G13G22S29S37
 108745673.437 8  20693618.542          51.000       -1438.676
 110362317.319 8  21001252.121          48.000       -2975.226
 113960400.607 8  21685946.218          50.000        -938.369
 120362261.647 8  22904181.099          48.000         578.444
 121526918.76027  23125803.976          44.000       -3688.835
 120523353.489 7  22934833.305          44.000        2023.059
 127438323.21236  24250708.739          37.000        1949.391
 131964881.77735  25112084.051          35.000       -3959.659
 130207610.84835  24777684.671          33.000        -114.966
 196123248.766 7  37321013.308          43.000       -1377.316
 196453653.871 7  37383886.826          42.000       -1378.694
 07  8 29  9  3 28.0020000  0 11G19G 3G25G27G16G11G 8G13G22S29S37
 108747111.707 8  20693891.831          51.000       -1437.867
 110365291.590 7  21001817.666          47.000       -2973.319
 113961339.312 8  21686125.047          50.000        -938.504
 120361682.936 7  22904071.181          47.000         579.850
 121530607.26427  23126506.923          44.000       -3688.258
 120521331.180 7  22934448.720          44.000        2023.008
 127436375.21726  24250336.526          38.000        1949.047
 131968841.89125  25112836.766          32.000       -3959.773
                  24777704.950          27.000        -110.407
 196124625.947 7  37321275.218          42.000       -1377.454
 196455033.118 7  37384149.278          43.000       -1377.707
 07  8 29  9  3 29.0020000  0 11G19G 3G25G27G16G11G 8G13G22S29S37
 108748549.447 8  20694165.328          50.000       -1438.111
 110368265.089 7  21002383.228          47.000       -2973.106
 113962277.890 8  21686303.633          50.000        -938.509
 120361103.856 7  22903961.244          47.000         579.727
 121534295.10127  23127208.946          43.000       -3687.203
 120519308.579 7  22934063.646          44.000        2022.940
 127434426.66126  24249964.958          38.000        1948.763
 131972801.40425  25113589.622          32.000       -3957.561
                  24777726.082          27.000        -110.635
 196126002.852 7  37321537.338          42.000       -1376.868
 196456411.731 7  37384411.798          43.000       -1379.101
 07  8 29  9  3 30.0020000  0 11G19G 3G25G27G16G11G 8G13G22S29S37
 108749986.643 8  20694438.668          50.000       -1436.624
 110371237.950 7  21002948.633          47.000       -2972.400
 113963216.182 8  21686482.184          50.000        -938.352
 120360524.346 7  22903851.098          47.000         579.536
 121537982.30027  23127911.056          43.000       -3686.903
 120517285.377 7  22933678.485          44.000        2023.670
 127432477.54226  24249593.391          38.000        1948.757
 131976760.08525  25114342.215          32.000       -3957.849
                  24777745.016          27.000        -108.139
 196127378.562 7  37321799.232          42.000       -1374.526
 196457789.353 7  37384673.918          43.000       -1377.939
 07  8 29  9  3 31.0020000  0 11G19G 3G25G27G16G11G 8G13G22S29S37
 108751423.441 8  20694712.114          50.000       -1435.920
 110374210.332 7  21003514.177          47.000       -2972.160
 113964154.352 8  21686660.699          50.000        -937.975
 120359944.599 7  22903740.639          47.000         580.084
 121541669.01427  23128612.904          43.000       -3685.937
 120515261.686 7  22933293.673          44.000        2023.945
 127430528.02126  24249221.998          38.000        1950.248
 131980718.11635  25115094.808          32.000       -3958.156
                  24777764.803          27.000        -113.501
 196128753.546 7  37322060.776          44.000       -1373.680
 196459166.429 7  37384936.090          44.000       -1377.572
 07  8 29  9  3 32.0020000  0 11G19G 3G25G27G16G11G 8G13G22S29S37
 108752859.799 8  20694985.471          50.000       -1435.816
 110377182.174 7  21004079.407          47.000       -2971.174
 113965092.352 8  21686839.058          50.000        -937.272
 120359364.549 7  22903630.458          47.000         580.086
 121545355.19927  23129314.141          44.000       -3685.583
 120513237.471 7  22932908.407          44.000        2023.989
 127428578.05426  24248850.972          38.000        1950.577
 131984675.46435  25115847.365          33.000       -3960.226
                  24777786.129          27.000        -109.056
 196130127.857 7  37322322.320          42.000       -1373.613
 196460542.822 7  37385197.774          44.000       -1377.282
 07  8 29  9  3 33.0020000  0 11G19G 3G25G27G16G11G 8G13G22S29S37
 108754295.810 8  20695258.899          51.000       -1435.576
 110380153.564 7  21004644.742          47.000       -2971.541
 113966030.270 8  21687017.713          50.000        -937.974
 120358784.301 7  22903519.824          47.000         580.201
 121549040.94927  23130015.814          43.000       -3685.052
 120511212.848 7  22932522.932          44.000        2024.273
 127426627.70126  24248480.207          39.000        1950.484
 131988632.23425  25116600.187          33.000       -3953.974
                  24777808.814          27.000        -109.503
 196131501.474 6  37322583.638          41.000       -1370.453
 196461918.428 7  37385459.406          42.000       -1374.178
 07  8 29  9  3 34.0020000  0 11G19G 3G25G27G16G11G 8G13G22S29S37
 108755731.463 8  20695532.170          51.000       -1434.906
 110383124.502 7  21005209.902          47.000       -2970.879
 113966968.110 8  21687196.125          50.000        -937.295
 120358203.832 7  22903409.155          47.000         580.822
 121552726.24727  23130717.156          44.000       -3684.479
 120509187.801 7  22932137.335          44.000        2025.732
 127424676.96926  24248108.972          39.000        1951.705
 131992588.29925  25117353.057          34.000       -3960.961
                  24777827.748          26.000        -108.355
 196132874.000 7  37322844.745          42.000       -1372.195
 196463292.948 7  37385720.915          43.000       -1374.274
 07  8 29  9  3 35.0020000  0 11G19G 3G25G27G16G11G 8G13G22S29S37
 108757166.626 8  20695805.265          51.000       -1434.995
 110386094.857 7  21005775.167          47.000       -2970.271
 113967905.730 8  21687374.326          50.000        -937.869
 120357623.011 7  22903298.887          47.000         580.720
 121556410.97827  23131418.428          44.000       -3684.811
 120507162.181 7  22931751.755          44.000        2025.912
 127422725.76226  24247737.631          39.000        1951.277
 131996543.66425  25118105.932          34.000       -3953.327
                  24777851.131          24.000        -108.250
 196134245.722 7  37323105.958          42.000       -1370.687
 196464666.725 7  37385982.355          43.000       -1372.910
 07  8 29  9  3 36.0020000  0 11G19G 3G25G27G16G11G 8G13G22S29S37
 108758601.513 8  20696078.100          50.000       -1434.851
 110389064.831 7  21006340.206          47.000       -2969.910
 113968843.344 8  21687552.807          50.000        -937.566
 120357042.069 7  22903188.410          47.000         581.095
 121560095.34627  23132119.683          44.000       -3684.133
 120505136.209 7  22931366.140          44.000        2025.911
 127420774.24726  24247365.959          39.000        1951.314
 132000498.43535  25118858.891          34.000       -3954.071
                  24777871.163          25.000        -109.781
 196135617.213 7  37323367.031          42.000       -1369.598
 196466040.083 7  37386243.620          43.000       -1372.685
 07  8 29  9  3 37.0020000  0 11G19G 3G25G27G16G11G 8G13G22S29S37
 108760036.031 8  20696351.318          50.000       -1434.358
 110392034.332 7  21006905.191          46.000       -2969.657
 113969780.859 8  21687731.131          50.000        -937.455
 120356460.896 7  22903077.636          47.000         581.349
 121563779.756 7  23132820.327          43.000       -3684.034
 120503109.807 7  22930980.473          44.000        2027.165
 127418822.869 6  24246994.636          38.000        1951.618
 132004452.62725  25119611.990          34.000       -3954.168
                  24777889.661          25.000        -108.212
 196136988.015 7  37323627.772          43.000       -1369.981
 196467412.659 7  37386504.675          43.000       -1371.663
 07  8 29  9  3 38.0020000  0 11G19G 3G25G27G16G11G 8G13G22S29S37
 108761470.296 8  20696623.960          50.000       -1434.356
 110395003.491 7  21007469.951          46.000       -2968.643
 113970718.396 8  21687909.524          49.000        -937.592
 120355879.628 7  22902967.019          47.000         581.311
 121567463.330 7  23133520.918          43.000       -3682.529
 120501083.080 7  22930594.631          43.000        2026.792
 127416870.720 6  24246623.156          38.000        1953.456
 132008406.29525  25120365.124          35.000       -3953.428
                  24777907.248          24.000        -115.384
 196138357.952 6  37323888.287          41.000       -1368.419
 196468784.706 7  37386765.731          43.000       -1370.006
 07  8 29  9  3 39.0020000  0 11G19G 3G25G27G16G11G 8G13G22S29S37
 108762904.246 8  20696896.672          50.000       -1433.463
 110397972.210 7  21008035.111          47.000       -2968.089
 113971655.884 8  21688087.621          50.000        -937.354
 120355298.163 7  22902856.472          47.000         581.268
 121571146.491 7  23134221.614          42.000       -3682.836
 120499055.940 7  22930208.877          44.000        2027.666
 127414918.242 6  24246252.391          39.000        1953.418
 132012359.34125  25121117.822          35.000       -3953.783
                  24777924.665          24.000        -111.494
 196139727.218 7  37324148.923          43.000       -1369.034
 196470155.855 7  37387026.438          44.000       -1369.525
 07  8 29  9  3 40.0020000  0 11G19G 3G25G27G16G11G 8G13G22S29S37
 108764337.971 8  20697169.733          50.000       -1433.400
 110400940.626 7  21008600.027          47.000       -2968.227
 113972593.427 8  21688265.945          49.000        -937.515
 120354716.642 7  22902745.802          47.000         581.373
 121574829.327 7  23134921.682          43.000       -3683.000
 120497028.508 7  22929822.599          43.000        2027.497
 127412965.537 6  24245881.208          39.000        1952.800
 132016311.92526  25121871.428          36.000       -3951.475
                  24777942.239          25.000        -108.010
 196141096.109 7  37324409.368          42.000       -1367.699
 196471526.404 7  37387287.214          43.000       -1369.993
