     2.11           OBSERVATION DATA    M (MIXED)           RINEX VERSION / TYPE
teqc  2007Jun25                         20070903 16:12:31UTCPGM / RUN BY / DATE
MSXP|IAx86-PII|bcc32 5.0|MSWin95->XP|486/DX+                COMMENT
-Unknown-                                                   MARKER NAME
-Unknown-           -Unknown-                               OBSERVER / AGENCY
-Unknown-           U-BLOX              -Unknown-           REC # / TYPE / VERS
-Unknown-           -Unknown-                               ANT # / TYPE
        0.0000        0.0000        0.0000                  APPROX POSITION XYZ
        0.0000        0.0000        0.0000                  ANTENNA: DELTA H/E/N
     1     0                                                WAVELENGTH FACT L1/2
     4    L1    C1    S1    D1                              # / TYPES OF OBSERV
 SNR is mapped to RINEX snr flag value [0-9]                COMMENT
  L1 & L2: min(max(int(snr_dBHz/6), 0), 9)                  COMMENT
  2007     8    29     8     8   50.0000000     GPS         TIME OF FIRST OBS
    14                                                      LEAP SECONDS
                                                            END OF HEADER
 07  8 29  8  8 50.0000000  0 13G 3G19G16G25G13G23G27G21G31G11S29S37
                                G22
 106367612.322 8  20241087.657          51.000       -2743.594
 110210823.757 8  20972426.101          51.000        -971.795
 114978446.019 8  21879676.560          48.000       -3697.967
 118099508.768 8  22473595.748          50.000          10.748
 124205222.373 7  23635471.703          42.000       -3909.960
 126088985.416 7  23993942.323          47.000       -4846.897
 128533410.765 7  24459104.719          46.000         895.843
 131877261.83825  25095408.099          33.000       -4833.148
 131342982.289 6  24993734.655          40.000       -5826.258
 132208949.504 6  25158533.539          39.000        1612.833
 195806250.107 6  37260695.052          41.000       -2176.613
 196132617.790 6  37322801.529          40.000       -2176.822
 135547727.449 5  25793871.879          34.000        -190.627
 07  8 29  8  8 51.0000000  0 13G 3G19G16G25G13G23G27G21G31G11S29S37
                                G22
 106370354.892 8  20241609.576          51.000       -2741.163
 110211794.428 8  20972610.761          51.000        -969.144
 114982142.615 8  21880380.293          48.000       -3695.979
 118099496.896 8  22473593.411          50.000          13.031
 124209130.812 7  23636215.503          43.000       -3907.209
 126093830.992 7  23994864.428          47.000       -4844.332
 128532513.673 7  24458933.917          46.000         898.139
 131882091.57725  25096327.028          32.000       -4831.178
 131348807.400 6  24994842.746          40.000       -5822.292
 132207335.606 6  25158225.735          39.000        1614.923
 195808423.740 6  37261108.659          41.000       -2172.717
 196134794.254 6  37323215.640          41.000       -2176.277
 135547916.055 5  25793907.828          35.000        -187.569
 07  8 29  8  8 52.0000000  0 13G 3G19G16G25G13G23G27G21G31G11S29S37
                                G22
 106373095.447 8  20242131.251          51.000       -2739.191
 110212763.131 8  20972794.756          51.000        -967.520
 114985837.024 8  21881083.328          48.000       -3692.983
 118099483.057 8  22473590.689          50.000          14.952
 124213037.295 7  23636959.127          43.000       -3905.509
 126098674.332 8  23995786.202          48.000       -4841.879
 128531614.355 7  24458762.941          47.000         900.419
 131886919.16825  25097245.958          33.000       -4826.557
 131354630.181 6  24995950.521          40.000       -5821.060
 132205719.268 6  25157918.002          39.000        1618.253
 195810594.955 6  37261521.794          40.000       -2169.572
 196136968.019 6  37323629.369          41.000       -2173.344
 135548102.343 5  25793943.148          35.000        -184.452
 07  8 29  8  8 53.0000000  0 13G 3G19G16G25G13G23G27G21G31G11S29S37
                                G22
 106375833.941 8  20242652.699          51.000       -2737.400
 110213729.792 8  20972978.805          51.000        -965.429
 114989529.197 8  21881786.067          48.000       -3690.449
 118099467.185 8  22473587.462          50.000          17.482
 124216941.757 7  23637701.373          43.000       -3903.000
 126103515.341 8  23996707.434          48.000       -4839.767
 128530712.778 7  24458591.110          46.000         903.113
 131891744.66025  25098163.736          33.000       -4823.910
 131360450.533 6  24997058.576          40.000       -5818.331
 132204100.440 6  25157609.884          39.000        1620.511
 195812763.443 6  37261934.545          41.000       -2167.343
 196139139.228 6  37324042.608          41.000       -2170.283
 135548286.190 5  25793978.155          35.000        -181.234
 07  8 29  8  8 54.0000000  0 13G 3G19G16G25G13G23G27G21G31G11S29S37
                                G22
 106378570.358 8  20243173.100          51.000       -2735.200
 110214694.403 8  20973162.416          51.000        -963.843
 114993219.117 8  21882487.950          48.000       -3688.886
 118099449.270 8  22473583.868          50.000          19.128
 124220844.170 7  23638444.020          43.000       -3900.673
 126108354.054 8  23997628.458          48.000       -4837.322
 128529808.916 7  24458419.052          46.000         905.696
 131896567.98225  25099081.357          34.000       -4820.483
 131366268.522 6  24998165.880          40.000       -5816.628
 132202479.127 6  25157300.806          38.000        1621.735
 195814929.485 6  37262346.616          40.000       -2163.227
 196141307.777 7  37324455.185          42.000       -2167.104
 135548467.619 5  25794013.143          34.000        -181.041
 07  8 29  8  8 55.0000000  0 13G 3G19G16G25G13G23G27G21G31G11S29S37
                                G22
 106381304.600 8  20243693.572          51.000       -2732.487
 110215656.866 8  20973345.453          51.000        -961.067
 114996906.690 8  21883189.869          48.000       -3685.895
 118099429.206 8  22473580.256          50.000          21.359
 124224744.451 7  23639186.387          43.000       -3899.766
 126113190.364 8  23998549.010          48.000       -4835.140
 128528902.679 7  24458246.522          46.000         907.814
 131901388.99135  25099998.279          33.000       -4820.375
 131372083.977 6  24999272.224          40.000       -5814.637
 132200855.215 6  25156991.659          39.000        1625.061
 195817093.076 6  37262758.510          40.000       -2164.226
 196143473.731 6  37324867.273          41.000       -2165.323
 135548646.558 5  25794047.556          35.000        -177.679
 07  8 29  8  8 56.0000000  0 13G 3G19G16G25G13G23G27G21G31G11S29S37
                                G22
 106384036.731 8  20244213.449          51.000       -2730.834
 110216617.246 8  20973528.210          51.000        -959.303
 115000591.977 8  21883891.072          48.000       -3684.101
 118099407.072 8  22473576.017          50.000          23.435
 124228642.683 7  23639928.372          43.000       -3897.029
 126118024.307 8  23999469.161          48.000       -4832.664
 128527994.124 7  24458073.225          46.000         910.198
 131906207.85125  25100915.394          33.000       -4816.137
 131377897.014 6  25000378.151          41.000       -5810.812
 132199228.774 6  25156681.849          38.000        1627.587
 195819253.951 7  37263169.709          42.000       -2159.799
 196145637.157 7  37325278.994          43.000       -2163.095
 135548823.024 5  25794081.759          35.000        -175.720
 07  8 29  8  8 57.0000000  0 13G 3G19G16G25G13G23G27G21G31G11S29S37
                                G22
 106386766.748 8  20244732.768          51.000       -2728.816
 110217575.545 8  20973710.391          51.000        -957.052
 115004274.973 8  21884591.891          48.000       -3681.418
 118099382.822 8  22473571.480          50.000          25.263
 124232538.821 7  23640669.431          43.000       -3895.625
 126122855.891 8  24000388.422          48.000       -4830.400
 128527083.254 7  24457899.927          46.000         912.101
 131911024.51325  25101832.019          34.000       -4814.612
 131383707.594 6  25001483.762          41.000       -5809.192
 132197599.805 6  25156371.481          39.000        1630.525
 195821412.678 6  37263580.366          41.000       -2156.104
 196147798.181 7  37325690.210          43.000       -2158.382
 135548997.022 5  25794115.177          35.000        -172.362
 07  8 29  8  8 58.0000000  0 13G 3G19G16G25G13G23G27G21G31G11S29S37
                                G22
 106389494.644 8  20245251.686          51.000       -2726.768
 110218531.739 8  20973892.328          50.000        -954.682
 115007955.688 8  21885292.204          48.000       -3679.386
 118099356.501 8  22473566.526          50.000          27.840
 124236432.894 7  23641410.473          43.000       -3892.176
 126127685.129 8  24001307.665          48.000       -4827.874
 128526170.066 7  24457726.229          46.000         915.449
 131915838.96625  25102748.105          33.000       -4810.922
 131389515.734 6  25002589.095          41.000       -5806.944
 132195968.285 6  25156061.007          38.000        1632.888
 195823568.662 6  37263990.499          40.000       -2154.426
 196149956.770 6  37326100.919          41.000       -2156.188
 135549168.558 5  25794148.036          34.000        -171.512
 07  8 29  8  8 59.0000000  0 13G 3G19G16G25G13G23G27G21G31G11S29S37
                                G22
 106392220.402 8  20245770.412          51.000       -2724.782
 110219485.823 8  20974073.741          51.000        -952.938
 115011634.068 8  21885992.273          48.000       -3676.880
 118099328.081 8  22473561.204          50.000          29.570
 124240324.858 7  23642151.113          43.000       -3890.244
 126132511.976 8  24002226.176          48.000       -4825.438
 128525254.509 7  24457552.251          46.000         916.718
 131920651.18925  25103664.067          34.000       -4810.885
 131395321.384 6  25003694.027          41.000       -5803.882
 132194334.210 6  25155749.714          38.000        1635.086
 195825722.266 6  37264400.511          41.000       -2152.494
 196152112.561 7  37326511.297          42.000       -2153.707
 135549337.560 5  25794179.989          34.000        -169.417
 07  8 29  8  9  0.0000000  0 13G 3G19G16G25G13G23G27G21G31G11S29S37
                                G22
 106394944.134 8  20246288.667          51.000       -2722.420
 110220437.908 8  20974254.788          51.000        -950.633
 115015310.255 8  21886691.957          49.000       -3674.875
 118099297.656 8  22473555.114          50.000          31.364
 124244214.827 7  23642891.405          43.000       -3888.352
 126137336.565 8  24003144.215          48.000       -4823.243
 128524336.744 7  24457377.645          47.000         919.435
 131925461.30725  25104579.261          35.000       -4809.585
 131401124.676 6  25004798.329          41.000       -5802.537
 132192697.688 6  25155438.682          38.000        1637.899
 195827873.711 6  37264809.982          41.000       -2148.288
 196154265.956 7  37326921.116          42.000       -2153.023
 135549504.243 5  25794211.785          34.000        -164.435
 07  8 29  8  9  1.0000000  0 13G 3G19G16G25G13G23G27G21G31G11S29S37
                                G22
 106397665.871 8  20246806.608          51.000       -2720.412
 110221388.027 8  20974435.799          51.000        -948.989
 115018984.283 8  21887390.805          48.000       -3672.495
 118099265.237 8  22473548.973          50.000          34.142
 124248102.863 7  23643631.347          43.000       -3887.025
 126142158.912 8  24004061.976          48.000       -4820.534
 128523416.769 7  24457202.777          46.000         921.021
 131930269.33735  25105493.898          34.000       -4807.240
 131406925.666 6  25005902.423          41.000       -5800.150
 132191058.749 6  25155127.267          39.000        1640.243
 195830022.148 7  37265218.823          42.000       -2146.623
 196156417.070 7  37327330.447          43.000       -2149.168
 135549668.640 5  25794242.987          35.000        -162.009
 07  8 29  8  9  2.0000000  0 13G 3G19G16G25G13G23G27G21G31G11S29S37
                                G22
 106400385.416 8  20247324.112          51.000       -2718.558
 110222335.958 8  20974616.078          51.000        -946.732
 115022655.921 8  21888089.565          48.000       -3670.281
 118099230.631 8  22473542.290          50.000          35.891
 124251988.739 7  23644370.975          43.000       -3884.751
 126146978.819 8  24004978.968          48.000       -4818.431
 128522494.387 7  24457027.334          47.000         923.648
 131935075.03825  25106408.501          34.000       -4802.489
 131412724.094 6  25007005.749          41.000       -5797.296
 132189417.193 6  25154814.734          39.000        1642.259
 195832168.228 6  37265627.385          41.000       -2146.022
 196158565.832 7  37327739.236          43.000       -2148.788
 135549830.454 5  25794273.822          35.000        -160.841
 07  8 29  8  9  3.0000000  0 13G 3G19G16G25G13G23G27G21G31G11S29S37
                                G22
 106403102.780 8  20247841.163          51.000       -2716.420
 110223281.753 8  20974796.026          50.000        -944.890
 115026325.223 8  21888787.888          48.000       -3668.010
 118099193.883 8  22473535.224          50.000          37.691
 124255872.467 7  23645110.394          43.000       -3883.572
 126151796.307 8  24005895.698          48.000       -4816.554
 128521569.642 7  24456851.157          46.000         925.427
 131939878.55225  25107322.892          35.000       -4803.149
 131418520.022 6  25008108.290          40.000       -5794.074
 132187773.026 6  25154501.260          38.000        1646.262
 195834311.994 6  37266035.181          41.000       -2141.345
 196160712.204 7  37328147.642          43.000       -2144.705
 135549989.728 5  25794304.256          35.000        -158.183
 07  8 29  8  9  4.0000000  0 13G 3G19G16G25G13G23G27G21G31G11S29S37
                                G22
 106405818.105 8  20248357.708          51.000       -2714.077
 110224225.537 8  20974975.712          50.000        -942.520
 115029992.310 8  21889485.584          48.000       -3666.002
 118099155.107 8  22473527.861          50.000          40.171
 124259754.201 7  23645849.219          43.000       -3880.603
 126156611.526 8  24006812.080          48.000       -4813.970
 128520642.644 7  24456674.440          46.000         928.479
 131944679.90025  25108237.057          35.000       -4801.059
 131424313.614 6  25009210.952          40.000       -5791.601
 132186126.419 6  25154188.221          39.000        1648.375
 195836453.138 6  37266442.540          40.000       -2140.015
 196162856.020 7  37328555.734          42.000       -2142.407
 135550146.633 5  25794333.957          35.000        -155.628
 07  8 29  8  9  5.0000000  0 13G 3G19G16G25G13G23G27G21G31G11S29S37
                                G22
 106408531.376 8  20248873.904          51.000       -2711.883
 110225167.277 8  20975154.717          51.000        -940.659
 115033657.155 8  21890183.070          48.000       -3663.728
 118099114.304 8  22473520.026          50.000          42.039
 124263633.936 7  23646587.417          43.000       -3878.671
 126161424.426 8  24007728.061          49.000       -4811.225
 128519713.383 7  24456497.862          47.000         930.825
 131949479.15025  25109150.473          35.000       -4797.480
 131430104.788 6  25010312.847          41.000       -5789.871
 132184477.344 6  25153874.380          38.000        1651.218
 195838591.936 6  37266849.601          41.000       -2139.262
 196164997.511 7  37328963.180          42.000       -2138.908
 135550301.170 5  25794363.501          35.000        -153.789
 07  8 29  8  9  6.0000000  0 13G 3G19G16G25G13G23G27G21G31G11S29S37
                                G22
 106411242.587 8  20249389.942          51.000       -2709.916
 110226106.984 8  20975333.425          50.000        -938.722
 115037319.776 8  21890880.067          48.000       -3661.526
 118099071.452 8  22473512.052          50.000          43.910
 124267511.632 7  23647325.405          43.000       -3876.231
 126166235.029 8  24008643.622          49.000       -4809.390
 128518781.862 7  24456320.533          46.000         932.515
 131954276.19725  25110063.416          35.000       -4796.414
 131435893.554 6  25011414.341          40.000       -5786.476
 132182825.785 6  25153560.294          39.000        1651.768
 195840728.034 6  37267256.210          41.000       -2137.420
 196167136.397 7  37329370.242          42.000       -2138.287
 135550453.240 5  25794392.278          35.000        -150.322
 07  8 29  8  9  7.0000000  0 13G 3G19G16G25G13G23G27G21G31G11S29S37
                                G22
 106413951.898 8  20249905.370          51.000       -2707.842
 110227044.813 8  20975511.907          50.000        -936.460
 115040980.313 8  21891576.454          48.000       -3659.072
 118099026.711 8  22473503.590          50.000          46.008
 124271387.473 7  23648063.131          43.000       -3873.889
 126171043.484 8  24009558.730          49.000       -4806.664
 128517848.232 7  24456142.856          46.000         934.763
 131959071.26125  25110975.854          35.000       -4795.071
 131441680.112 6  25012515.677          40.000       -5784.970
 132181171.890 6  25153245.633          38.000        1654.877
 195842861.951 6  37267662.365          40.000       -2132.565
 196169272.671 6  37329776.501          41.000       -2136.016
 135550603.089 5  25794420.827          35.000        -147.067
 07  8 29  8  9  8.0000000  0 13G 3G19G16G25G13G23G27G21G31G11S29S37
                                G22
 106416659.153 8  20250420.693          51.000       -2705.889
 110227980.632 8  20975690.196          51.000        -934.594
 115044638.642 8  21892272.143          48.000       -3656.506
 118098979.959 8  22473494.638          50.000          47.868
 124275261.319 7  23648800.333          43.000       -3873.492
 126175849.664 8  24010473.104          49.000       -4804.799
 128516912.361 7  24455964.743          46.000         937.422
 131963864.21526  25111887.856          36.000       -4791.002
 131447464.274 6  25013616.333          41.000       -5783.373
 132179515.555 6  25152930.238          38.000        1657.669
 195844993.456 6  37268068.066          40.000       -2129.751
 196171406.506 7  37330182.569          43.000       -2132.914
 135550750.586 5  25794448.818          35.000        -145.096
 07  8 29  8  9  9.0000000  0 13G 3G19G16G25G13G23G27G21G31G11S29S37
                                G22
 106419364.432 8  20250935.615          51.000       -2703.968
 110228914.489 8  20975867.962          50.000        -932.563
 115048294.807 8  21892968.058          48.000       -3654.591
 118098931.263 8  22473485.356          50.000          50.195
 124279133.226 7  23649537.170          43.000       -3871.015
 126180653.612 8  24011387.113          49.000       -4802.399
 128515974.302 7  24455786.350          46.000         939.341
 131968655.14726  25112799.944          36.000       -4790.342
 131453246.144 6  25014716.762          41.000       -5780.994
 132177856.801 6  25152613.902          38.000        1660.050
 195847122.806 6  37268473.295          40.000       -2130.418
 196173537.806 6  37330587.939          41.000       -2129.845
 135550895.742 5  25794476.216          34.000        -144.092
 07  8 29  8  9 10.0000000  0 13G 3G19G16G25G13G23G27G21G31G11S29S37
                                G22
 106422067.633 8  20251449.821          51.000       -2702.166
 110229846.298 8  20976045.048          50.000        -930.675
 115051948.740 8  21893663.084          48.000       -3652.584
 118098880.528 8  22473475.916          50.000          51.659
 124283003.084 7  23650273.953          44.000       -3869.072
 126185455.248 8  24012300.685          48.000       -4799.936
 128515033.968 7  24455607.486          46.000         941.481
 131973443.83226  25113711.806          36.000       -4788.146
 131459025.590 6  25015817.121          41.000       -5778.420
 132176195.553 6  25152297.478          38.000        1662.110
 195849249.739 6  37268878.090          40.000       -2125.276
 196175666.865 7  37330992.994          42.000       -2128.413
 135551038.392 5  25794503.597          33.000        -140.005
 07  8 29  8  9 11.0000000  0 13G 3G19G16G25G13G23G27G21G31G11S29S37
                                G22
 106424768.835 8  20251963.731          51.000       -2700.062
 110230776.140 8  20976222.099          51.000        -928.746
 115055600.486 8  21894357.464          48.000       -3650.412
 118098827.822 8  22473466.040          50.000          54.087
 124286870.986 7  23651010.214          45.000       -3867.084
 126190254.630 8  24013214.170          48.000       -4798.236
 128514091.431 7  24455428.116          47.000         943.679
 131978230.45726  25114623.181          36.000       -4783.053
 131464802.706 6  25016916.416          41.000       -5777.003
 132174531.908 6  25151981.054          38.000        1665.491
 195851374.385 6  37269282.621          40.000       -2123.921
 196177793.748 7  37331397.700          42.000       -2125.293
 135551178.816 5  25794530.051          32.000        -141.080
 07  8 29  8  9 12.0000000  0 13G 3G19G16G25G13G23G27G21G31G11S29S37
                                G22
 106427468.098 8  20252477.606          51.000       -2697.636
 110231704.065 8  20976398.556          50.000        -926.480
 115059250.129 8  21895052.070          48.000       -3648.366
 118098773.243 8  22473455.657          50.000          55.791
 124290737.005 7  23651745.776          45.000       -3864.546
 126195051.853 8  24014126.991          48.000       -4796.099
 128513146.768 7  24455248.240          47.000         945.898
 131983015.10436  25115533.367          36.000       -4781.350
 131470577.581 6  25018015.327          41.000       -5773.948
 132172865.906 6  25151664.072          38.000        1667.109
 195853496.360 6  37269686.524          40.000       -2123.172
 196179918.245 7  37331802.005          42.000       -2122.919
 135551316.910 5  25794556.752          32.000        -135.126
 07  8 29  8  9 13.0000000  0 13G 3G19G16G25G13G23G27G21G31G11S29S37
                                G22
 106430165.444 8  20252990.747          51.000       -2696.330
 110232630.106 8  20976574.909          51.000        -924.795
 115062897.705 8  21895746.293          48.000       -3646.159
 118098716.768 8  22473444.961          50.000          57.989
 124294601.145 7  23652481.216          45.000       -3863.273
 126199846.917 8  24015039.551          48.000       -4793.813
 128512199.984 7  24455067.980          47.000         947.836
 131987797.67526  25116442.977          36.000       -4782.342
 131476350.164 6  25019113.802          40.000       -5769.923
 132171197.573 6  25151347.351          38.000        1669.654
 195855615.856 6  37270089.593          40.000       -2114.333
 196182040.446 6  37332205.630          41.000       -2120.633
 135551452.691 5  25794582.281          32.000        -135.757
 07  8 29  8  9 14.0000000  0 13G 3G19G16G25G13G23G27G21G31G11S29S37
                                G22
 106432860.763 8  20253503.610          51.000       -2694.262
 110233554.136 8  20976750.598          51.000        -922.762
 115066543.056 8  21896439.853          48.000       -3644.108
 118098658.273 8  22473433.898          50.000          59.103
 124298463.319 7  23653216.238          44.000       -3860.783
 126204639.722 8  24015951.343          48.000       -4791.895
 128511250.969 7  24454887.633          47.000         950.735
 131992578.25126  25117352.675          36.000       -4779.000
 131482120.411 6  25020212.015          41.000       -5767.758
 132169526.784 6  25151028.624          38.000        1672.076
 195857732.906 6  37270492.517          41.000       -2118.484
 196184160.036 7  37332608.905          43.000       -2117.891
 135551586.186 5  25794608.161          32.000        -133.216
 07  8 29  8  9 15.0000000  0 13G 3G19G16G25G13G23G27G21G31G11S29S37
                                G22
 106435554.160 8  20254016.211          51.000       -2692.447
 110234476.245 8  20976925.886          50.000        -921.230
 115070186.309 7  21897133.133          47.000       -3641.933
 118098597.887 8  22473422.417          50.000          61.733
 124302323.598 7  23653950.526          44.000       -3858.459
 126209430.351 8  24016863.083          48.000       -4789.649
 128510299.833 7  24454706.815          47.000         952.292
 131997356.77926  25118262.774          36.000       -4778.388
 131487888.416 6  25021309.878          40.000       -5766.631
 132167853.632 6  25150710.298          38.000        1674.555
 195859847.219 6  37270894.939          41.000       -2111.757
 196186277.163 7  37333011.674          43.000       -2116.954
 135551716.94435  25794633.273          32.000        -129.647
 07  8 29  8  9 16.0000000  0 13G 3G19G16G25G13G23G27G21G31G11S29S37
                                G22
 106438245.590 8  20254528.550          50.000       -2690.087
 110235396.436 8  20977101.105          51.000        -919.281
 115073827.424 7  21897826.117          47.000       -3639.738
 118098535.563 8  22473410.464          50.000          63.627
 124306181.948 7  23654684.762          43.000       -3857.235
 126214218.788 8  24017774.317          48.000       -4786.989
 128509346.527 7  24454525.228          46.000         954.404
 132002133.18526  25119171.059          36.000       -4775.439
 131493654.103 6  25022406.817          40.000       -5764.679
 132166178.133 6  25150390.907          37.000        1676.400
 195861959.438 6  37271297.062          40.000       -2109.797
 196188391.988 6  37333413.746          41.000       -2113.060
 135551845.82825  25794657.810          31.000        -124.899
 07  8 29  8  9 17.0000000  0 13G 3G19G16G25G13G23G27G21G31G11S29S37
                                G22
 106440935.169 8  20255040.174          50.000       -2688.348
 110236314.798 8  20977276.061          51.000        -917.140
 115077466.529 7  21898518.403          47.000       -3638.035
 118098471.405 8  22473398.302          50.000          65.563
 124310038.476 7  23655418.405          43.000       -3854.816
 126219005.094 8  24018685.237          48.000       -4784.794
 128508391.166 7  24454343.346          47.000         956.321
 132006907.76325  25120079.641          34.000       -4772.140
 131499417.608 6  25023503.879          40.000       -5761.343
 132164500.343 6  25150071.325          37.000        1678.024
 195864069.382 6  37271698.610          40.000       -2108.866
 196190504.488 6  37333815.660          41.000       -2110.931
 135551972.53735  25794681.822          30.000        -123.663
 07  8 29  8  9 18.0000000  0 13G 3G19G16G25G13G23G27G21G31G11S29S37
                                G22
 106443622.743 8  20255551.291          50.000       -2686.283
 110237231.183 8  20977450.442          51.000        -915.264
 115081103.452 8  21899210.776          48.000       -3635.672
 118098405.296 8  22473385.809          50.000          67.352
 124313893.054 7  23656151.594          43.000       -3853.247
 126223789.190 8  24019595.668          48.000       -4782.542
 128507433.585 7  24454161.114          46.000         959.220
 132011680.18725  25120987.891          35.000       -4769.648
 131505178.772 6  25024599.683          39.000       -5760.923
 132162820.145 6  25149751.463          37.000        1680.948
 195866176.975 6  37272099.634          40.000       -2107.482
 196192614.813 6  37334217.173          41.000       -2108.899
 135552096.88834  25794705.537          29.000        -124.187
 07  8 29  8  9 19.0000000  0 13G 3G19G16G25G13G23G27G21G31G11S29S37
                                G22
 106446308.301 8  20256062.531          50.000       -2684.328
 110238145.596 8  20977624.421          51.000        -913.438
 115084738.205 8  21899902.416          48.000       -3633.983
 118098337.238 8  22473372.861          50.000          69.271
 124317745.665 7  23656884.574          42.000       -3850.452
 126228571.033 8  24020505.855          48.000       -4780.312
 128506473.807 7  24453978.690          47.000         961.341
 132016450.579 5  25121895.791          34.000       -4770.507
 131510937.639 6  25025695.139          39.000       -5756.960
 132161137.546 6  25149431.619          36.000        1684.006
 195868281.940 6  37272500.117          39.000       -2104.493
 196194722.609 6  37334618.530          40.000       -2105.149
                  25794729.113          26.000        -121.616
 07  8 29  8  9 20.0000000  0 13G 3G19G16G25G13G23G27G21G31G11S29S37
                                G22
 106448992.053 8  20256573.108          50.000       -2682.604
 110239058.224 8  20977797.982          50.000        -911.294
 115088370.964 7  21900593.795          47.000       -3631.774
 118098267.373 8  22473359.635          50.000          71.054
 124321596.513 7  23657617.396          43.000       -3849.713
 126233350.822 7  24021415.413          47.000       -4778.448
 128505512.018 7  24453795.778          47.000         962.998
 132021219.004 5  25122803.606          34.000       -4763.380
 131516694.319 6  25026790.228          39.000       -5755.747
 132159452.699 6  25149111.199          37.000        1685.100
 195870384.998 6  37272900.077          41.000       -2102.527
 196196828.097 7  37335019.134          42.000       -2104.327
                  25794752.340          25.000        -120.203
 07  8 29  8  9 21.0000000  0 13G 3G19G16G25G13G23G27G21G31G11S29S37
                                G22
 106451674.008 8  20257083.301          50.000       -2680.657
 110239969.078 8  20977971.385          50.000        -909.831
 115092001.762 7  21901284.283          47.000       -3629.314
 118098195.728 8  22473345.780          50.000          72.508
 124325445.593 7  23658349.381          43.000       -3847.991
 126238128.534 8  24022324.622          48.000       -4776.501
 128504548.207 7  24453612.185          46.000         965.050
 132025985.528 5  25123710.965          34.000       -4763.557
 131522448.900 6  25027885.597          39.000       -5752.765
 132157765.622 6  25148790.866          36.000        1686.644
 195872485.953 6  37273299.810          41.000       -2099.738
 196198931.239 7  37335419.251          43.000       -2102.000
                  25794774.329          24.000        -114.527
 07  8 29  8  9 22.0000000  0 13G 3G19G16G25G13G23G27G21G31G11S29S37
                                G22
 106454354.003 8  20257593.353          50.000       -2679.305
 110240878.005 8  20978144.196          50.000        -907.572
 115095630.411 7  21901974.178          47.000       -3627.272
 118098122.167 8  22473331.750          50.000          74.148
 124329292.768 7  23659081.349          43.000       -3846.377
 126242904.071 8  24023233.518          48.000       -4774.418
 128503582.265 7  24453428.592          46.000         966.924
 132030750.119 5  25124617.521          34.000       -4763.596
 131528201.179 6  25028980.406          39.000       -5752.230
 132156076.165 6  25148469.556          36.000        1689.619
 195874584.396 6  37273698.775          39.000       -2099.306
 196201032.265 6  37335819.037          41.000       -2099.254
                  25794796.161          22.000        -110.894
 07  8 29  8  9 23.0000000  0 12G 3G19G16G25G13G23G27G21G31G11S29S37
 106457032.064 8  20258102.866          50.000       -2677.158
 110241785.031 8  20978317.111          50.000        -906.107
 115099256.984 7  21902664.265          47.000       -3625.488
 118098046.700 8  22473317.495          50.000          76.782
 124333138.036 7  23659813.264          43.000       -3844.923
 126247677.426 8  24024141.837          48.000       -4772.333
 128502614.196 7  24453244.196          46.000         969.093
 132035512.645 5  25125523.469          34.000       -4758.086
 131533951.199 6  25030074.833          39.000       -5748.289
 132154384.366 6  25148146.886          37.000        1693.502
 195876681.137 6  37274097.828          39.000       -2095.683
 196203131.209 6  37336218.543          41.000       -2096.926
 07  8 29  8  9 24.0000000  0 12G 3G19G16G25G13G23G27G21G31G11S29S37
 106459708.324 8  20258612.186          50.000       -2675.481
 110242690.294 8  20978489.415          50.000        -904.261
 115102881.580 7  21903353.759          47.000       -3624.065
 118097969.459 8  22473302.889          50.000          78.006
 124336981.575 7  23660544.586          43.000       -3842.162
 126252448.765 8  24025049.738          48.000       -4770.083
 128501644.123 7  24453059.381          46.000         970.559
 132040273.319 5  25126429.135          34.000       -4758.859
 131539699.099 6  25031168.928          39.000       -5745.715
 132152690.387 6  25147824.197          36.000        1694.984
 195878775.360 6  37274496.148          39.000       -2092.153
 196205228.164 7  37336617.525          42.000       -2095.732
 07  8 29  8  9 25.0000000  0 12G 3G19G16G25G13G23G27G21G31G11S29S37
 106462382.760 8  20259121.210          50.000       -2672.966
 110243593.762 8  20978661.265          50.000        -902.349
 115106504.181 7  21904043.358          47.000       -3621.107
 118097890.427 8  22473287.848          50.000          80.566
 124340823.318 7  23661275.663          43.000       -3840.456
 126257218.016 8  24025957.203          48.000       -4767.673
 128500672.027 7  24452874.550          46.000         973.737
 132045031.994 5  25127334.959          35.000       -4757.210
 131545444.856 6  25032261.783          39.000       -5743.929
 132150994.138 6  25147501.805          36.000        1697.906
 195880867.044 6  37274894.118          40.000       -2091.255
 196207323.032 7  37337016.037          43.000       -2093.335
 07  8 29  8  9 26.0000000  0 12G 3G19G16G25G13G23G27G21G31G11S29S37
 106465055.318 8  20259629.762          50.000       -2671.044
 110244495.373 8  20978832.836          50.000        -900.325
 115110124.734 7  21904732.083          47.000       -3619.439
 118097809.556 8  22473272.562          50.000          81.817
 124344663.232 7  23662006.444          43.000       -3838.878
 126261985.157 8  24026864.301          48.000       -4765.476
 128499697.850 7  24452689.474          46.000         975.507
 132049788.813 5  25128240.084          34.000       -4757.110
 131551188.393 6  25033354.394          39.000       -5742.457
 132149295.614 6  25147178.646          36.000        1700.618
 195882957.175 6  37275291.722          40.000       -2088.200
 196209415.509 7  37337414.234          43.000       -2092.480
 07  8 29  8  9 27.0000000  0 12G 3G19G16G25G13G23G27G21G31G11S29S37
 106467725.938 8  20260138.105          50.000       -2669.486
 110245395.084 8  20979003.919          50.000        -898.427
 115113743.171 7  21905420.670          47.000       -3616.980
 118097726.774 8  22473256.683          50.000          84.050
 124348501.218 7  23662737.068          43.000       -3836.937
 126266750.123 8  24027770.893          48.000       -4763.334
 128498721.535 7  24452503.577          46.000         977.456
 132054543.566 5  25129144.460          35.000       -4754.580
 131556929.688 6  25034447.442          39.000       -5739.563
 132147594.732 6  25146855.294          37.000        1702.484
 195885044.628 6  37275688.768          39.000       -2085.095
 196211505.392 6  37337811.943          41.000       -2089.009
 07  8 29  8  9 28.0000000  0 12G 3G19G16G25G13G23G27G21G31G11S29S37
 106470394.662 8  20260645.698          50.000       -2667.544
 110246292.911 8  20979174.897          50.000        -896.794
 115117359.542 7  21906109.187          47.000       -3614.873
 118097642.096 8  22473240.228          50.000          85.751
 124352337.365 7  23663467.029          42.000       -3835.628
 126271512.935 7  24028677.223          47.000       -4761.845
 128497743.122 7  24452317.489          46.000         979.788
 132059296.358 5  25130048.784          34.000       -4751.565
 131562668.703 6  25035539.286          39.000       -5736.767
 132145891.531 6  25146530.965          36.000        1704.797
 195887129.515 6  37276085.115          39.000       -2084.019
 196213592.813 6  37338209.146          41.000       -2085.342
 07  8 29  8  9 29.0000000  0 12G 3G19G16G25G13G23G27G21G31G11S29S37
 106473061.607 8  20261153.220          50.000       -2665.979
 110247189.008 8  20979345.473          50.000        -895.084
 115120973.969 7  21906797.179          47.000       -3613.311
 118097555.706 8  22473223.966          50.000          87.534
 124356171.781 7  23664196.431          42.000       -3833.390
 126276273.758 7  24029583.099          47.000       -4759.432
 128496762.736 7  24452130.825          46.000         981.935
 132064047.250 5  25130952.933          34.000       -4749.138
 131568405.641 6  25036630.902          38.000       -5735.681
 132144186.133 6  25146206.112          37.000        1705.612
 195889211.978 6  37276481.446          39.000       -2080.388
 196215678.002 6  37338605.913          41.000       -2082.670
 07  8 29  8  9 30.0000000  0 12G 3G19G16G25G13G23G27G21G31G11S29S37
 106475726.707 8  20261660.586          50.000       -2663.951
 110248083.288 8  20979515.614          50.000        -893.184
 115124586.369 7  21907484.457          47.000       -3611.545
 118097467.459 8  22473207.511          50.000          89.260
 124360004.391 7  23664925.711          43.000       -3831.687
 126281032.466 7  24030488.679          47.000       -4757.618
 128495780.313 7  24451943.969          46.000         984.572
 132068796.247 5  25131856.592          34.000       -4749.126
 131574140.381 6  25037722.414          39.000       -5733.615
 132142478.487 6  25145881.033          36.000        1708.742
 195891292.188 6  37276877.235          39.000       -2078.617
 196217760.867 6  37339002.120          41.000       -2081.817
 07  8 29  8  9 31.0000000  0 12G 3G19G16G25G13G23G27G21G31G11S29S37
 106478390.033 8  20262167.341          50.000       -2662.418
 110248975.827 8  20979685.405          50.000        -891.886
 115128196.840 7  21908171.490          47.000       -3609.420
 118097377.499 8  22473190.463          50.000          91.081
 124363835.288 7  23665654.730          43.000       -3830.452
 126285789.180 7  24031393.927          47.000       -4755.973
 128494795.911 7  24451756.589          46.000         985.391
 132073543.39335  25132759.626          34.000       -4743.087
 131579873.055 6  25038813.315          39.000       -5731.342
 132140768.643 6  25145554.576          36.000        1712.748
 195893370.569 6  37277272.500          40.000       -2077.707
 196219841.397 7  37339398.119          42.000       -2078.994
 07  8 29  8  9 32.0000000  0 13G 3G19G16G25G13G23G27G21G31G11S29S37
                                G22
 106481051.255 8  20262673.870          50.000       -2659.854
 110249866.283 8  20979855.074          50.000        -889.512
 115131805.032 7  21908858.140          47.000       -3607.048
 118097285.457 8  22473172.891          50.000          93.196
 124367664.103 7  23666382.981          43.000       -3827.775
 126290543.542 8  24032298.722          48.000       -4753.535
 128493809.213 7  24451568.895          46.000         987.939
 132078288.34126  25133662.693          36.000       -4741.567
 131585603.256 6  25039904.042          39.000       -5728.399
 132139056.309 6  25145229.287          38.000        1713.479
 195895446.581 6  37277667.557          39.000       -2073.771
 196221919.304 7  37339793.454          42.000       -2077.623
                  25794987.980          31.000         -92.599
 07  8 29  8  9 33.0000000  0 13G 3G19G16G25G13G23G27G21G31G11S29S37
                                G22
 106483710.753 8  20263180.084          50.000       -2658.476
 110250755.044 8  20980024.325          51.000        -887.701
 115135411.328 7  21909544.353          47.000       -3605.220
 118097191.729 8  22473155.022          50.000          94.189
 124371491.260 7  23667111.231          43.000       -3826.290
 126295295.932 8  24033203.045          48.000       -4751.383
 128492820.587 7  24451380.625          46.000         989.428
 132083031.46026  25134565.601          36.000       -4742.990
 131591331.402 6  25040994.263          39.000       -5727.192
 132137341.789 6  25144902.689          38.000        1715.655
 195897520.357 6  37278062.160          39.000       -2071.789
 196223995.366 6  37340188.528          41.000       -2077.042
                  25795005.397          32.000         -90.011
 07  8 29  8  9 34.0000000  0 13G 3G19G16G25G13G23G27G21G31G11S29S37
                                G22
 106486368.537 8  20263685.844          51.000       -2656.780
 110251642.124 8  20980192.825          51.000        -886.277
 115139015.741 7  21910230.636          47.000       -3603.308
 118097096.344 8  22473136.927          50.000          96.898
 124375316.731 7  23667839.028          42.000       -3823.971
 126300046.378 8  24034106.793          48.000       -4748.827
 128491830.050 7  24451192.199          46.000         991.293
 132087772.78926  25135467.010          36.000       -4741.862
 131597057.511 6  25042084.221          40.000       -5724.993
 132135625.169 6  25144576.232          38.000        1718.264
 195899591.836 6  37278456.291          39.000       -2070.128
 196226069.297 6  37340583.096          41.000       -2074.190
                  25795023.563          31.000         -87.980
 07  8 29  8  9 35.0000000  0 13G 3G19G16G25G13G23G27G21G31G11S29S37
                                G22
 106489024.405 8  20264191.308          51.000       -2654.735
 110252527.320 8  20980361.342          51.000        -884.118
 115142618.077 8  21910916.273          48.000       -3601.206
 118096999.080 8  22473118.187          50.000          98.448
 124379140.307 7  23668566.651          43.000       -3822.339
 126304794.658 8  24035010.331          48.000       -4747.147
 128490837.408 7  24451003.458          47.000         993.540
 132092512.11825  25136368.088          35.000       -4738.958
 131602781.388 6  25043173.448          40.000       -5721.931
 132133906.236 6  25144249.355          39.000        1720.073
 195901660.930 6  37278850.090          40.000       -2069.425
 196228140.847 7  37340977.646          42.000       -2070.181
                  25795039.636          32.000         -85.325
 07  8 29  8  9 36.0000000  0 13G 3G19G16G25G13G23G27G21G31G11S29S37
                                G22
 106491678.559 8  20264696.108          51.000       -2653.295
 110253410.830 8  20980529.458          51.000        -882.765
 115146218.518 8  21911601.369          48.000       -3599.479
 118096900.119 8  22473099.358          50.000         100.021
 124382962.214 7  23669293.749          43.000       -3821.617
 126309540.978 8  24035913.887          48.000       -4745.296
 128489842.844 7  24450813.775          46.000         995.648
 132097249.70226  25137269.987          36.000       -4733.588
 131608503.189 6  25044262.412          40.000       -5718.793
 132132185.139 6  25143922.199          38.000        1721.520
 195903728.421 6  37279243.716          39.000       -2066.716
 196230209.996 7  37341371.534          42.000       -2067.385
 135553932.93635  25795055.918          31.000         -83.303
 07  8 29  8  9 37.0000000  0 13G 3G19G16G25G13G23G27G21G31G11S29S37
                                G22
 106494331.111 8  20265200.996          51.000       -2651.790
 110254292.755 8  20980697.557          51.000        -881.196
 115149817.191 8  21912286.186          48.000       -3597.579
 118096799.605 8  22473080.042          50.000         101.720
 124386782.579 7  23670020.935          43.000       -3819.329
 126314285.463 8  24036816.570          48.000       -4743.317
 128488846.484 7  24450624.441          46.000         997.167
 132101985.54426  25138171.675          36.000       -4734.833
 131614223.084 6  25045350.957          40.000       -5717.805
 132130462.053 6  25143594.519          38.000        1723.528
 195905793.929 6  37279636.871          40.000       -2062.353
 196232277.333 7  37341765.019          43.000       -2065.633
 135554015.90225  25795071.867          31.000         -82.649
 07  8 29  8  9 38.0000000  0 13G 3G19G16G25G13G23G27G21G31G11S29S37
                                G22
 106496981.845 8  20265705.483          50.000       -2649.371
 110255172.899 8  20980864.835          51.000        -879.068
 115153413.875 8  21912970.689          48.000       -3595.664
 118096697.295 8  22473060.707          50.000         103.539
 124390601.170 7  23670747.598          43.000       -3816.905
 126319027.878 8  24037719.253          48.000       -4741.527
 128487848.114 7  24450434.269          46.000        1000.226
 132106719.54736  25139072.839          36.000       -4733.458
 131619940.814 6  25046438.735          39.000       -5715.614
 132128736.719 6  25143266.334          38.000        1727.474
 195907856.36536  37280029.501          39.000       -2062.348
 196234342.615 6  37342158.104          41.000       -2064.192
 135554096.68125  25795087.015          31.000         -80.990
 07  8 29  8  9 39.0000000  0 13G 3G19G16G25G13G23G27G21G31G11S29S37
                                G22
 106499630.772 8  20266209.568          50.000       -2647.564
 110256051.276 8  20981032.149          51.000        -877.184
 115157008.582 8  21913654.669          48.000       -3593.456
 118096593.206 8  22473040.693          50.000         104.881
 124394417.982 7  23671473.737          42.000       -3817.123
 126323768.248 8  24038621.168          48.000       -4738.907
 128486847.744 7  24450243.783          47.000        1001.654
 132111451.58326  25139973.498          36.000       -4731.787
 131625656.401 6  25047526.006          39.000       -5715.404
 132127009.188 6  25142937.451          38.000        1730.208
 195909917.691 6  37280421.644          38.000       -2058.093
 196236406.129 7  37342550.734          42.000       -2062.739
                  25795102.444          22.000         -71.228
 07  8 29  8  9 40.0000000  0 12G 3G19G16G25G13G23G27G21G31G11S29S37
 106502277.859 8  20266713.234          50.000       -2646.442
 110256927.824 8  20981199.043          51.000        -875.656
 115160601.267 8  21914338.875          48.000       -3591.736
 118096487.299 8  22473020.626          50.000         107.080
 124398232.998 7  23672199.859          43.000       -3814.337
 126328506.526 8  24039522.665          48.000       -4737.087
 128485845.302 7  24450052.809          46.000        1003.704
 132116181.71926  25140873.163          36.000       -4728.113
 131631369.802 6  25048613.051          39.000       -5712.235
 132125279.370 6  25142608.759          38.000        1730.554
 195911976.335 6  37280813.158          39.000       -2055.139
 196238467.610 6  37342943.347          41.000       -2060.624
 07  8 29  8  9 41.0000000  0 13G 3G19G16G25G13G23G27G21G31G11S29S37
                                G22
 106504923.195 8  20267216.534          50.000       -2644.175
 110257802.659 8  20981365.414          51.000        -873.910
 115164192.035 8  21915022.087          48.000       -3589.866
 118096379.685 8  22473000.210          50.000         108.795
 124402046.290 7  23672925.335          43.000       -3810.962
 126333242.809 8  24040423.795          48.000       -4735.257
 128484840.939 7  24449861.730          46.000        1005.441
 132120910.02126  25141772.878          36.000       -4730.777
 131637081.164 6  25049699.799          39.000       -5709.173
 132123547.410 6  25142279.579          38.000        1733.093
 195914032.986 6  37281204.671          39.000       -2054.252
 196240526.646 6  37343335.193          41.000       -2058.656
 135554349.05135  25795135.110          34.000         -73.810
 07  8 29  8  9 42.0000000  0 13G 3G19G16G25G13G23G27G21G31G11S29S37
                                G22
 106507566.795 8  20267719.589          50.000       -2642.637
 110258675.797 8  20981531.558          51.000        -871.747
 115167780.914 8  21915705.264          48.000       -3587.226
 118096270.368 8  22472979.322          50.000         110.123
 124405857.902 7  23673650.741          43.000       -3810.846
 126337977.126 8  24041324.733          48.000       -4732.965
 128483834.642 7  24449670.109          47.000        1007.358
 132125636.53236  25142671.339          36.000       -4725.003
 131642790.449 6  25050785.936          39.000       -5707.980
 132121813.318 6  25141949.770          37.000        1734.352
 195916087.367 6  37281595.556          39.000       -2053.918
 196242583.329 7  37343726.603          42.000       -2054.448
                  25795148.914          29.000         -71.162
 07  8 29  8  9 43.0000000  0 13G 3G19G16G25G13G23G27G21G31G11S29S37
                                G22
 106510208.622 8  20268222.313          50.000       -2640.827
 110259547.184 8  20981697.702          51.000        -870.369
 115171367.843 8  21916388.214          49.000       -3585.123
 118096159.306 8  22472958.313          50.000         112.407
 124409667.784 7  23674375.868          43.000       -3808.279
 126342709.443 8  24042225.514          48.000       -4730.430
 128482826.389 7  24449478.350          46.000        1009.695
 132130361.13826  25143571.178          38.000       -4723.105
 131648497.631 6  25051872.178          39.000       -5705.657
 132120077.039 6  25141619.107          37.000        1737.295
 195918139.676 6  37281986.129          41.000       -2050.226
 196244637.732 7  37344117.610          43.000       -2053.641
 135554494.53035  25795162.754          35.000         -68.001
 07  8 29  8  9 44.0000000  0 13G 3G19G16G25G13G23G27G21G31G11S29S37
                                G22
 106512848.713 8  20268724.705          50.000       -2639.511
 110260416.874 8  20981863.305          51.000        -869.178
 115174952.871 8  21917070.535          49.000       -3584.418
 118096046.530 8  22472936.954          50.000         113.787
 124413475.975 7  23675100.576          43.000       -3807.203
 126347439.777 8  24043125.754          48.000       -4729.640
 128481816.187 7  24449286.241          46.000        1010.947
 132135083.97526  25144470.284          37.000       -4719.827
 131654202.791 6  25052957.286          37.000       -5702.671
 132118338.585 6  25141288.357          38.000        1739.215
 195920189.397 6  37282376.229          41.000       -2048.547
 196246689.987 7  37344508.094          43.000       -2052.127
 135554562.65125  25795175.231          34.000         -66.380
 07  8 29  8  9 45.0000000  0 13G 3G19G16G25G13G23G27G21G31G11S29S37
                                G22
 106515487.147 8  20269226.784          50.000       -2637.233
 110261284.928 8  20982028.403          51.000        -866.887
 115178536.060 8  21917752.578          49.000       -3582.286
 118095932.118 8  22472915.229          50.000         115.428
 124417282.536 7  23675824.953          43.000       -3805.516
 126352168.194 8  24044025.645          48.000       -4727.239
 128480804.144 7  24449093.766          46.000        1013.524
 132139805.07226  25145368.674          36.000       -4719.330
 131659905.874 6  25054042.184          38.000       -5701.153
 132116598.087 6  25140957.030          38.000        1740.988
 195922237.284 6  37282766.120          40.000       -2045.815
 196248740.083 7  37344898.248          43.000       -2048.473
 135554628.73425  25795187.779          34.000         -63.606
 07  8 29  8  9 46.0000000  0 13G 3G19G16G25G13G23G27G21G31G11S29S37
                                G22
 106518123.873 8  20269728.147          50.000       -2636.013
 110262151.302 8  20982193.203          51.000        -866.103
 115182117.387 8  21918434.358          48.000       -3580.960
 118095816.048 8  22472893.347          50.000         116.543
 124421087.439 7  23676549.033          43.000       -3804.069
 126356894.684 8  24044924.785          48.000       -4725.745
 128479790.196 7  24448900.662          46.000        1014.643
 132144524.33926  25146266.923          36.000       -4720.226
 131665606.979 6  25055126.908          38.000       -5699.265
 132114855.440 6  25140624.779          38.000        1743.195
 195924282.879 6  37283155.644          39.000       -2045.821
 196250788.410 6  37345287.858          41.000       -2048.900
 135554692.78425  25795199.697          33.000         -63.831
 07  8 29  8  9 47.0000000  0 13G 3G19G16G25G13G23G27G21G31G11S29S37
                                G22
 106520758.726 8  20270229.736          50.000       -2634.123
 110263015.847 8  20982357.794          51.000        -863.539
 115185696.659 8  21919115.406          49.000       -3578.130
 118095698.127 8  22472870.541          50.000         119.177
 124424890.507 7  23677272.537          43.000       -3802.202
 126361619.052 8  24045823.786          48.000       -4723.597
 128478774.182 7  24448707.071          46.000        1016.975
 132149241.64126  25147164.128          36.000       -4716.654
 131671305.871 6  25056211.300          38.000       -5698.772
 132113110.524 6  25140292.580          38.000        1745.546
 195926326.750 6  37283544.593          40.000       -2043.003
 196252834.710 7  37345677.157          42.000       -2044.872
 135554754.66925  25795211.006          33.000         -60.624
 07  8 29  8  9 48.0000000  0 13G 3G19G16G25G13G23G27G21G31G11S29S37
                                G22
 106523391.948 8  20270730.628          50.000       -2632.127
 110263878.772 8  20982522.333          51.000        -861.870
 115189274.135 8  21919796.088          49.000       -3576.435
 118095578.604 8  22472847.961          50.000         120.695
 124428691.972 7  23677995.727          43.000       -3800.533
 126366341.543 8  24046722.369          48.000       -4721.230
 128477756.328 7  24448513.356          46.000        1018.862
                  25148060.860          37.000       -4714.875
 131677002.790 6  25057294.785          38.000       -5695.592
 132111363.575 6  25139960.713          38.000        1747.963
 195928368.323 6  37283933.280          39.000       -2040.555
 196254878.674 7  37346066.036          42.000       -2042.613
 135554814.52725  25795221.721          33.000         -60.191
 07  8 29  8  9 49.0000000  0 13G 3G19G16G25G13G23G27G21G31G11S29S37
                                G22
 106526023.480 8  20271231.275          50.000       -2630.884
 110264740.045 8  20982686.121          52.000        -861.269
 115192849.755 8  21920476.612          49.000       -3574.720
 118095457.422 8  22472824.805          50.000         122.254
 124432491.802 7  23678718.830          43.000       -3799.333
 126371062.105 8  24047620.567          48.000       -4719.687
 128476736.607 7  24448319.625          46.000        1020.223
 132158666.09826  25148958.063          37.000       -4714.498
 131682697.693 6  25058378.618          39.000       -5693.694
 132109614.495 6  25139627.379          37.000        1749.704
 195930407.732 6  37284321.461          39.000       -2036.965
 196256920.210 6  37346454.356          41.000       -2040.186
 135554872.38625  25795232.384          33.000         -56.364
 07  8 29  8  9 50.0000000  0 13G 3G19G16G25G13G23G27G21G31G11S29S37
                                G22
 106528653.364 8  20271731.801          51.000       -2628.700
 110265599.710 8  20982849.666          52.000        -858.359
 115196423.557 8  21921156.648          49.000       -3572.718
 118095334.648 8  22472801.317          50.000         123.364
 124436290.028 7  23679441.601          43.000       -3796.374
 126375780.783 8  24048518.783          48.000       -4717.566
 128475715.041 7  24448125.370          47.000        1023.024
 132163378.24426  25149854.395          38.000       -4710.750
 131688390.635 6  25059462.470          39.000       -5691.788
 132107863.377 6  25139293.366          37.000        1752.839
 195932445.682 6  37284709.380          41.000       -2037.377
 196258959.982 7  37346842.572          43.000       -2038.139
 135554928.31725  25795242.926          31.000         -53.128
 07  8 29  8  9 51.0000000  0 13G 3G19G16G25G13G23G27G21G31G11S29S37
                                G22
 106531281.503 8  20272231.942          50.000       -2627.244
 110266457.645 8  20983012.878          52.000        -856.874
 115199995.437 8  21921836.474          49.000       -3571.342
 118095210.173 8  22472777.586          50.000         125.568
 124440086.536 7  23680164.389          43.000       -3796.237
 126380497.457 8  24049416.510          48.000       -4714.788
 128474691.524 7  24447930.661          47.000        1024.356
 132168088.46726  25150751.162          38.000       -4709.926
 131694081.495 6  25060545.483          40.000       -5689.341
 132106110.099 6  25138959.631          36.000        1755.079
 195934481.015 6  37285096.618          41.000       -2034.705
 196260997.700 7  37347230.369          43.000       -2037.005
                  25795253.937          28.000         -52.183
 07  8 29  8  9 52.0000000  0 13G 3G19G16G25G13G23G27G21G31G11S29S37
                                G22
 106533908.060 8  20272731.822          50.000       -2625.290
 110267314.032 8  20983175.881          52.000        -855.112
 115203565.571 8  21922515.986          49.000       -3568.542
 118095084.144 8  22472753.383          50.000         127.137
 124443881.512 7  23680886.585          43.000       -3793.511
 126385212.301 8  24050313.435          48.000       -4713.586
 128473666.234 7  24447735.533          47.000        1026.816
 132172797.12026  25151647.039          38.000       -4708.827
 131699770.410 6  25061628.253          39.000       -5687.033
 132104354.816 6  25138626.438          37.000        1757.234
 195936514.293 6  37285483.316          40.000       -2031.655
 196263033.507 6  37347617.730          41.000       -2034.289
 135555020.84635  25795262.941          32.000         -51.811
 07  8 29  8  9 53.0000000  0 13G 3G19G16G25G13G23G27G21G31G11S29S37
                                G22
 106536532.998 8  20273231.178          50.000       -2623.691
 110268168.838 8  20983338.884          51.000        -853.986
 115207133.914 8  21923194.975          49.000       -3567.301
 118094956.534 8  22472729.058          50.000         128.616
 124447674.914 7  23681608.658          43.000       -3793.367
 126389925.284 8  24051210.516          48.000       -4711.957
 128472639.137 7  24447539.847          47.000        1028.102
 132177504.06526  25152542.253          37.000       -4708.525
 131705457.403 6  25062710.812          39.000       -5686.272
 132102597.512 6  25138292.249          37.000        1757.913
 195938545.307 6  37285869.909          40.000       -2029.079
 196265067.193 7  37348004.776          42.000       -2033.422
 135555070.82225  25795271.562          33.000         -51.799
 07  8 29  8  9 54.0000000  0 13G 3G19G16G25G13G23G27G21G31G11S29S37
                                G22
 106539156.195 8  20273730.377          50.000       -2622.120
 110269021.926 8  20983500.858          51.000        -852.192
 115210700.357 8  21923873.579          48.000       -3565.500
 118094827.211 8  22472704.506          50.000         130.614
 124451466.613 7  23682330.278          42.000       -3790.693
 126394636.294 8  24052107.284          48.000       -4709.391
 128471610.101 7  24447344.161          46.000        1030.806
 132182209.12726  25153437.084          37.000       -4704.146
 131711142.314 6  25063792.901          39.000       -5683.926
 132100838.064 6  25137957.293          36.000        1760.473
 195940574.614 6  37286256.396          39.000       -2030.131
 196267098.614 7  37348391.335          42.000       -2029.124
 135555118.57225  25795280.150          33.000         -44.938
 07  8 29  8  9 55.0000000  0 13G 3G19G16G25G13G23G27G21G31G11S29S37
                                G22
 106541777.679 8  20274229.122          50.000       -2620.180
 110269873.322 8  20983663.006          51.000        -850.295
 115214264.922 8  21924551.661          48.000       -3563.146
 118094696.202 8  22472679.832          50.000         132.027
 124455256.637 7  23683051.356          42.000       -3788.599
 126399345.344 8  24053003.178          48.000       -4707.948
 128470579.149 7  24447147.882          46.000        1032.170
 132186912.39826  25154332.543          36.000       -4702.479
 131716825.170 6  25064874.048          38.000       -5680.528
 132099076.485 6  25137622.040          36.000        1762.882
 195942601.166 6  37286641.926          40.000       -2024.604
 196269128.114 7  37348777.509          43.000       -2026.603
 135555164.35125  25795289.067          33.000         -44.718
 07  8 29  8  9 56.0000000  0 13G 3G19G16G25G13G23G27G21G31G11S29S37
                                G22
 106544397.428 8  20274727.588          50.000       -2619.188
 110270723.006 8  20983824.823          51.000        -848.495
 115217827.570 8  21925229.655          48.000       -3561.240
 118094563.502 8  22472654.827          50.000         133.549
 124459044.943 7  23683772.051          42.000       -3787.485
 126404052.411 8  24053899.091          48.000       -4706.117
 128469546.273 7  24446951.254          46.000        1034.115
 132191613.92326  25155227.130          36.000       -4697.499
 131722505.967 6  25065954.863          39.000       -5679.790
 132097312.758 6  25137286.892          36.000        1764.712
 195944625.631 6  37287027.174          40.000       -2025.278
 196271155.961 7  37349163.263          43.000       -2026.952
 135555208.09225  25795297.251          33.000         -45.399
 07  8 29  8  9 57.0000000  0 13G 3G19G16G25G13G23G27G21G31G11S29S37
                                G22
 106547015.519 8  20275225.810          50.000       -2617.539
 110271571.141 8  20983986.395          52.000        -847.084
 115221388.372 8  21925907.091          49.000       -3559.272
 118094429.199 8  22472629.245          50.000         135.400
 124462831.761 7  23684492.780          43.000       -3785.755
 126408757.726 8  24054794.288          48.000       -4704.167
 128468511.553 7  24446754.451          47.000        1036.507
 132196313.58726  25156120.965          37.000       -4697.834
 131728184.906 6  25067035.346          39.000       -5677.637
 132095547.169 6  25136951.203          37.000        1766.623
 195946648.911 6  37287412.372          39.000       -2022.212
 196273181.527 6  37349548.705          41.000       -2023.360
 135555249.83825  25795305.472          31.000         -40.935
 07  8 29  8  9 58.0000000  0 13G 3G19G16G25G13G23G27G21G31G11S29S37
                                G22
 106549631.831 8  20275724.206          51.000       -2615.396
 110272417.949 8  20984146.780          51.000        -845.729
 115224947.125 8  21926584.334          48.000       -3557.236
 118094293.167 8  22472603.019          50.000         137.265
 124466617.368 7  23685213.475          44.000       -3784.643
 126413461.873 8  24055689.170          48.000       -4703.424
 128467474.722 7  24446557.037          47.000        1037.908
 132201010.75526  25157013.737          36.000       -4695.524
 131733862.386 6  25068115.934          39.000       -5675.740
 132093780.263 6  25136616.316          39.000        1766.865
 195948670.556 6  37287797.289          40.000       -2019.896
 196275205.336 7  37349933.762          42.000       -2021.979
 135555289.35925  25795313.675          30.000         -37.216
 07  8 29  8  9 59.0000000  0 13G 3G19G16G25G13G23G27G21G31G11S29S37
                                G22
 106552246.330 8  20276221.905          51.000       -2613.289
 110273263.171 8  20984307.689          51.000        -844.418
 115228503.879 8  21927261.246          49.000       -3555.351
 118094155.405 8  22472576.512          50.000         139.078
 124470401.471 7  23685933.332          44.000       -3782.708
 126418164.345 8  24056583.739          48.000       -4701.379
 128466435.821 7  24446359.327          47.000        1040.054
 132205705.89626  25157906.315          38.000       -4695.686
 131739538.059 6  25069196.260          37.000       -5674.901
 132092011.733 6  25136280.487          38.000        1768.271
 195950690.035 6  37288181.736          41.000       -2018.056
 196277227.124 7  37350318.609          42.000       -2021.896
                  25795320.533          29.000         -36.193
 07  8 29  8 10  0.0000000  0 13G 3G19G16G25G13G23G27G21G31G11S29S37
                                G22
 106554859.100 8  20276719.080          51.000       -2611.762
 110274106.888 8  20984468.022          51.000        -843.181
 115232058.661 8  21927937.530          48.000       -3553.293
 118094015.919 8  22472549.901          51.000         140.416
 124474184.152 7  23686652.979          43.000       -3781.886
 126422865.254 8  24057478.360          48.000       -4699.704
 128465394.937 7  24446161.111          47.000        1042.022
 132210398.91626  25158799.628          37.000       -4692.916
 131745212.014 6  25070276.132          37.000       -5674.622
 132090241.478 6  25135944.275          40.000        1771.097
 195952707.614 6  37288565.938          40.000       -2015.204
 196279247.105 7  37350703.196          42.000       -2019.749
                  25795326.449          26.000         -34.968
 07  8 29  8 10  1.0000000  0 12G 3G19G16G25G13G23G27G21G31G11S29S37
 106557470.157 8  20277216.080          50.000       -2610.047
 110274949.213 8  20984628.198          51.000        -841.545
 115235611.520 8  21928613.291          48.000       -3551.705
 118093874.780 8  22472523.029          50.000         142.354
 124477965.468 7  23687372.644          43.000       -3780.857
 126427564.807 8  24058372.980          49.000       -4698.557
 128464352.064 7  24445962.825          46.000        1044.934
 132215089.710 6  25159692.347          38.000       -4690.233
 131750884.426 6  25071355.621          37.000       -5671.889
 132088469.769 6  25135607.416          39.000        1771.791
 195954723.756 6  37288949.425          41.000       -2014.357
 196281265.609 7  37351087.101          43.000       -2017.762
 07  8 29  8 10  2.0000000  0 12G 3G19G16G25G13G23G27G21G31G11S29S37
 106560079.247 8  20277712.383          51.000       -2607.525
 110275790.220 8  20984788.147          51.000        -840.393
 115239162.099 8  21929288.632          48.000       -3549.999
 118093731.735 8  22472495.615          50.000         143.609
 124481745.781 6  23688092.012          41.000       -3780.176
 126432263.319 7  24059267.775          47.000       -4697.854
 128463306.811 7  24445764.015          46.000        1046.443
 132219777.613 5  25160584.280          35.000       -4690.659
 131756555.500 6  25072434.446          39.000       -5669.921
 132086697.294 6  25135269.981          38.000        1771.915
 195956738.338 7  37289332.615          42.000       -2013.125
 196283282.478 7  37351471.024          43.000       -2016.638
 07  8 29  8 10  3.0000000  0 13G 3G19G16G25G13G23G27G21G31G11S29S37
                                G22
 106562686.723 8  20278208.580          51.000       -2606.532
 110276629.961 8  20984947.870          50.000        -838.787
 115242710.529 8  21929964.236          49.000       -3547.408
 118093587.385 8  22472468.062          48.000         145.248
 124485525.020 7  23688811.502          43.000       -3778.891
 126436960.663 7  24060162.099          45.000       -4697.379
 128462259.906 7  24445565.066          45.000        1048.267
 132224463.51735  25161475.604          34.000       -4685.786
 131762224.949 6  25073514.006          38.000       -5665.688
 132084923.162 6  25134932.513          41.000        1775.417
 195958750.899 7  37289715.559          43.000       -2013.453
 196285297.413 7  37351854.424          42.000       -2013.489
 135555440.42535  25795342.716          31.000         -25.585
 07  8 29  8 10  4.0000000  0 13G 3G19G16G25G13G23G27G21G31G11S29S37
                                G22
 106565292.723 8  20278704.376          50.000       -2604.966
 110277468.429 8  20985107.365          48.000        -837.483
 115246256.955 8  21930639.228          48.000       -3545.798
 118093441.879 7  22472440.107          47.000         146.279
 124489303.091 7  23689529.597          44.000       -3776.577
 126441656.399 7  24061055.953          44.000       -4694.052
 128461211.822 7  24445365.610          42.000        1048.587
 132229147.60826  25162368.079          40.000       -4683.254
 131767891.86336  25074592.586          40.000       -5665.960
 132083146.969 6  25134594.415          40.000        1776.540
 195960761.439 6  37290097.930          41.000       -2009.419
 196287309.798 7  37352237.404          42.000       -2011.458
                  25795350.813          27.000         -25.146
 07  8 29  8 10  5.0000000  0 13G 3G19G16G25G13G23G27G21G31G11S29S37
                                G22
 106567897.384 8  20279200.259          50.000       -2604.093
 110278305.201 8  20985266.146          48.000        -835.611
 115249801.744 8  21931313.662          50.000       -3543.913
 118093295.242 7  22472411.733          46.000         147.374
 124493079.521 8  23690247.639          48.000       -3775.468
 126446349.838 7  24061948.986          44.000       -4692.996
 128460162.498 6  24445165.666          40.000        1050.601
 132233830.61327  25163260.274          42.000       -4681.817
 131773556.06326  25075670.244          37.000       -5660.508
 132081368.077 6  25134256.458          40.000        1781.064
 195962769.257 7  37290479.847          44.000       -2005.690
 196289319.770 7  37352619.931          42.000       -2009.408
                  25795355.124          27.000         -24.538
 07  8 29  8 10  6.0000000  0 13G 3G19G16G25G13G23G27G21G31G11S29S37
                                G22
 106570500.575 8  20279695.881          50.000       -2602.581
 110279140.325 8  20985424.803          49.000        -834.649
 115253344.776 8  21931987.748          50.000       -3542.293
 118093147.273 7  22472383.325          43.000         149.084
 124496854.270 7  23690965.646          46.000       -3774.267
 126451041.068 7  24062841.461          45.000       -4690.019
 128459111.842 6  24444966.001          41.000        1051.458
 132238512.40227  25164151.387          43.000       -4681.377
 131779217.80026  25076747.830          39.000       -5660.207
 132079586.552 6  25133917.767          41.000        1780.350
 195964774.596 7  37290861.519          42.000       -2004.305
 196291327.759 7  37353002.109          43.000       -2007.587
                  25795359.314          27.000         -20.390
 07  8 29  8 10  7.0000000  0 13G 3G19G16G25G13G23G27G21G31G11S29S37
                                G22
 106573102.394 8  20280191.084          51.000       -2601.107
 110279974.106 8  20985583.601          49.000        -832.924
 115256886.084 8  21932661.449          49.000       -3540.929
 118092998.241 7  22472355.597          44.000         149.541
 124500627.874 7  23691683.968          45.000       -3772.747
 126455730.640 7  24063733.499          45.000       -4687.840
 128458059.715 7  24444766.319          43.000        1052.234
 132243192.67627  25165041.977          43.000       -4678.751
 131784877.48726  25077824.544          40.000       -5657.670
 132077803.352 6  25133578.292          41.000        1785.800
 195966778.157 7  37291242.964          43.000       -2001.099
 196293333.682 7  37353383.851          43.000       -2005.037
                  25795361.704          27.000         -19.858
 07  8 29  8 10  8.0000000  0 13G 3G19G16G25G13G23G27G21G31G11S29S37
                                G22
 106575702.660 8  20280685.693          51.000       -2599.115
 110280806.201 8  20985742.433          50.000        -831.301
 115260425.663 8  21933334.679          49.000       -3538.080
 118092847.578 6  22472326.979          36.000         151.615
 124504399.814 7  23692401.608          46.000       -3771.324
 126460418.069 7  24064625.398          45.000       -4686.395
 128457006.001 7  24444566.671          44.000        1053.733
 132247871.57226  25165933.038          40.000       -4677.939
 131790534.90627  25078901.101          42.000       -5656.937
 132076017.647 6  25133238.782          38.000        1788.571
 195968779.282 7  37291623.764          43.000       -1999.139
 196295337.050 7  37353765.157          44.000       -2001.091
                  25795365.996          24.000         -22.417
 07  8 29  8 10  9.0000000  0 12G 3G19G16G25G13G23G27G21G31G11S29S37
 106578301.554 8  20281180.442          52.000       -2598.097
 110281636.775 8  20985901.109          50.000        -828.960
 115263963.743 8  21934007.682          48.000       -3537.733
                  22472299.077          32.000         154.217
 124508170.207 7  23693118.534          43.000       -3768.395
 126465103.460 7  24065516.966          45.000       -4682.170
 128455950.883 6  24444365.978          41.000        1056.881
 132252549.24626  25166823.488          41.000       -4677.829
 131796190.31327  25079977.065          42.000       -5654.077
 132074229.522 6  25132898.451          41.000        1790.848
 195970778.419 7  37292004.353          43.000       -1998.964
 196297338.351 7  37354145.991          44.000       -2001.169
 07  8 29  8 10 10.0000000  0 12G 3G19G16G25G13G23G27G21G31G11S29S37
 106580899.071 8  20281674.144          51.000       -2596.635
 110282464.866 8  20986058.511          50.000        -826.834
 115267501.537 8  21934680.458          48.000       -3537.079
 118092567.67325  22472268.574          31.000         153.333
 124511937.233 7  23693835.931          44.000       -3765.471
 126469785.270 7  24066408.900          46.000       -4679.989
 128454893.258 6  24444164.289          41.000        1059.052
 132257227.01327  25167714.461          43.000       -4677.714
 131801844.15127  25081053.290          42.000       -5652.079
 132072438.121 6  25132557.475          41.000        1792.585
 195972775.920 7  37292384.350          42.000       -1995.132
 196299337.946 7  37354526.441          42.000       -1999.829
 07  8 29  8 10 11.0000000  0 12G 3G19G16G25G13G23G27G21G31G11S29S37
 106583495.128 8  20282168.405          52.000       -2595.134
 110283290.378 8  20986215.791          50.000        -824.072
 115271039.248 8  21935353.669          48.000       -3538.132
 118092411.06535  22472238.298          32.000         155.627
 124515700.740 7  23694551.566          43.000       -3760.759
 126474463.357 7  24067299.107          45.000       -4674.880
 128453832.957 6  24443962.286          41.000        1061.605
 132261904.92927  25168604.702          42.000       -4677.678
 131807496.73927  25082128.572          42.000       -5652.632
 132070643.354 6  25132216.098          41.000        1796.401
 195974771.108 7  37292763.963          42.000       -1994.039
 196301335.893 7  37354906.508          42.000       -1996.875
 07  8 29  8 10 12.0000000  0 12G 3G19G16G25G13G23G27G21G31G11S29S37
 106586089.758 8  20282662.351          52.000       -2593.574
 110284112.899 8  20986372.687          50.000        -820.867
 115274577.692 8  21936026.812          48.000       -3537.611
 118092250.98935  22472206.089          33.000         165.395
 124519459.851 7  23695267.079          44.000       -3757.680
 126479137.065 7  24068188.197          46.000       -4672.101
 128452769.245 7  24443760.022          42.000        1065.009
 132266583.57827  25169494.958          43.000       -4679.782
 131813148.85227  25083204.100          42.000       -5651.621
 132068844.989 6  25131873.708          39.000        1799.752
 195976764.499 6  37293143.069          41.000       -1993.331
 196303332.766 7  37355286.382          43.000       -1997.111
 07  8 29  8 10 13.0000000  0 11G 3G19G16G13G23G27G21G31G11S29S37
 106588682.703 8  20283155.949          51.000       -2591.884
 110284933.157 8  20986528.449          50.000        -817.943
 115278116.047 8  21936700.704          50.000       -3538.814
 124523215.828 7  23695982.277          44.000       -3754.611
 126483808.183 7  24069076.868          47.000       -4669.011
 128451701.871 7  24443556.641          44.000        1069.715
 132271261.174 6  25170384.921          39.000       -4676.962
                  25084279.607          37.000       -5656.506
 132067045.110 6  25131531.823          41.000        1799.297
 195978757.114 7  37293522.140          42.000       -1993.179
 196305329.016 6  37355666.412          41.000       -1997.312
 07  8 29  8 10 14.0000000  0 12G 3G19G16G25G13G23G27G21G31G11S29S37
 106591273.197 8  20283649.180          49.000       -2589.546
 110285750.330 8  20986683.861          49.000        -816.273
 115281655.460 8  21937374.945          49.000       -3539.590
 118091899.74138  22472141.352          48.000         172.743
 124526966.693 7  23696696.395          46.000       -3748.552
 126488476.052 7  24069964.963          42.000       -4665.840
 128450627.963 7  24443351.447          45.000        1077.359
 132275937.58737  25171275.232          42.000       -4674.350
                  25085354.418          35.000       -5656.261
 132065244.416 6  25131189.031          41.000        1799.591
 195980750.456 7  37293901.612          43.000       -1995.038
 196307326.165 7  37356046.443          44.000       -1997.583
 07  8 29  8 10 15.0000000  0 12G 3G19G16G25G13G23G27G21G31G11S29S37
 106593861.102 8  20284141.452          48.000       -2586.939
 110286564.875 8  20986838.262          49.000        -812.776
 115285195.121 8  21938048.419          49.000       -3539.143
 118091726.05327  22472110.309          47.000         176.448
 124530713.576 7  23697409.691          47.000       -3744.479
 126493141.778 7  24070853.197          46.000       -4663.821
 128449547.930 7  24443146.148          44.000        1083.019
                  25172165.001          34.000       -4673.972
 131830077.03837  25086429.665          42.000       -5657.739
 132063443.656 7  25130846.467          43.000        1803.177
 195982744.608 7  37294281.121          44.000       -1991.182
 196309323.886 7  37356426.649          43.000       -1996.963
 07  8 29  8 10 16.0000000  0 12G 3G19G16G25G13G23G27G21G31G11S29S37
 106596446.919 8  20284633.392          48.000       -2585.082
 110287376.770 8  20986992.418          49.000        -810.467
 115288734.634 8  21938721.701          49.000       -3538.805
 118091548.55327  22472076.701          47.000         179.769
 124534456.712 7  23698121.714          47.000       -3741.370
 126497804.656 7  24071740.856          46.000       -4660.879
 128448463.474 7  24442939.835          43.000        1086.693
                  25173053.689          32.000       -4671.285
 131835736.08727  25087506.133          42.000       -5660.049
 132061641.375 6  25130503.833          40.000        1804.424
 195984737.603 7  37294660.488          43.000       -1991.500
 196311321.007 7  37356806.628          42.000       -1995.294
 07  8 29  8 10 17.0000000  0 12G 3G19G16G25G13G23G27G21G31G11S29S37
 106599031.160 8  20285124.878          48.000       -2583.562
 110288186.451 8  20987146.679          49.000        -808.306
 115292274.074 8  21939395.401          48.000       -3539.014
 118091368.07927  22472042.360          47.000         182.677
 124538196.704 8  23698833.439          48.000       -3738.647
 126502464.747 7  24072628.358          46.000       -4657.784
 128447375.631 7  24442732.685          45.000        1089.724
                  25173942.794          36.000       -4675.033
 131841395.11427  25088582.987          42.000       -5657.116
 132059837.012 6  25130160.238          38.000        1805.510
 195986729.629 7  37295039.473          43.000       -1989.113
 196313317.384 7  37357186.414          42.000       -1995.410
 07  8 29  8 10 18.0000000  0 12G 3G19G16G25G13G23G27G21G31G11S29S37
 106601613.959 8  20285616.364          48.000       -2581.935
 110288994.083 8  20987300.189          49.000        -806.522
 115295812.160 8  21940068.910          48.000       -3537.482
 118091186.12328  22472007.565          48.000         182.660
 124541934.486 7  23699545.060          47.000       -3736.637
 126507121.946 7  24073514.742          46.000       -4656.354
 128446286.244 7  24442525.254          45.000        1089.808
 132294629.47336  25174831.113          36.000       -4678.895
 131847051.54626  25089659.806          39.000       -5654.777
 132058029.487 6  25129816.401          39.000        1809.397
 195988718.807 7  37295417.916          42.000       -1988.776
 196315310.969 7  37357565.853          43.000       -1992.059
 07  8 29  8 10 19.0000000  0 12G 3G19G16G25G13G23G27G21G31G11S29S37
 106604195.645 8  20286107.431          48.000       -2581.227
 110289800.449 8  20987453.612          49.000        -804.829
 115299348.830 8  21940741.931          48.000       -3536.195
 118091003.27428  22471973.450          48.000         183.321
 124545670.996 7  23700256.297          47.000       -3735.253
 126511777.343 7  24074400.307          46.000       -4654.173
 128445195.922 7  24442317.719          46.000        1090.822
 132299307.49236  25175719.368          40.000       -4668.569
 131852705.79726  25090735.299          39.000       -5651.547
 132056219.85835  25129471.987          34.000        1812.715
 195990706.310 7  37295796.116          44.000       -1984.939
 196317302.499 7  37357944.751          43.000       -1989.983
 07  8 29  8 10 20.0000000  0 12G 3G19G16G25G13G23G27G21G31G11S29S37
 106606775.981 8  20286598.428          49.000       -2580.284
 110290605.448 8  20987606.912          49.000        -804.883
 115302883.732 8  21941414.463          48.000       -3533.509
 118090819.30228  22471938.829          48.000         184.658
 124549406.250 7  23700966.783          47.000       -3734.374
 126516430.984 7  24075285.731          45.000       -4653.312
 128444104.288 7  24442109.731          46.000        1093.519
                  25176607.881          37.000       -4667.882
 131858357.84536  25091811.368          39.000       -5648.048
 132054407.93826  25129126.666          38.000        1815.568
 195992691.665 6  37296173.722          41.000       -1982.743
 196319291.968 6  37358323.247          41.000       -1986.758
 07  8 29  8 10 21.0000000  0 12G 3G19G16G25G13G23G27G21G31G11S29S37
 106609355.017 8  20287088.989          48.000       -2577.473
 110291409.240 8  20987760.108          50.000        -803.409
 115306417.152 8  21942086.681          48.000       -3532.262
 118090633.95828  22471903.510          48.000         186.042
 124553140.265 7  23701677.478          47.000       -3733.542
 126521083.186 7  24076171.138          45.000       -4652.823
 128443011.024 7  24441901.620          46.000        1094.113
 132308632.01726  25177495.715          41.000       -4664.302
 131864008.38836  25092885.917          36.000       -5651.299
 132052594.51927  25128781.884          42.000        1814.567
 195994675.632 7  37296551.205          44.000       -1983.668
 196321279.929 7  37358701.515          43.000       -1986.603
 07  8 29  8 10 22.0000000  0 12G 3G19G16G25G13G23G27G21G31G11S29S37
 106611932.164 8  20287579.673          48.000       -2575.656
 110292212.554 8  20987912.815          48.000        -803.086
 115309947.867 8  21942758.812          49.000       -3528.929
 118090447.24827  22471868.610          47.000         186.367
 124556874.407 8  23702388.085          48.000       -3735.313
 126525735.929 7  24077056.335          45.000       -4654.023
 128441915.700 7  24441693.474          45.000        1096.615
 132313295.72036  25178384.386          36.000       -4660.906
 131869658.10127  25093961.358          42.000       -5647.676
                  25128437.000          39.000        1819.408
 195996658.458 7  37296928.497          43.000       -1981.327
 196323267.201 6  37359079.714          41.000       -1986.338
 07  8 29  8 10 23.0000000  0 13G 3G19G16G25G13G23G27G21G31G11S29S37
                                G22
 106614506.986 8  20288069.274          48.000       -2572.987
 110293015.911 8  20988065.906          50.000        -803.811
 115313474.551 8  21943430.473          49.000       -3524.430
 118090259.24927  22471832.419          46.000         189.723
 124560609.876 7  23703098.815          45.000       -3734.294
 126530390.748 7  24077941.706          46.000       -4654.285
 128440818.415 7  24441484.666          44.000        1097.694
 132317953.88735  25179270.492          33.000       -4657.406
 131875307.40527  25095036.570          43.000       -5647.662
 132049014.74436  25128092.023          38.000        1810.698
 195998640.888 7  37297305.719          42.000       -1980.931
 196325253.844 6  37359457.564          41.000       -1986.234
                  25795420.935          28.000          -7.591
 07  8 29  8 10 24.0000000  0 13G 3G19G16G25G13G23G27G21G31G11S29S37
                                G22
 106617079.732 8  20288558.614          48.000       -2571.640
 110293819.919 8  20988218.857          50.000        -804.325
 115316996.766 8  21944100.406          49.000       -3519.393
 118090070.77128  22471796.629          48.000         189.388
 124564347.482 7  23703810.469          46.000       -3737.431
 126535048.217 7  24078828.123          42.000       -4658.577
 128439719.852 7  24441275.577          43.000        1097.683
 132322606.83936  25180155.866          40.000       -4650.396
 131880955.63536  25096110.892          37.000       -5648.880
 132047205.77135  25127747.293          34.000        1807.180
 196000623.186 6  37297682.731          41.000       -1980.387
 196327239.646 7  37359835.466          43.000       -1984.900
                  25795423.032          27.000           1.169
 07  8 29  8 10 25.0000000  0 13G 3G19G16G25G13G23G27G21G31G11S29S37
                                G22
 106619650.720 8  20289047.465          49.000       -2570.003
 110294624.147 8  20988371.651          49.000        -804.090
 115320515.512 8  21944770.041          51.000       -3517.670
 118089881.627 8  22471761.275          48.000         190.090
 124568086.531 7  23704522.141          47.000       -3738.523
 126539707.206 7  24079714.507          43.000       -4659.352
 128438619.917 7  24441066.455          44.000        1101.896
 132327254.54626  25181040.804          40.000       -4643.978
 131886602.74227  25097186.002          42.000       -5645.596
 132045398.59936  25127403.489          37.000        1806.937
 196002604.911 7  37298059.673          44.000       -1980.878
 196329224.549 6  37360213.211          41.000       -1985.212
                  25795424.901          27.000           4.132
 07  8 29  8 10 26.0000000  0 13G 3G19G16G25G13G23G27G21G31G11S29S37
                                G22
 106622219.186 8  20289536.456          49.000       -2567.492
 110295427.493 8  20988524.009          48.000        -802.283
 115324031.691 8  21945439.223          50.000       -3514.609
 118089689.761 8  22471725.119          50.000         193.455
 124571825.124 7  23705233.778          47.000       -3739.042
 126544367.077 7  24080600.769          47.000       -4657.649
 128437516.429 7  24440856.390          44.000        1104.077
 132331897.63836  25181924.692          38.000       -4644.197
 131892250.82327  25098260.968          44.000       -5649.919
                  25127059.980          30.000        1805.027
 196004586.823 7  37298436.877          44.000       -1980.959
 196331209.342 6  37360591.096          41.000       -1983.370
                  25795423.520          27.000          -1.048
 07  8 29  8 10 27.0000000  0 13G 3G19G16G25G13G23G27G21G31G11S29S37
                                G22
 106624784.842 8  20290024.522          50.000       -2563.941
 110296229.055 8  20988676.106          48.000        -800.805
 115327544.961 8  21946107.760          50.000       -3511.886
 118089495.780 8  22471688.317          50.000         194.709
 124575562.790 8  23705944.980          48.000       -3735.869
 126549026.391 8  24081486.996          48.000       -4656.753
 128436410.716 7  24440645.731          44.000        1104.083
 132336538.07036  25182808.111          38.000       -4640.762
 131897897.96827  25099336.060          47.000       -5645.426
 132041786.19835  25126716.595          35.000        1806.522
 196006567.209 7  37298813.767          43.000       -1978.738
 196333192.449 7  37360968.475          42.000       -1982.508
                  25795423.694          29.000          -1.655
 07  8 29  8 10 28.0000000  0 13G 3G19G16G25G13G23G27G21G31G11S29S37
                                G22
 106627348.895 8  20290512.535          50.000       -2563.162
 110297029.036 8  20988828.377          48.000        -798.865
 115331056.138 8  21946775.912          50.000       -3510.092
 118089300.703 8  22471651.411          50.000         196.290
 124579299.367 7  23706655.728          47.000       -3734.950
 126553683.997 8  24082373.450          48.000       -4656.528
 128435303.879 7  24440435.266          44.000        1108.789
 132341176.94726  25183691.108          39.000       -4643.375
 131903542.71227  25100410.907          47.000       -5643.621
 132039977.71026  25126371.187          39.000        1810.307
 196008544.979 6  37299190.013          41.000       -1974.538
 196335173.039 6  37361345.435          40.000       -1981.739
 135555865.58235  25795423.663          31.000           7.155
 07  8 29  8 10 29.0000000  0 13G 3G19G16G25G13G23G27G21G31G11S29S37
                                G22
 106629912.122 8  20291000.094          50.000       -2563.777
 110297828.146 8  20988980.229          48.000        -799.136
 115334565.866 8  21947443.872          50.000       -3508.650
 118089105.053 8  22471614.224          50.000         196.268
 124583035.078 7  23707366.458          47.000       -3735.196
 126558340.188 8  24083259.433          49.000       -4655.303
 128434196.238 7  24440224.519          44.000        1108.112
 132345814.65726  25184573.969          40.000       -4637.825
 131909185.12527  25101484.516          45.000       -5639.336
 132038167.33726  25126025.708          36.000        1811.021
 196010521.096 7  37299566.082          42.000       -1975.398
 196337151.878 6  37361722.012          40.000       -1976.688
 135555860.25835  25795422.283          35.000           4.153
 07  8 29  8 10 30.0000000  0 13G 3G19G16G25G13G23G27G21G31G11S29S37
                                G22
 106632474.606 8  20291487.933          50.000       -2561.957
 110298626.596 8  20989132.151          48.000        -798.069
 115338073.661 8  21948111.379          50.000       -3506.020
 118088909.392 8  22471576.898          49.000         195.764
 124586770.365 7  23708077.083          46.000       -3735.258
 126562995.018 8  24084145.503          49.000       -4654.594
 128433088.470 7  24440013.755          43.000        1107.031
 132350451.04626  25185456.340          39.000       -4636.570
 131914824.48127  25102557.653          46.000       -5637.660
 132036354.56835  25125680.893          34.000        1815.030
 196012494.773 7  37299941.543          42.000       -1970.006
 196339128.381 6  37362098.240          41.000       -1974.538
 135555852.89126  25795420.854          38.000           8.318
 07  8 29  8 10 31.0000000  0 13G 3G19G16G25G13G23G27G21G31G11S29S37
                                G22
 106635037.452 8  20291975.614          50.000       -2562.801
 110299424.660 7  20989284.299          47.000        -797.992
 115341579.164 8  21948778.431          49.000       -3504.120
 118088716.017 8  22471540.199          48.000         191.189
 124590505.972 7  23708788.302          47.000       -3733.917
 126567647.392 7  24085031.068          46.000       -4650.316
 128431983.556 7  24439803.408          44.000        1102.041
 132355088.44836  25186337.733          39.000       -4635.898
 131920457.639 7  25103629.397          46.000       -5627.703
 132034536.96326  25125334.788          38.000        1821.682
 196014463.977 6  37300316.533          40.000       -1963.919
 196341100.234 6  37362473.527          40.000       -1967.465
 135555840.65027  25795418.798          42.000          16.208
 07  8 29  8 10 32.0000000  0 13G 3G19G16G25G13G23G27G21G31G11S29S37
                                G22
 106637601.363 8  20292463.958          51.000       -2564.138
 110300222.041 7  20989436.239          47.000        -796.575
 115345082.745 8  21949444.838          49.000       -3502.406
 118088526.222 8  22471504.128          48.000         188.427
 124594241.628 7  23709499.555          46.000       -3735.818
 126572295.805 7  24085915.796          45.000       -4646.187
 128430883.566 7  24439594.318          46.000        1097.640
 132359728.17426  25187219.788          40.000       -4640.862
 131926081.423 7  25104699.325          46.000       -5619.550
 132032712.08726  25124987.706          40.000        1828.565
 196016426.610 6  37300690.057          40.000       -1958.536
 196343065.643 6  37362847.662          41.000       -1961.181
 135555822.92227  25795416.129          44.000          20.199
 07  8 29  8 10 33.0000000  0 13G 3G19G16G25G13G23G27G21G31G11S29S37
                                G22
 106640165.823 8  20292952.267          51.000       -2564.294
 110301018.259 7  20989587.672          47.000        -795.515
 115348584.800 8  21950111.437          49.000       -3501.141
 118088338.818 8  22471468.861          48.000         186.959
 124597976.629 7  23710210.180          45.000       -3734.135
 126576940.351 7  24086799.336          44.000       -4643.238
 128429786.975 7  24439385.561          46.000        1096.022
 132364370.39027  25188103.065          43.000       -4642.602
 131931697.903 7  25105768.205          46.000       -5613.211
 132030880.79326  25124639.401          40.000        1832.782
 196018383.955 6  37301062.673          41.000       -1955.456
 196345025.307 7  37363220.558          42.000       -1956.171
 135555800.96327  25795412.484          43.000          23.860
 07  8 29  8 10 34.0000000  0 13G 3G19G16G25G13G23G27G21G31G11S29S37
                                G22
 106642729.772 8  20293440.368          51.000       -2563.202
 110301813.283 7  20989738.513          47.000        -794.103
 115352085.330 8  21950777.670          49.000       -3499.616
 118088151.745 8  22471433.506          48.000         187.216
 124601710.688 7  23710920.562          45.000       -3732.767
 126581582.369 7  24087682.527          43.000       -4642.479
 128428691.012 7  24439176.996          47.000        1097.272
 132369012.81527  25188987.460          44.000       -4641.057
 131937310.328 7  25106836.578          46.000       -5611.357
 132029045.81526  25124289.822          40.000        1835.260
 196020338.237 6  37301434.677          41.000       -1954.059
 196346981.671 6  37363592.928          41.000       -1954.812
 135555776.22327  25795408.017          44.000          25.548
 07  8 29  8 10 35.0000000  0 13G 3G19G16G25G13G23G27G21G31G11S29S37
                                G22
 106645292.206 8  20293928.032          51.000       -2561.381
 110302606.830 7  20989889.492          47.000        -793.003
 115355584.168 8  21951443.867          49.000       -3498.051
 118087963.201 8  22471397.351          48.000         189.709
 124605443.254 7  23711630.559          45.000       -3731.977
 126586222.651 7  24088565.265          44.000       -4638.727
 128427593.369 7  24438968.205          47.000        1099.075
 132373653.64837  25189871.663          43.000       -4639.697
 131942920.842 7  25107904.532          46.000       -5609.607
 132027208.84726  25123940.522          41.000        1837.578
 196022290.486 6  37301806.263          41.000       -1952.115
 196348936.041 6  37363964.845          41.000       -1954.085
 135555749.62127  25795403.306          43.000          26.690
 07  8 29  8 10 36.0000000  0 13G 3G19G16G25G13G23G27G21G31G11S29S37
                                G22
 106647853.092 8  20294415.295          51.000       -2559.789
 110303398.856 7  20990040.019          47.000        -791.001
 115359081.287 8  21952109.472          49.000       -3496.129
 118087773.164 8  22471360.950          48.000         191.065
 124609174.310 7  23712340.539          45.000       -3730.073
 126590861.110 7  24089447.531          44.000       -4637.758
 128426493.985 7  24438758.925          47.000        1100.459
 132378292.87327  25190754.819          44.000       -4638.223
 131948529.539 7  25108971.806          46.000       -5606.977
 132025369.94726  25123590.436          41.000        1839.174
 196024240.609 6  37302177.221          41.000       -1948.621
 196350888.544 7  37364336.448          42.000       -1953.190
 135555721.22926  25795398.107          41.000          28.787
 07  8 29  8 10 37.0000000  0 13G 3G19G16G25G13G23G27G21G31G11S29S37
                                G22
 106650412.408 8  20294902.314          51.000       -2558.333
 110304189.429 7  20990190.283          47.000        -789.117
 115362576.765 8  21952774.413          49.000       -3494.302
 118087581.513 8  22471324.759          48.000         192.491
 124612903.896 7  23713050.380          46.000       -3728.155
 126595497.983 7  24090329.954          44.000       -4636.039
 128425392.667 7  24438549.349          46.000        1102.379
 132382930.31327  25191637.539          43.000       -4636.088
 131954136.654 7  25110039.236          45.000       -5606.227
 132023529.871 6  25123240.508          41.000        1841.979
 196026188.991 7  37302547.812          42.000       -1946.605
 196352839.240 7  37364707.685          43.000       -1949.816
 135555691.519 7  25795392.820          42.000          30.930
 07  8 29  8 10 38.0000000  0 13G 3G19G16G25G13G23G27G21G31G11S29S37
                                G22
 106652969.950 8  20295388.827          51.000       -2556.607
 110304978.624 7  20990340.355          47.000        -788.495
 115366070.657 8  21953438.534          49.000       -3492.945
 118087387.802 8  22471288.079          48.000         195.353
 124616632.023 7  23713760.063          45.000       -3727.650
 126600133.683 7  24091212.674          44.000       -4634.721
 128424288.822 7  24438339.599          47.000        1106.144
 132387565.45727  25192519.125          42.000       -4632.766
 131959743.158 7  25111105.723          45.000       -5606.771
 132021688.486 6  25122890.177          41.000        1840.789
 196028135.986 7  37302918.176          42.000       -1945.520
 196354788.878 7  37365078.694          42.000       -1948.952
 135555660.036 6  25795386.241          40.000          31.048
 07  8 29  8 10 39.0000000  0 13G 3G19G16G25G13G23G27G21G31G11S29S37
                                G22
 106655524.562 8  20295875.079          51.000       -2552.053
 110305766.564 7  20990490.515          47.000        -787.191
 115369562.973 8  21954102.864          49.000       -3491.235
 118087189.623 8  22471250.511          48.000         201.204
 124620358.430 7  23714469.363          46.000       -3725.110
 126604770.038 7  24092095.008          43.000       -4637.494
 128423179.087 7  24438128.367          46.000        1114.075
 132392195.49327  25193399.544          44.000       -4624.994
 131965352.978 7  25112172.855          46.000       -5612.190
 132019849.674 6  25122539.880          41.000        1837.113
 196030085.078 7  37303288.834          43.000       -1950.923
 196356740.345 6  37365450.348          41.000       -1951.383
 135555629.005 6  25795379.994          40.000          30.392
 07  8 29  8 10 40.0000000  0 13G 3G19G16G25G13G23G27G21G31G11S29S37
                                G22
 106658076.023 8  20296360.579          51.000       -2551.015
 110306552.702 7  20990640.326          47.000        -785.272
 115373053.774 8  21954767.194          49.000       -3490.163
 118086986.636 8  22471211.668          48.000         203.808
 124624082.590 7  23715178.070          46.000       -3723.097
 126609406.393 7  24092977.694          45.000       -4635.546
 128422063.162 7  24437915.842          46.000        1117.546
 132396820.69427  25194279.646          43.000       -4624.909
 131970965.861 7  25113240.895          46.000       -5612.846
 132018012.784 7  25122189.916          43.000        1837.802
 196032035.538 6  37303660.070          41.000       -1950.131
 196358693.415 6  37365822.003          41.000       -1951.655
 135555598.525 6  25795374.584          41.000          29.840
 07  8 29  8 10 41.0000000  0 13G 3G19G16G25G13G23G27G21G31G11S29S37
                                G22
 106660625.832 8  20296845.818          51.000       -2549.147
 110307336.934 7  20990789.317          46.000        -782.770
 115376543.518 8  21955431.786          50.000       -3489.320
 118086781.379 8  22471172.127          48.000         207.261
 124627804.354 7  23715885.869          46.000       -3719.216
 126614040.412 7  24093859.332          47.000       -4632.351
 128420944.735 7  24437703.090          45.000        1119.644
 132401444.53427  25195159.259          43.000       -4623.381
 131976577.603 7  25114309.041          45.000       -5610.306
 132016173.817 6  25121839.953          40.000        1840.525
 196033984.399 6  37304030.888          41.000       -1947.576
 196360645.284 6  37366193.274          41.000       -1950.744
 135555567.147 7  25795368.564          43.000          30.898
 07  8 29  8 10 42.0000000  0 13G 3G19G16G25G13G23G27G21G31G11S29S37
                                G22
 106663174.340 8  20297330.778          50.000       -2547.881
 110308118.963 7  20990938.168          47.000        -780.660
 115380032.948 8  21956095.959          50.000       -3490.074
 118086573.908 8  22471132.569          48.000         209.751
 124631522.957 7  23716593.826          46.000       -3715.825
 126618671.049 7  24094740.430          44.000       -4627.590
 128419823.824 7  24437489.709          44.000        1122.346
 132406068.17027  25196039.832          42.000       -4624.032
 131982187.666 6  25115376.506          40.000       -5609.350
 132014331.765 6  25121489.973          39.000        1844.379
 196035931.278 7  37304401.462          43.000       -1945.878
 196362595.209 7  37366564.231          42.000       -1950.112
 135555535.384 7  25795362.666          43.000          30.483
 07  8 29  8 10 43.0000000  0 13G 3G19G16G25G13G23G27G21G31G11S29S37
                                G22
 106665721.146 8  20297815.144          49.000       -2545.940
 110308896.861 8  20991086.933          49.000        -774.974
 115383524.730 8  21956760.305          49.000       -3492.889
 118086361.452 8  22471091.825          48.000         216.163
 124635235.169 7  23717300.109          42.000       -3707.829
 126623295.930 7  24095620.744          44.000       -4620.640
 128418697.521 7  24437275.318          43.000        1129.083
                  25196920.074          35.000       -4621.797
 131987798.74336  25116442.958          39.000       -5611.649
 132012485.814 6  25121139.574          41.000        1847.755
 196037877.302 7  37304771.878          43.000       -1944.944
 196364544.566 7  37366935.083          42.000       -1949.521
 135555507.333 6  25795357.534          40.000          25.644
 07  8 29  8 10 44.0000000  0 13G 3G19G16G25G13G23G27G21G31G11S29S37
                                G22
 106668266.063 8  20298299.650          49.000       -2544.089
 110309669.487 8  20991234.337          49.000        -770.140
 115387020.114 8  21957425.610          50.000       -3496.854
 118086142.826 7  22471049.510          46.000         221.765
 124638938.854 7  23718004.630          47.000       -3699.402
 126627913.149 7  24096499.540          43.000       -4613.974
 128417564.734 7  24437059.322          44.000        1136.069
 132415335.63326  25197800.610          39.000       -4628.414
 131993411.94026  25117511.225          41.000       -5613.316
 132010634.728 7  25120787.377          42.000        1851.198
 196039822.005 7  37305141.945          42.000       -1944.167
 196366493.323 6  37367305.848          41.000       -1948.421
 135555484.725 6  25795352.523          41.000          19.354
 07  8 29  8 10 45.0000000  0 13G 3G19G16G25G13G23G27G21G31G11S29S37
                                G22
 106670808.661 8  20298783.354          49.000       -2541.102
 110310437.601 8  20991380.816          49.000        -765.888
 115390517.884 8  21958091.108          50.000       -3498.931
 118085917.998 7  22471006.794          47.000         228.247
 124642635.269 7  23718707.806          47.000       -3693.565
 126632524.578 7  24097377.532          43.000       -4608.103
 128416425.056 7  24436842.471          44.000        1143.771
 132419964.83826  25198681.321          39.000       -4631.789
 131999027.63726  25118580.049          41.000       -5616.232
 132008780.410 6  25120435.269          40.000        1857.826
 196041765.788 6  37305511.610          41.000       -1944.497
 196368442.152 6  37367676.822          41.000       -1948.870
 135555466.732 7  25795348.979          43.000          15.682
 07  8 29  8 10 46.0000000  0 13G 3G19G16G25G13G23G27G21G31G11S29S37
                                G22
 106673348.643 8  20299266.586          49.000       -2537.981
 110311201.959 8  20991526.439          49.000        -762.806
 115394017.311 8  21958756.956          50.000       -3499.848
 118085686.879 7  22470962.508          46.000         234.918
 124646325.646 7  23719409.517          47.000       -3687.930
 126637132.020 7  24098254.425          44.000       -4603.385
 128415278.024 7  24436624.242          45.000        1151.335
 132424593.09126  25199562.401          38.000       -4628.475
 132004646.79426  25119649.397          41.000       -5621.837
 132006924.25836  25120081.797          38.000        1854.216
 196043710.617 7  37305881.606          42.000       -1945.998
 196370392.005 7  37368047.760          42.000       -1952.230
 135555452.750 6  25795345.784          41.000          11.812
 07  8 29  8 10 47.0000000  0 13G 3G19G16G25G13G23G27G21G31G11S29S37
                                G22
 106675885.738 8  20299749.505          50.000       -2535.780
 110311963.089 8  20991671.486          49.000        -759.810
 115397517.697 8  21959422.995          51.000       -3501.249
 118085449.530 7  22470917.471          45.000         239.083
 124650010.911 7  23720110.965          47.000       -3683.044
 126641736.652 7  24099130.495          45.000       -4604.373
 128414123.561 7  24436404.267          45.000        1157.116
 132429219.19436  25200441.771          39.000       -4624.937
 132010269.98826  25120719.617          41.000       -5626.628
 132005068.77136  25119728.830          38.000        1852.954
 196045656.598 7  37306251.830          42.000       -1946.557
 196372343.274 7  37368419.241          42.000       -1952.266
 135555442.288 6  25795343.811          38.000           7.349
 07  8 29  8 10 48.0000000  0 13G 3G19G16G25G13G23G27G21G31G11S29S37
                                G22
 106678419.936 8  20300231.673          49.000       -2532.796
 110312721.999 8  20991815.853          49.000        -758.312
 115401018.315 8  21960089.193          50.000       -3500.164
 118085206.337 7  22470870.707          45.000         246.831
 124653692.535 7  23720811.470          46.000       -3679.970
 126646340.480 7  24100006.740          45.000       -4604.598
 128412961.701 7  24436183.228          44.000        1165.412
 132433841.45926  25201321.439          39.000       -4618.957
 132015897.93127  25121790.675          42.000       -5630.318
 132003215.11336  25119376.319          39.000        1853.356
 196047604.275 7  37306622.629          42.000       -1947.708
 196374297.109 7  37368791.244          42.000       -1954.231
 135555434.547 6  25795341.804          37.000           6.465
 07  8 29  8 10 49.0000000  0 13G 3G19G16G25G13G23G27G21G31G11S29S37
                                G22
 106680951.186 8  20300713.213          49.000       -2529.751
 110313479.169 8  20991959.975          49.000        -756.058
 115404518.155 8  21960755.512          50.000       -3499.134
 118084958.071 7  22470823.122          46.000         251.434
 124657371.444 7  23721511.696          43.000       -3676.360
 126650944.175 7  24100882.498          45.000       -4602.482
 128411793.280 7  24435960.810          43.000        1172.844
 132438459.18426  25202200.286          40.000       -4613.861
 132021529.79626  25122862.013          41.000       -5632.278
 132001363.75326  25119023.108          39.000        1850.306
 196049554.228 7  37306993.725          43.000       -1949.242
 196376253.352 7  37369163.718          43.000       -1956.659
 135555428.364 5  25795339.344          35.000           7.827
 07  8 29  8 10 50.0000000  0 13G 3G19G16G25G13G23G27G21G31G11S29S37
                                G22
 106683479.842 8  20301194.072          49.000       -2527.179
 110314235.066 8  20992103.730          50.000        -755.747
 115408016.768 8  21961421.256          49.000       -3497.502
 118084705.805 7  22470774.996          47.000         253.855
 124661048.650 7  23722211.328          42.000       -3676.853
 126655548.262 7  24101758.690          45.000       -4603.274
 128410619.670 7  24435737.519          43.000        1176.446
 132443072.88926  25203078.383          36.000       -4609.267
 132027164.44827  25123934.240          42.000       -5636.460
 131999514.42536  25118671.537          39.000        1847.716
 196051505.662 7  37307365.117          43.000       -1951.720
 196378210.879 7  37369536.261          42.000       -1959.083
 135555422.545 5  25795338.732          35.000           6.380
 07  8 29  8 10 51.0000000  0 13G 3G19G16G25G13G23G27G21G31G11S29S37
                                G22
 106686005.788 8  20301674.774          49.000       -2524.724
 110314990.500 8  20992247.136          50.000        -755.231
 115411512.929 8  21962086.791          49.000       -3494.838
 118084450.185 8  22470726.537          48.000         256.546
 124664725.680 7  23722911.098          43.000       -3677.912
 126660154.078 7  24102634.812          43.000       -4605.616
 128409441.323 7  24435513.407          42.000        1180.012
 132447680.78236  25203955.414          37.000       -4606.859
 132032801.65626  25125006.747          41.000       -5638.396
 131997668.08236  25118319.722          38.000        1845.133
 196053458.699 7  37307736.754          44.000       -1953.232
 196380169.716 7  37369909.103          42.000       -1958.000
 135555415.30735  25795337.581          34.000           7.087
 07  8 29  8 10 52.0000000  0 13G 3G19G16G25G13G23G27G21G31G11S29S37
                                G22
 106688529.101 8  20302154.830          50.000       -2521.594
 110315746.083 8  20992390.664          50.000        -755.843
 115415006.005 8  21962750.965          49.000       -3491.719
 118084191.849 8  22470678.306          48.000         259.968
 124668403.537 7  23723611.637          46.000       -3677.993
 126664762.786 7  24103512.016          44.000       -4609.829
 128408258.811 7  24435288.563          43.000        1184.652
 132452282.12526  25204831.436          40.000       -4598.432
 132038441.24326  25126079.289          39.000       -5640.151
                  25117969.214          33.000        1835.958
 196055413.465 6  37308108.652          41.000       -1955.192
 196382129.881 7  37370281.926          43.000       -1961.710
                  25795335.979          33.000          15.300
 07  8 29  8 10 53.0000000  0 13G 3G19G16G25G13G23G27G21G31G11S29S37
                                G22
 106691049.803 8  20302634.590          50.000       -2519.163
 110316501.886 8  20992534.506          50.000        -755.792
 115418495.666 8  21963415.139          50.000       -3488.082
 118083931.100 8  22470629.254          48.000         262.182
 124672082.484 7  23724312.036          46.000       -3678.961
 126669374.276 7  24104389.376          45.000       -4614.111
 128407072.625 7  24435063.334          43.000        1188.024
 132456876.89736  25205705.851          38.000       -4593.770
 132044082.58826  25127151.883          37.000       -5641.670
                  25117618.991          33.000        1842.949
 196057369.769 7  37308480.883          42.000       -1955.437
 196384090.960 7  37370655.011          43.000       -1961.508
 135555397.68236  25795334.494          36.000          12.627
 07  8 29  8 10 54.0000000  0 13G 3G19G16G25G13G23G27G21G31G11S29S37
                                G22
 106693567.845 8  20303113.547          49.000       -2516.438
 110317257.304 8  20992677.999          49.000        -755.090
 115421982.099 8  21964078.633          50.000       -3484.308
 118083667.956 8  22470579.400          48.000         264.132
 124675761.893 7  23725012.278          46.000       -3680.188
 126673987.573 7  24105267.122          45.000       -4614.002
 128405883.002 7  24434837.163          44.000        1190.706
 132461466.29826  25206579.115          41.000       -4586.833
 132049724.91926  25128226.294          38.000       -5640.999
                  25117268.761          35.000        1834.019
 196059326.260 7  37308853.165          42.000       -1956.449
 196386052.623 7  37371028.411          43.000       -1962.072
 135555384.24025  25795332.628          34.000          14.202
 07  8 29  8 10 55.0000000  0 13G 3G19G16G25G13G23G27G21G31G11S29S37
                                G22
 106696083.226 8  20303592.243          49.000       -2514.177
 110318011.835 8  20992821.615          49.000        -753.709
 115425465.365 8  21964741.655          51.000       -3482.192
 118083402.690 8  22470528.987          48.000         266.711
 124679441.336 7  23725712.469          46.000       -3679.500
 126678601.894 7  24106145.165          46.000       -4612.746
 128404690.598 7  24434610.328          44.000        1193.684
 132466051.07326  25207451.644          41.000       -4585.251
 132055367.865 6  25129300.703          40.000       -5641.797
 131990300.96136  25116919.270          37.000        1837.285
 196061282.519 6  37309225.570          41.000       -1956.249
 196388013.675 6  37371401.707          41.000       -1959.667
 135555368.68735  25795329.627          35.000          14.471
 07  8 29  8 10 56.0000000  0 13G 3G19G16G25G13G23G27G21G31G11S29S37
                                G22
 106698596.662 8  20304070.152          49.000       -2512.612
 110318764.851 8  20992964.777          49.000        -752.490
 115428946.956 8  21965404.066          50.000       -3480.427
 118083135.309 8  22470478.225          48.000         267.722
                  23726412.312          42.000       -3674.002
 126683215.136 7  24107022.807          46.000       -4611.679
 128403495.769 7  24434382.883          44.000        1195.352
 132470633.68227  25208324.086          42.000       -4580.631
 132061009.816 7  25130374.695          42.000       -5640.822
 131988465.27736  25116569.637          37.000        1836.888
 196063237.357 7  37309597.662          43.000       -1953.755
 196389973.708 7  37371774.705          42.000       -1959.495
 135555351.96825  25795326.381          34.000          13.851
 07  8 29  8 10 57.0000000  0 13G 3G19G16G25G13G23G27G21G31G11S29S37
                                G22
 106701107.829 8  20304548.202          48.000       -2509.866
 110319516.374 8  20993107.835          49.000        -750.444
 115432425.931 8  21966065.918          50.000       -3477.928
 118082866.293 8  22470427.289          48.000         270.028
 124686808.37537  23727110.878          46.000       -3676.772
 126687830.01736  24107900.187          38.000       -4610.259
 128402299.123 7  24434155.280          44.000        1197.472
 132475213.74127  25209195.743          42.000       -4579.820
 132066650.422 7  25131448.425          43.000       -5638.987
 131986628.88326  25116220.669          39.000        1840.109
 196065190.449 7  37309969.475          42.000       -1950.708
 196391932.044 7  37372147.215          43.000       -1959.033
 135555333.08325  25795323.015          34.000          19.980
 07  8 29  8 10 58.0000000  0 13G 3G19G16G25G13G23G27G21G31G11S29S37
                                G22
 106703617.465 8  20305025.902          49.000       -2508.467
 110320266.377 8  20993250.700          49.000        -749.543
 115435903.253 8  21966727.614          50.000       -3476.513
 118082595.882 8  22470375.846          48.000         271.065
 124690484.41927  23727809.812          46.000       -3675.263
 126692440.67027  24108776.153          46.000       -4610.382
 128401100.902 7  24433927.294          44.000        1199.432
 132479792.35127  25210066.631          42.000       -4577.673
 132072289.250 7  25132521.160          43.000       -5638.405
                  25115869.725          31.000        1834.425
 196067141.509 7  37310340.816          42.000       -1950.974
 196393888.992 7  37372519.447          42.000       -1957.376
                  25795318.462          23.000          22.763
 07  8 29  8 10 59.0000000  0 12G 3G19G16G25G13G23G27G21G31G11S29S37
 106706125.960 8  20305503.166          48.000       -2508.072
 110321015.372 8  20993393.094          49.000        -748.966
 115439379.204 8  21967388.890          50.000       -3475.611
 118082324.370 8  22470324.054          48.000         272.054
 124694159.42227  23728509.880          47.000       -3674.819
 126697050.32027  24109653.481          46.000       -4609.413
 128399901.281 7  24433698.714          44.000        1200.328
 132484369.38026  25210937.223          41.000       -4576.171
 132077926.524 7  25133593.982          43.000       -5635.916
 131982940.39036  25115518.542          39.000        1841.189
 196069091.577 7  37310711.878          43.000       -1948.368
 196395844.612 7  37372891.574          42.000       -1954.672
 07  8 29  8 11  0.0000000  0 12G 3G19G16G25G13G23G27G21G31G11S29S37
 106708633.425 8  20305980.064          49.000       -2506.510
 110321763.408 8  20993535.523          49.000        -747.882
 115442853.904 8  21968050.254          50.000       -3473.990
 118082051.525 8  22470272.175          48.000         273.802
 124697833.10927  23729209.617          47.000       -3672.553
 126701658.52127  24110531.000          46.000       -4607.740
 128398699.782 7  24433470.135          45.000        1202.720
 132488944.60827  25211808.042          42.000       -4574.809
 132083562.426 7  25134666.683          43.000       -5634.304
 131981099.10426  25115168.597          40.000        1844.731
 196071040.543 7  37311082.870          43.000       -1948.303
 196397798.762 6  37373263.386          41.000       -1952.750
 07  8 29  8 11  1.0000000  0 13G 3G19G16G25G13G23G27G21G31G11S29S37
                                G22
 106711139.926 8  20306457.205          49.000       -2506.149
 110322510.575 8  20993677.848          49.000        -745.920
 115446327.817 8  21968711.321          50.000       -3473.417
 118081777.066 7  22470219.930          47.000         275.522
 124701505.40727  23729908.534          47.000       -3671.012
 126706265.45627  24111408.241          46.000       -4606.666
 128397496.030 7  24433241.049          45.000        1205.362
 132493518.024 7  25212678.495          43.000       -4571.324
 132089197.673 6  25135738.911          41.000       -5635.521
 131979256.71126  25114818.668          40.000        1846.493
 196072988.683 7  37311453.531          44.000       -1946.495
 196399752.052 7  37373635.076          42.000       -1952.374
 135555208.16635  25795298.500          35.000          26.117
 07  8 29  8 11  2.0000000  0 13G 3G19G16G25G13G23G27G21G31G11S29S37
                                G22
 106713644.527 8  20306934.016          49.000       -2503.420
 110323255.730 8  20993819.335          48.000        -743.696
 115449800.578 8  21969372.283          50.000       -3471.628
 118081500.062 8  22470166.760          48.000         278.399
 124705175.21027  23730607.032          47.000       -3668.449
 126710870.17027  24112284.662          47.000       -4603.296
 128396289.232 7  24433011.144          45.000        1209.313
 132498089.699 7  25213548.650          44.000       -4570.854
 132094832.176 6  25136811.262          40.000       -5633.928
 131977412.63826  25114468.250          41.000        1844.389
 196074935.336 7  37311823.894          44.000       -1946.166
 196401703.900 7  37374006.609          42.000       -1949.808
 135555182.33026  25795299.861          36.000          27.219
 07  8 29  8 11  3.0000000  0 13G 3G19G16G25G13G23G27G21G31G11S29S37
                                G22
 106716147.410 8  20307410.320          49.000       -2502.373
 110323999.167 8  20993960.839          49.000        -742.596
 115453272.227 8  21970033.315          51.000       -3471.926
 118081220.734 7  22470113.730          47.000         280.321
 124708843.00328  23731305.163          48.000       -3667.317
 126715473.11727  24113160.855          47.000       -4602.057
 128395079.674 7  24432781.273          45.000        1211.310
 132502659.529 7  25214418.387          42.000       -4569.062
 132100466.079 6  25137883.666          40.000       -5632.390
 131975567.14926  25114117.344          41.000        1847.111
 196076881.184 7  37312194.519          45.000       -1947.170
 196403654.750 7  37374377.671          42.000       -1950.417
 135555155.72225  25795291.904          35.000          27.982
 07  8 29  8 11  4.0000000  0 13G 3G19G16G25G13G23G27G21G31G11S29S37
                                G22
 106718649.636 8  20307886.502          49.000       -2499.923
 110324741.932 8  20994102.257          49.000        -740.651
 115456743.605 8  21970693.894          51.000       -3469.826
 118080939.582 7  22470060.019          47.000         283.955
 124712509.08727  23732002.841          47.000       -3664.565
 126720074.75827  24114036.525          46.000       -4601.140
 128393867.367 7  24432550.286          45.000        1214.804
 132507227.524 7  25215287.479          43.000       -4565.641
 132106099.932 6  25138954.934          39.000       -5633.660
 131973720.72427  25113766.507          42.000        1846.671
 196078826.713 7  37312564.691          44.000       -1944.738
 196405605.600 6  37374748.750          41.000       -1949.951
 135555128.39926  25795288.799          36.000          29.300
 07  8 29  8 11  5.0000000  0 13G 3G19G16G25G13G23G27G21G31G11S29S37
                                G22
 106721149.285 8  20308362.039          49.000       -2498.807
 110325482.626 8  20994243.132          49.000        -740.109
 115460213.012 8  21971353.844          51.000       -3468.632
 118080655.505 7  22470005.976          47.000         284.659
 124716173.12928  23732700.188          48.000       -3662.970
 126724674.95527  24114911.881          46.000       -4598.286
 128392651.601 7  24432319.001          45.000        1216.991
 132511792.656 7  25216156.501          44.000       -4563.237
 132111733.295 6  25140026.570          40.000       -5634.197
 131971873.45636  25113414.467          39.000        1847.897
 196080771.174 7  37312934.602          44.000       -1942.740
 196407554.990 6  37375119.620          41.000       -1948.755
 135555099.91326  25795283.285          38.000          30.765
 07  8 29  8 11  6.0000000  0 13G 3G19G16G25G13G23G27G21G31G11S29S37
                                G22
 106723647.612 8  20308837.645          49.000       -2497.904
 110326222.190 8  20994383.781          49.000        -739.229
 115463681.389 8  21972014.073          51.000       -3467.858
 118080369.308 8  22469951.323          48.000         287.450
 124719835.43527  23733397.150          47.000       -3660.769
 126729273.72127  24115786.905          46.000       -4597.897
 128391432.977 7  24432087.072          45.000        1219.565
 132516355.413 7  25217024.615          43.000       -4561.722
 132117366.201 6  25141098.380          40.000       -5633.622
 131970025.07036  25113062.741          40.000        1847.989
 196082714.554 7  37313304.406          43.000       -1944.713
 196409503.868 7  37375490.228          42.000       -1947.982
 135555070.28726  25795278.241          40.000          29.785
 07  8 29  8 11  7.0000000  0 13G 3G19G16G25G13G23G27G21G31G11S29S37
                                G22
 106726144.523 8  20309312.850          49.000       -2495.967
 110326960.399 8  20994524.396          49.000        -737.434
 115467148.801 8  21972673.692          51.000       -3466.510
 118080080.874 7  22469896.425          47.000         289.391
 124723496.247 7  23734093.519          47.000       -3659.700
 126733870.845 7  24116661.685          47.000       -4596.634
 128390211.405 7  24431854.392          45.000        1223.766
 132520916.027 7  25217892.311          42.000       -4559.848
 132122998.540 6  25142170.277          41.000       -5631.640
 131968175.45527  25112710.631          42.000        1849.654
 196084657.384 7  37313673.985          45.000       -1941.552
 196411452.218 7  37375860.870          43.000       -1947.439
 135555039.64226  25795273.270          39.000          34.204
 07  8 29  8 11  8.0000000  0 13G 3G19G16G25G13G23G27G21G31G11S29S37
                                G22
 106728639.831 8  20309787.741          49.000       -2494.593
 110327697.160 8  20994664.539          49.000        -736.114
 115470615.030 8  21973333.398          50.000       -3465.775
 118079790.093 7  22469841.092          47.000         292.500
 124727154.587 8  23734789.679          48.000       -3657.316
 126738466.361 7  24117536.552          47.000       -4595.030
 128388986.831 7  24431621.380          45.000        1225.945
 132525474.338 7  25218759.919          43.000       -4557.228
 132128630.228 6  25143241.861          41.000       -5631.243
 131966324.61236  25112359.027          40.000        1850.689
 196086599.426 7  37314043.406          45.000       -1941.602
 196413400.165 7  37376231.566          42.000       -1947.007
 135555007.88426  25795267.144          40.000          33.051
 07  8 29  8 11  9.0000000  0 13G 3G19G16G25G13G23G27G21G31G11S29S37
                                G22
 106731133.454 8  20310262.353          49.000       -2491.596
 110328432.329 8  20994804.369          49.000        -733.699
 115474079.600 8  21973992.703          50.000       -3463.166
 118079497.401 7  22469785.339          47.000         294.540
 124730811.181 8  23735485.717          48.000       -3655.050
 126743060.091 7  24118410.705          47.000       -4590.035
 128387759.982 7  24431388.141          45.000        1227.774
 132530030.667 7  25219627.003          43.000       -4555.486
 132134260.385 6  25144313.549          41.000       -5629.527
 131964471.91927  25112006.620          42.000        1852.477
 196088540.014 7  37314412.672          43.000       -1937.193
 196415346.597 6  37376601.860          41.000       -1944.115
 135554974.32426  25795261.212          39.000          35.357
 07  8 29  8 11 10.0000000  0 13G 3G19G16G25G13G23G27G21G31G11S29S37
                                G22
 106733624.713 8  20310736.424          49.000       -2489.571
 110329165.096 8  20994943.919          49.000        -731.328
 115477541.680 8  21974651.397          50.000       -3460.430
 118079202.870 8  22469729.394          48.000         295.166
 124734465.869 8  23736180.864          48.000       -3653.607
 126747651.443 7  24119284.351          46.000       -4589.322
 128386531.349 7  24431154.431          45.000        1228.912
 132534585.261 7  25220493.790          42.000       -4556.458
 132139887.959 7  25145384.016          42.000       -5627.322
 131962616.73026  25111653.743          40.000        1854.873
 196090477.187 7  37314781.204          43.000       -1934.836
 196417289.780 7  37376971.666          42.000       -1942.306
 135554938.52926  25795254.459          38.000          35.867
 07  8 29  8 11 11.0000000  0 13G 3G19G16G25G13G23G27G21G31G11S29S37
                                G22
 106736113.775 8  20311209.936          49.000       -2488.123
 110329895.836 8  20995083.067          49.000        -730.447
 115481000.852 8  21975309.585          51.000       -3458.032
 118078907.176 8  22469673.274          48.000         295.520
 124738119.389 8  23736875.889          48.000       -3653.522
 126752240.822 7  24120157.874          46.000       -4587.896
 128385301.795 7  24430920.424          45.000        1229.153
 132539138.174 7  25221360.440          42.000       -4551.915
 132145512.200 6  25146454.047          41.000       -5623.913
 131960758.83026  25111300.482          40.000        1858.673
 196092411.424 7  37315149.300          43.000       -1932.622
 196419229.624 6  37377340.704          41.000       -1940.421
 135554899.57726  25795247.481          37.000          41.283
 07  8 29  8 11 12.0000000  0 13G 3G19G16G25G13G23G27G21G31G11S29S37
                                G22
 106738600.870 8  20311683.012          49.000       -2486.200
 110330625.739 8  20995221.780          49.000        -729.428
 115484455.849 8  21975967.252          51.000       -3451.461
 118078611.630 8  22469616.962          48.000         295.149
 124741773.779 7  23737571.680          47.000       -3656.289
 126756830.041 7  24121031.047          46.000       -4591.511
 128384072.583 7  24430686.503          45.000        1229.102
 132543688.135 7  25222226.286          42.000       -4548.281
 132151132.431 6  25147523.783          40.000       -5618.257
 131958899.45526  25110946.522          39.000        1858.771
 196094342.311 7  37315516.628          43.000       -1929.909
 196421165.767 6  37377709.063          41.000       -1934.809
 135554855.70625  25795238.827          34.000          44.751
 07  8 29  8 11 13.0000000  0 13G 3G19G16G25G13G23G27G21G31G11S29S37
                                G22
 106741086.302 8  20312156.384          50.000       -2485.148
 110331356.055 8  20995360.631          48.000        -730.354
 115487905.712 8  21976623.643          50.000       -3447.904
 118078317.225 8  22469560.999          49.000         293.806
 124745430.731 7  23738267.612          47.000       -3657.464
 126761420.875 7  24121904.064          46.000       -4591.402
 128382844.440 7  24430452.862          44.000        1227.852
 132548233.562 6  25223091.296          40.000       -4542.017
 132156748.520 6  25148593.361          40.000       -5613.037
 131957039.88136  25110592.579          38.000        1857.431
 196096270.588 7  37315883.625          42.000       -1926.424
 196423098.725 6  37378076.827          40.000       -1932.210
 135554805.62735  25795229.023          31.000          53.165
 07  8 29  8 11 14.0000000  0 13G 3G19G16G25G13G23G27G21G31G11S29S37
                                G22
 106743570.009 8  20312629.304          51.000       -2482.626
 110332086.960 7  20995499.779          47.000        -730.484
 115491350.545 8  21977279.215          51.000       -3442.118
 118078023.707 8  22469505.559          49.000         292.851
 124749090.289 7  23738963.734          46.000       -3662.164
 126766013.608 7  24122777.813          47.000       -4594.249
 128381616.858 7  24430219.133          44.000        1227.073
 132552774.264 6  25223955.275          41.000       -4536.844
 132162360.962 6  25149662.049          41.000       -5608.643
 131955180.81835  25110237.378          35.000        1854.452
 196098197.041 7  37316250.324          42.000       -1925.125
 196425029.024 6  37378444.225          40.000       -1930.252
 135554750.37135  25795218.768          33.000          66.881
 07  8 29  8 11 15.0000000  0 13G 3G19G16G25G13G23G27G21G31G11S29S37
                                G22
 106746052.273 8  20313101.926          51.000       -2481.266
 110332819.826 7  20995638.995          47.000        -733.804
 115494789.121 8  21977933.426          50.000       -3434.967
 118077732.222 8  22469450.363          48.000         289.849
 124752754.556 7  23739661.165          46.000       -3666.593
 126770610.413 7  24123652.694          45.000       -4601.393
 128380390.858 7  24429986.085          45.000        1225.363
 132557308.289 7  25224817.563          42.000       -4530.911
 132167969.553 7  25150729.549          44.000       -5605.926
 131953323.82236  25109882.790          37.000        1855.679
 196100122.041 6  37316616.623          40.000       -1921.231
 196426957.036 7  37378811.222          42.000       -1925.161
 135554686.10825  25795205.193          34.000          70.005
 07  8 29  8 11 16.0000000  0 13G 3G19G16G25G13G23G27G21G31G11S29S37
                                G22
 106748533.001 8  20313574.199          52.000       -2479.653
 110333554.929 8  20995779.085          49.000        -735.654
 115498220.960 8  21978586.242          49.000       -3428.509
 118077443.286 8  22469395.464          48.000         287.727
 124756424.293 7  23740359.382          44.000       -3670.920
 126775211.790 6  24124528.328          41.000       -4603.560
 128379167.121 7  24429753.368          46.000        1224.028
 132561835.731 7  25225678.750          43.000       -4525.228
 132173574.041 7  25151796.020          45.000       -5603.229
 131951469.00236  25109529.719          38.000        1853.134
 196102045.585 6  37316982.484          40.000       -1921.581
 196428882.437 6  37379177.817          41.000       -1923.180
                  25795194.672          27.000          74.647
 07  8 29  8 11 17.0000000  0 13G 3G19G16G25G13G23G27G21G31G11S29S37
                                G22
 106751012.422 8  20314045.827          52.000       -2477.822
 110334291.904 8  20995919.541          50.000        -737.250
 115501646.454 8  21979238.027          49.000       -3422.012
 118077156.885 7  22469341.071          47.000         285.708
 124760098.806 7  23741058.488          45.000       -3676.360
 126779816.862 7  24125404.345          42.000       -4606.918
 128377945.698 7  24429520.965          46.000        1220.939
 132566357.070 7  25226538.403          43.000       -4518.951
 132179173.841 7  25152861.656          43.000       -5593.972
 131949615.45426  25109177.451          38.000        1851.896
 196103966.382 6  37317348.138          41.000       -1918.374
 196430805.233 6  37379543.662          41.000       -1920.607
                  25795179.110          27.000          83.883
 07  8 29  8 11 18.0000000  0 13G 3G19G16G25G13G23G27G21G31G11S29S37
                                G22
 106753490.374 8  20314517.629          52.000       -2477.246
 110335030.422 8  20996060.172          50.000        -738.986
 115505065.805 8  21979888.329          50.000       -3416.054
 118076872.588 7  22469286.748          47.000         283.692
 124763777.609 7  23741758.275          46.000       -3679.733
 126784425.108 7  24126281.025          45.000       -4610.182
 128376726.165 7  24429288.545          44.000        1219.041
 132570872.725 7  25227396.956          45.000       -4512.941
 132184769.295 7  25153925.596          42.000       -5594.518
 131947763.06926  25108825.480          39.000        1851.226
 196105884.694 6  37317713.389          40.000       -1915.905
 196432725.643 7  37379909.122          42.000       -1919.680
                  25795162.133          25.000          89.002
 07  8 29  8 11 19.0000000  0 13G 3G19G16G25G13G23G27G21G31G11S29S37
                                G22
 106755966.782 8  20314989.030          52.000       -2475.118
 110335769.904 8  20996200.750          49.000        -740.002
 115508479.797 8  21980537.846          49.000       -3410.799
 118076589.833 8  22469232.721          49.000         282.853
 124767459.790 7  23742458.342          47.000       -3683.346
 126789035.843 7  24127159.172          45.000       -4611.482
 128375507.904 7  24429056.736          42.000        1218.484
 132575383.367 7  25228254.985          43.000       -4506.875
 132190360.734 6  25154989.852          41.000       -5589.916
 131945911.34426  25108473.212          39.000        1851.152
 196107800.912 7  37318078.082          42.000       -1914.388
 196434643.394 7  37380274.147          43.000       -1915.510
                  25795142.960          27.000         102.601
 07  8 29  8 11 20.0000000  0 13G 3G19G16G25G13G23G27G21G31G11S29S37
                                G22
 106758441.764 8  20315459.819          52.000       -2474.004
 110336510.096 8  20996341.712          49.000        -741.702
 115511888.947 8  21981186.943          48.000       -3407.202
 118076308.356 8  22469179.061          51.000         280.476
 124771144.736 7  23743159.421          45.000       -3685.818
 126793648.479 7  24128036.969          44.000       -4613.475
 128374290.25436  24428824.683          39.000        1216.651
 132579889.602 7  25229112.263          42.000       -4505.235
 132195948.449 7  25156053.339          43.000       -5586.112
 131944059.78526  25108120.840          38.000        1850.943
 196109715.214 7  37318442.373          43.000       -1913.106
 196436558.422 7  37380638.509          43.000       -1913.556
                  25795123.102          32.000         103.101
 07  8 29  8 11 21.0000000  0 13G 3G19G16G25G13G23G27G21G31G11S29S37
                                G22
 106760916.157 8  20315930.836          52.000       -2473.478
 110337251.275 8  20996482.746          50.000        -740.120
 115515294.903 7  21981835.010          46.000       -3404.234
 118076027.800 8  22469125.611          51.000         281.180
 124774831.20338  23743861.129          48.000       -3686.127
 126798262.43736  24128914.260          38.000       -4616.860
 128373073.35926  24428593.363          41.000        1216.918
 132584392.273 7  25229969.175          43.000       -4501.984
 132201533.370 7  25157116.913          45.000       -5583.479
 131942208.32026  25107768.974          38.000        1852.265
 196111627.913 7  37318806.193          44.000       -1911.989
 196438471.843 7  37381002.608          44.000       -1912.694
                  25795102.252          33.000         110.977
 07  8 29  8 11 22.0000000  0 13G 3G19G16G25G13G23G27G21G31G11S29S37
                                G22
 106763388.374 8  20316401.173          52.000       -2470.712
 110337991.049 8  20996623.447          50.000        -738.627
 115518698.170 7  21982482.467          46.000       -3401.234
 118075745.689 8  22469071.796          51.000         283.418
 124778517.42728  23744562.436          48.000       -3685.445
 126802875.70127  24129790.717          44.000       -4612.631
 128371854.78326  24428361.573          41.000        1220.343
 132588892.107 6  25230825.266          41.000       -4497.627
 132207116.739 7  25158179.405          44.000       -5582.510
 131940355.98425  25107416.149          35.000        1852.374
 196113539.091 7  37319169.891          42.000       -1909.997
 196440383.341 7  37381366.341          42.000       -1909.639
                  25795082.251          30.000         104.152
 07  8 29  8 11 23.0000000  0 13G 3G19G16G25G13G23G27G21G31G11S29S37
                                G22
 106765858.745 8  20316871.125          52.000       -2469.751
 110338729.500 8  20996764.114          50.000        -737.957
 115522099.382 7  21983129.382          46.000       -3400.140
 118075462.064 8  22469017.892          51.000         284.046
 124782202.71928  23745263.760          48.000       -3684.816
 126807488.03427  24130668.446          44.000       -4611.303
 128370634.44626  24428129.415          41.000        1219.592
 132593389.710 7  25231680.868          42.000       -4497.337
 132212698.797 7  25159241.722          43.000       -5581.536
 131938502.71736  25107063.672          37.000        1854.067
 196115448.838 7  37319533.205          43.000       -1908.811
 196442293.247 7  37381730.074          42.000       -1909.646
                  25795061.540          23.000         110.040
 07  8 29  8 11 24.0000000  0 12G 3G19G16G25G13G23G27G21G31G11S29S37
 106768327.641 8  20317341.199          51.000       -2468.220
 110339466.839 8  20996904.362          50.000        -736.572
 115525498.837 7  21983776.035          46.000       -3398.863
 118075177.013 8  22468963.536          51.000         285.911
 124785887.00427  23745964.823          47.000       -3683.716
 126812099.27027  24131546.837          43.000       -4610.838
 128369412.29026  24427896.718          41.000        1223.942
 132597885.226 7  25232536.505          42.000       -4495.598
 132218279.527 7  25160303.673          43.000       -5581.010
 131936648.31626  25106710.393          39.000        1855.928
 196117356.948 7  37319896.258          42.000       -1906.963
 196444201.781 7  37382093.248          42.000       -1908.105
 07  8 29  8 11 25.0000000  0 12G 3G19G16G25G13G23G27G21G31G11S29S37
 106770795.071 8  20317810.768          52.000       -2466.006
 110340202.862 8  20997044.662          50.000        -734.570
 115528897.130 7  21984422.478          46.000       -3398.046
 118074890.198 8  22468909.109          51.000         287.861
 124789569.82928  23746665.886          48.000       -3682.533
 126816709.13027  24132424.339          43.000       -4610.556
 128368187.94736  24427663.444          40.000        1226.017
 132602378.990 7  25233391.689          42.000       -4493.637
 132223859.618 7  25161365.554          44.000       -5579.938
 131934792.82926  25106357.410          40.000        1855.470
 196119264.072 7  37320259.101          43.000       -1905.592
 196446109.484 7  37382456.143          43.000       -1906.721
 07  8 29  8 11 26.0000000  0 12G 3G19G16G25G13G23G27G21G31G11S29S37
 106773260.777 8  20318280.040          52.000       -2464.506
 110340937.447 8  20997184.352          50.000        -733.656
 115532293.710 7  21985069.045          46.000       -3395.714
 118074601.571 8  22468854.124          51.000         289.688
 124793251.24428  23747366.199          48.000       -3679.734
 126821317.71727  24133301.458          43.000       -4607.561
 128366961.34126  24427429.734          40.000        1228.510
 132606870.584 7  25234246.157          42.000       -4490.570
 132229438.392 7  25162427.419          42.000       -5576.150
 131932935.94426  25106003.940          39.000        1858.530
 196121170.084 7  37320621.874          43.000       -1904.313
 196448015.991 7  37382818.812          43.000       -1905.036
 07  8 29  8 11 27.0000000  0 12G 3G19G16G25G13G23G27G21G31G11S29S37
 106775725.309 8  20318749.207          51.000       -2464.352
 110341670.737 8  20997323.849          50.000        -732.749
 115535688.885 7  21985715.052          46.000       -3394.303
 118074311.915 8  22468799.051          51.000         290.351
 124796931.37527  23748066.669          47.000       -3679.740
 126825924.53627  24134178.035          43.000       -4605.717
 128365733.58926  24427196.145          41.000        1227.826
 132611361.103 7  25235100.921          42.000       -4490.514
 132235015.255 7  25163488.986          43.000       -5575.593
 131931077.10326  25105650.346          40.000        1859.596
 196123074.217 6  37320984.106          41.000       -1902.166
 196449920.521 7  37383181.236          43.000       -1902.404
 07  8 29  8 11 28.0000000  0 12G 3G19G16G25G13G23G27G21G31G11S29S37
 106778188.674 8  20319217.659          51.000       -2462.136
 110342402.254 8  20997462.858          50.000        -730.404
 115539082.749 7  21986360.536          46.000       -3392.821
 118074021.321 8  22468743.403          51.000         291.520
 124800609.71628  23748766.615          48.000       -3677.388
 126830528.66127  24135054.265          43.000       -4601.410
 128364504.94436  24426962.453          40.000        1229.868
 132615851.408 6  25235955.355          41.000       -4488.911
 132240589.276 7  25164549.925          43.000       -5572.880
 131929215.03926  25105296.126          39.000        1863.603
 196124975.712 7  37321345.832          42.000       -1900.756
 196451822.275 7  37383542.893          42.000       -1900.946
 07  8 29  8 11 29.0000000  0 12G 3G19G16G25G13G23G27G21G31G11S29S37
 106780651.020 8  20319686.232          52.000       -2461.631
 110343131.352 8  20997601.449          50.000        -727.059
 115542476.354 7  21987006.264          46.000       -3393.808
 118073729.147 8  22468687.929          51.000         293.002
 124804284.91828  23749465.708          48.000       -3672.286
 126835128.77627  24135930.023          44.000       -4596.763
 128363274.88426  24426728.289          39.000        1232.110
 132620342.440 6  25236809.838          41.000       -4492.260
 132246160.730 7  25165610.079          42.000       -5568.887
 131927348.85526  25104940.527          39.000        1867.485
 196126874.232 7  37321707.141          42.000       -1894.976
 196453721.549 7  37383904.375          42.000       -1898.701
 07  8 29  8 11 30.0000000  0 12G 3G19G16G25G13G23G27G21G31G11S29S37
 106783112.341 8  20320154.387          52.000       -2461.061
 110343857.498 8  20997739.831          50.000        -724.117
 115545870.604 7  21987652.131          47.000       -3394.539
 118073434.616 8  22468631.741          50.000         296.093
 124807955.85028  23750164.242          48.000       -3667.902
 126839723.99427  24136804.595          45.000       -4592.099
 128362042.59826  24426493.741          41.000        1233.026
 132624835.047 6  25237664.794          40.000       -4491.430
 132251730.201 6  25166670.110          39.000       -5568.704
 131925477.91726  25104584.650          39.000        1874.889
 196128770.097 7  37322067.942          42.000       -1893.087
 196455618.334 7  37384265.334          42.000       -1896.058
 07  8 29  8 11 31.0000000  0 12G 3G19G16G25G13G23G27G21G31G11S29S37
 106785572.390 8  20320622.664          51.000       -2459.037
 110344579.811 8  20997877.741          50.000        -719.670
 115549266.892 8  21988298.678          49.000       -3397.404
 118073136.184 7  22468574.838          47.000         300.919
 124811621.306 8  23750861.503          48.000       -3661.125
 126844313.818 7  24137678.190          47.000       -4585.423
 128360806.23127  24426259.055          45.000        1239.165
 132629329.670 7  25238519.818          42.000       -4496.039
 132257299.628 7  25167729.356          42.000       -5569.663
 131923602.402 7  25104227.637          42.000        1878.817
 196130664.012 7  37322428.150          42.000       -1892.737
 196457513.836 7  37384625.996          43.000       -1892.760
 07  8 29  8 11 32.0000000  0 12G 3G19G16G25G13G23G27G21G31G11S29S37
 106788030.395 8  20321089.982          51.000       -2456.867
 110345297.264 8  20998014.379          49.000        -714.344
 115552665.714 8  21988945.522          48.000       -3400.609
 118072832.167 8  22468517.656          48.000         307.164
 124815278.841 7  23751558.258          47.000       -3653.379
 126848896.378 7  24138549.831          45.000       -4578.751
 128359563.84327  24426022.817          47.000        1246.033
 132633826.287 6  25239375.856          39.000       -4496.086
 132262869.886 7  25168789.333          44.000       -5573.297
 131921722.144 7  25103870.363          43.000        1882.711
 196132556.440 7  37322788.148          42.000       -1892.680
 196459408.258 7  37384986.657          43.000       -1893.432
 07  8 29  8 11 33.0000000  0 12G 3G19G16G25G13G23G27G21G31G11S29S37
 106790486.566 8  20321557.020          49.000       -2454.885
 110346009.661 8  20998149.742          48.000        -709.755
 115556067.906 7  21989593.063          47.000       -3404.309
 118072522.239 8  22468458.886          48.000         313.288
 124818928.208 7  23752252.885          47.000       -3644.309
 126853471.546 7  24139420.372          43.000       -4573.219
 128358315.29127  24425785.235          47.000        1252.109
 132638325.802 6  25240232.206          40.000       -4501.234
 132268441.841 7  25169849.190          42.000       -5570.816
 131919836.907 7  25103512.339          43.000        1888.887
 196134447.331 6  37323148.148          40.000       -1887.348
 196461301.391 7  37385347.056          42.000       -1892.688
 07  8 29  8 11 34.0000000  0 12G 3G19G16G25G13G23G27G21G31G11S29S37
 106792941.404 8  20322023.761          49.000       -2453.798
 110346717.227 8  20998284.424          48.000        -704.873
 115559473.823 8  21990241.809          48.000       -3406.932
 118072206.770 8  22468398.964          48.000         318.333
 124822569.423 7  23752946.202          47.000       -3636.798
 126858039.211 7  24140290.095          46.000       -4563.645
 128357060.83427  24425546.762          47.000        1258.260
 132642828.457 6  25241089.604          39.000       -4503.749
 132274014.992 7  25170909.970          43.000       -5574.604
 131917946.265 6  25103152.431          41.000        1894.094
 196136336.905 6  37323507.675          40.000       -1887.677
 196463193.648 6  37385707.072          41.000       -1892.271
 07  8 29  8 11 35.0000000  0 12G 3G19G16G25G13G23G27G21G31G11S29S37
 106795394.633 8  20322490.555          49.000       -2452.462
 110347420.012 8  20998418.007          48.000        -700.967
 115562882.714 8  21990890.694          49.000       -3409.946
 118071886.155 8  22468337.575          48.000         322.911
 124826203.052 8  23753637.756          48.000       -3631.066
 126862599.670 8  24141157.844          49.000       -4557.169
 128355801.11127  24425306.875          46.000        1261.413
 132647334.086 6  25241947.369          39.000       -4505.838
 132279588.858 7  25171970.717          44.000       -5574.403
 131916050.303 6  25102791.945          40.000        1897.342
 196138224.436 6  37323866.836          41.000       -1885.635
 196465084.781 6  37386066.983          41.000       -1890.834
 07  8 29  8 11 36.0000000  0 12G 3G19G16G25G13G23G27G21G31G11S29S37
 106797846.320 8  20322956.895          48.000       -2451.249
 110348118.054 8  20998550.858          48.000        -694.994
 115566294.172 8  21991540.050          50.000       -3412.475
 118071560.914 8  22468275.664          48.000         327.084
 124829829.454 8  23754327.741          48.000       -3622.573
 126867152.920 8  24142024.164          48.000       -4548.997
 128354536.79427  24425066.361          45.000        1266.745
 132651842.717 6  25242805.761          40.000       -4509.583
 132285162.433 7  25173031.306          42.000       -5573.836
 131914148.744 6  25102430.537          41.000        1905.573
 196140109.295 6  37324225.578          41.000       -1883.276
 196466974.311 7  37386426.668          42.000       -1888.584
 07  8 29  8 11 37.0000000  0 13G 3G19G16G25G13G23G27G21G31G11S29S37
                                G22
 106800297.208 8  20323423.166          48.000       -2450.247
 110348811.078 8  20998682.609          48.000        -690.367
 115569709.134 8  21992190.191          50.000       -3416.906
 118071231.398 8  22468213.089          48.000         332.215
 124833447.770 8  23755016.556          48.000       -3615.263
 126871697.494 7  24142889.192          46.000       -4539.426
 128353269.060 7  24424824.903          44.000        1269.082
 132656356.152 6  25243664.973          41.000       -4514.797
 132290734.818 6  25174090.815          39.000       -5571.302
 131912239.622 6  25102067.627          38.000        1911.253
 196141991.378 7  37324583.623          45.000       -1881.316
 196468861.247 7  37386785.689          42.000       -1887.451
                  25794758.998          29.000          90.114
 07  8 29  8 11 38.0000000  0 13G 3G19G16G25G13G23G27G21G31G11S29S37
                                G22
 106802747.512 8  20323889.732          48.000       -2449.935
 110349499.232 8  20998813.679          49.000        -685.893
 115573127.422 8  21992840.595          50.000       -3419.853
 118070898.352 8  22468149.240          48.000         334.991
 124837058.369 7  23755703.941          47.000       -3606.667
 126876233.353 7  24143752.615          45.000       -4529.781
 128351997.675 7  24424583.132          43.000        1272.559
 132660874.841 6  25244525.336          40.000       -4520.585
                  25175150.010          32.000       -5567.016
 131910322.63936  25101703.183          37.000        1921.475
 196143869.385 7  37324940.935          42.000       -1876.545
 196470745.203 7  37387144.101          44.000       -1882.377
 135552290.14136  25794743.291          36.000          83.631
 07  8 29  8 11 39.0000000  0 13G 3G19G16G25G13G23G27G21G31G11S29S37
                                G22
 106805197.216 8  20324356.072          48.000       -2448.786
 110350182.589 8  20998943.773          50.000        -680.375
 115576548.525 8  21993491.696          50.000       -3422.138
 118070562.160 8  22468084.501          48.000         338.277
 124840661.723 7  23756389.738          45.000       -3599.410
 126880760.647 7  24144614.397          44.000       -4522.011
 128350723.796 6  24424340.871          41.000        1275.274
 132665398.66536  25245387.114          37.000       -4524.764
 132301866.92036  25176208.294          37.000       -5570.642
                  25101337.377          36.000        1929.508
 196145743.459 7  37325297.410          42.000       -1871.967
 196472626.025 7  37387501.832          44.000       -1879.380
 135552206.90625  25794729.592          34.000          83.140
 07  8 29  8 11 40.0000000  0 13G 3G19G16G25G13G23G27G21G31G11S29S37
                                G22
 106807646.480 8  20324822.534          48.000       -2449.328
 110350861.180 8  20999072.976          50.000        -676.370
 115579972.548 8  21994143.269          49.000       -3425.189
 118070223.004 7  22468019.133          46.000         340.224
 124844257.791 7  23757073.562          43.000       -3592.875
 126885278.835 7  24145474.452          47.000       -4513.607
 128349447.619 7  24424097.424          43.000        1277.412
                  25246248.718          32.000       -4525.383
 132307431.56036  25177266.339          40.000       -5562.268
 131906474.96136  25100967.696          38.000        1934.935
 196147612.988 6  37325653.169          41.000       -1867.150
 196474503.167 6  37387859.232          41.000       -1873.789
 135552126.30036  25794717.846          36.000          78.706
 07  8 29  8 11 41.0000000  0 13G 3G19G16G25G13G23G27G21G31G11S29S37
                                G22
 106810095.991 8  20325288.786          48.000       -2449.499
 110351535.387 8  20999201.376          49.000        -671.830
 115583399.892 8  21994795.557          49.000       -3428.351
 118069881.728 7  22467953.922          46.000         342.367
 124847846.835 7  23757756.252          46.000       -3586.468
 126889788.315 8  24146332.168          48.000       -4505.385
 128348170.137 7  24423854.116          44.000        1278.026
 132674456.62236  25247109.724          38.000       -4539.569
 132312992.81727  25178324.678          44.000       -5559.281
 131904532.44127  25100597.634          42.000        1946.726
 196149478.243 6  37326008.266          41.000       -1860.999
 196476376.298 6  37388215.479          41.000       -1870.922
 135552048.34326  25794703.537          36.000          77.394
 07  8 29  8 11 42.0000000  0 13G 3G19G16G25G13G23G27G21G31G11S29S37
                                G22
 106812545.408 8  20325754.550          48.000       -2449.811
 110352205.502 8  20999328.816          49.000        -668.229
 115586829.435 8  21995448.247          49.000       -3430.175
 118069538.684 7  22467889.462          46.000         343.515
 124851429.621 8  23758437.546          48.000       -3579.693
 126894289.642 7  24147188.890          47.000       -4496.486
 128346891.663 7  24423611.226          45.000        1277.801
 132678997.31226  25247973.387          36.000       -4541.671
 132318550.05437  25179382.983          42.000       -5555.224
 131902581.78626  25100227.187          41.000        1955.988
 196151338.964 7  37326362.157          43.000       -1859.371
 196478244.963 7  37388570.959          42.000       -1866.987
 135551972.02725  25794689.682          34.000          79.475
 07  8 29  8 11 43.0000000  0 13G 3G19G16G25G13G23G27G21G31G11S29S37
                                G22
 106814994.721 8  20326221.082          48.000       -2448.927
 110352871.297 8  20999455.454          49.000        -663.256
 115590260.993 8  21996101.251          49.000       -3431.953
 118069194.224 7  22467824.512          47.000         344.982
 124855006.261 8  23759118.019          48.000       -3573.554
 126898782.392 7  24148044.249          47.000       -4489.664
 128345612.881 7  24423367.884          44.000        1279.066
 132683543.72035  25248839.090          35.000       -4546.975
 132324102.43826  25180440.259          41.000       -5549.136
 131900621.95927  25099855.256          42.000        1963.618
 196153193.648 7  37326715.161          45.000       -1850.536
 196480108.686 7  37388925.410          43.000       -1860.597
 135551896.74225  25794675.457          34.000          72.191
 07  8 29  8 11 44.0000000  0 13G 3G19G16G25G13G23G27G21G31G11S29S37
                                G22
 106817443.836 8  20326687.334          48.000       -2448.520
 110353533.491 8  20999581.621          49.000        -660.307
 115593693.752 8  21996754.290          48.000       -3433.458
 118068848.673 8  22467758.638          48.000         346.428
 124858577.848 7  23759797.951          47.000       -3569.281
 126903267.987 7  24148897.900          46.000       -4481.854
 128344333.917 7  24423124.069          45.000        1279.121
 132688094.45826  25249705.072          37.000       -4553.406
 132329649.95227  25181496.261          43.000       -5544.701
 131898654.56826  25099481.563          38.000        1972.469
 196155043.964 7  37327067.395          44.000       -1846.733
 196481967.948 7  37389279.180          45.000       -1857.363
 135551821.70426  25794662.231          36.000          75.221
 07  8 29  8 11 45.0000000  0 13G 3G19G16G25G13G23G27G21G31G11S29S37
                                G22
 106819893.044 8  20327153.412          49.000       -2449.646
 110354192.505 8  20999707.071          49.000        -658.158
 115597127.745 8  21997407.765          49.000       -3434.453
 118068502.450 8  22467692.572          48.000         346.073
 124862144.870 7  23760476.836          46.000       -3565.569
 126907746.779 7  24149750.031          43.000       -4476.071
 128343055.090 7  24422880.638          46.000        1278.696
 132692649.67336  25250571.754          41.000       -4555.802
 132335192.88326  25182550.779          39.000       -5540.566
                  25099106.381          32.000        1967.476
 196156889.543 7  37327418.687          43.000       -1842.918
 196483822.913 7  37389632.269          44.000       -1852.607
 135551746.73225  25794648.184          34.000          75.681
 07  8 29  8 11 46.0000000  0 13G 3G19G16G25G13G23G27G21G31G11S29S37
                                G22
 106822341.922 8  20327619.281          49.000       -2448.373
 110354849.438 8  20999832.452          50.000        -655.518
 115600562.184 8  21998061.363          49.000       -3434.058
 118068155.302 8  22467626.140          48.000         348.529
 124865708.955 7  23761154.760          46.000       -3563.095
 126912221.495 7  24150600.904          42.000       -4475.545
 128341775.592 7  24422636.720          46.000        1280.978
 132697206.78427  25251439.047          42.000       -4556.442
 132340733.26435  25183604.965          35.000       -5537.979
 131894716.46736  25098730.108          37.000        1983.135
 196158732.285 7  37327769.315          42.000       -1840.722
 196485675.003 7  37389984.782          42.000       -1850.204
 135551671.73325  25794633.928          33.000          77.238
 07  8 29  8 11 47.0000000  0 13G 3G19G16G25G13G23G27G21G31G11S29S37
                                G22
 106824789.813 8  20328085.167          49.000       -2447.039
 110355504.713 8  20999957.204          49.000        -654.302
 115603996.216 8  21998714.752          49.000       -3433.458
 118067806.386 8  22467559.603          48.000         350.085
 124869270.606 7  23761832.353          46.000       -3560.707
 126916693.583 7  24151451.778          42.000       -4470.618
 128340494.028 7  24422392.645          47.000        1282.324
 132701763.41037  25252306.479          42.000       -4556.798
                  25184659.883          30.000       -5537.466
 131892734.45636  25098351.491          37.000        1984.036
 196160573.462 7  37328119.594          42.000       -1839.562
 196487525.693 7  37390336.928          43.000       -1848.882
 135551596.07925  25794619.862          35.000          76.005
 07  8 29  8 11 48.0000000  0 13G 3G19G16G25G13G23G27G21G31G11S29S37
                                G22
 106827236.289 8  20328550.966          49.000       -2446.181
 110356158.269 8  21000081.729          50.000        -653.380
 115607429.586 8  21999367.913          49.000       -3433.505
 118067455.448 8  22467492.542          48.000         351.903
 124872830.191 7  23762509.963          46.000       -3558.083
 126921163.639 7  24152302.215          42.000       -4468.381
 128339210.162 7  24422148.377          47.000        1284.879
 132706319.11727  25253173.407          42.000       -4555.855
 132351815.94836  25185713.265          39.000       -5539.104
                  25097974.078          33.000        1985.237
 196162413.042 6  37328469.646          41.000       -1837.147
 196489375.144 7  37390688.847          43.000       -1848.432
 135551520.09425  25794605.204          35.000          76.914
 07  8 29  8 11 49.0000000  0 13G 3G19G16G25G13G23G27G21G31G11S29S37
                                G22
 106829681.526 8  20329016.120          49.000       -2444.642
 110356810.414 8  21000205.801          50.000        -651.440
 115610862.367 8  22000021.093          49.000       -3432.266
 118067102.587 8  22467425.639          48.000         353.962
 124876387.903 7  23763187.416          47.000       -3556.396
 126925632.037 7  24153152.373          42.000       -4468.224
 128337923.976 7  24421903.552          47.000        1287.996
 132710873.88626  25254040.195          41.000       -4552.778
                  25186766.474          32.000       -5536.241
 131888751.09836  25097595.025          38.000        1985.182
 196164252.033 6  37328819.714          41.000       -1839.871
 196491223.775 7  37391040.853          43.000       -1848.065
 135551444.311 6  25794590.669          37.000          78.476
 07  8 29  8 11 50.0000000  0 13G 3G19G16G25G13G23G27G21G31G11S29S37
                                G22
 106832125.314 8  20329481.186          49.000       -2443.180
 110357460.825 8  21000329.384          50.000        -649.538
 115614294.609 8  22000674.551          49.000       -3432.235
 118066747.518 8  22467358.247          48.000         356.262
 124879943.412 7  23763863.822          46.000       -3554.563
 126930098.451 7  24154001.972          43.000       -4465.474
 128336635.196 7  24421658.604          47.000        1289.960
 132715427.38427  25254907.244          42.000       -4552.529
                  25187818.930          35.000       -5539.929
 131886764.52726  25097217.142          40.000        1988.733
 196166089.707 7  37329169.383          44.000       -1835.058
 196493071.573 7  37391392.493          44.000       -1846.531
 135551367.957 6  25794576.027          40.000          75.915
 07  8 29  8 11 51.0000000  0 13G 3G19G16G25G13G23G27G21G31G11S29S37
                                G22
 106834567.752 8  20329945.886          49.000       -2441.804
 110358109.462 8  21000452.845          50.000        -647.722
 115617726.382 8  22001327.452          49.000       -3431.010
 118066390.251 8  22467290.227          49.000         358.145
 124883496.563 7  23764539.845          46.000       -3551.549
 126934562.613 7  24154851.659          43.000       -4463.631
 128335343.915 7  24421412.801          47.000        1292.632
 132719980.17627  25255773.420          42.000       -4553.305
 132368416.21926  25188872.139          39.000       -5537.532
 131884776.12226  25096839.239          39.000        1988.229
 196167925.910 7  37329518.770          43.000       -1837.141
 196494918.358 7  37391743.975          44.000       -1846.044
 135551291.372 6  25794561.579          41.000          75.962
 07  8 29  8 11 52.0000000  0 13G 3G19G16G25G13G23G27G21G31G11S29S37
                                G22
 106837009.039 8  20330410.707          49.000       -2441.018
 110358756.513 8  21000575.870          50.000        -646.152
 115621157.786 8  22001980.526          49.000       -3431.486
 118066031.133 8  22467221.980          48.000         360.016
 124887047.594 7  23765215.187          46.000       -3549.405
 126939024.676 7  24155700.613          43.000       -4461.167
 128334050.453 7  24421166.388          47.000        1294.883
 132724532.40627  25256639.300          42.000       -4553.234
 132373952.73326  25189926.412          39.000       -5536.428
 131882786.08226  25096461.426          39.000        1990.887
 196169761.392 7  37329867.985          42.000       -1834.132
 196496764.146 7  37392095.161          43.000       -1843.890
 135551214.742 6  25794547.305          41.000          76.925
 07  8 29  8 11 53.0000000  0 13G 3G19G16G25G13G23G27G21G31G11S29S37
                                G22
 106839449.169 8  20330874.762          49.000       -2439.753
 110359402.010 8  21000698.912          50.000        -644.490
 115624588.672 8  22002633.077          49.000       -3430.804
 118065670.274 8  22467153.523          48.000         360.790
 124890596.613 7  23765890.615          46.000       -3548.344
 126943484.706 7  24156549.393          43.000       -4459.147
 128332754.953 7  24420920.026          47.000        1296.426
                  25257505.477          41.000       -4551.777
 132379488.46026  25190980.685          40.000       -5534.540
 131880794.17926  25096082.442          40.000        1991.143
 196171595.568 7  37330216.972          42.000       -1834.306
 196498608.304 7  37392446.103          43.000       -1844.438
 135551137.699 7  25794532.489          42.000          75.903
 07  8 29  8 11 54.0000000  0 13G 3G19G16G25G13G23G27G21G31G11S29S37
                                G22
 106841888.308 8  20331338.729          49.000       -2437.565
 110360046.378 8  21000821.448          49.000        -643.216
 115628018.947 8  22003286.082          49.000       -3429.432
 118065307.967 8  22467084.525          49.000         362.862
 124894144.179 7  23766565.730          46.000       -3546.906
 126947943.261 6  24157397.508          41.000       -4459.196
 128331457.712 7  24420673.106          47.000        1298.418
 132733636.65836  25258371.290          38.000       -4544.377
 132385023.54726  25192034.922          40.000       -5534.749
                  25095703.354          35.000        1993.596
 196173428.923 7  37330565.646          42.000       -1831.226
 196500451.662 7  37392796.748          43.000       -1842.639
 135551060.111 6  25794517.796          41.000          76.038
 07  8 29  8 11 55.0000000  0 13G 3G19G16G25G13G23G27G21G31G11S29S37
                                G22
 106844326.373 8  20331802.835          49.000       -2437.602
 110360689.391 8  21000943.757          49.000        -642.182
 115631448.572 8  22003938.686          49.000       -3428.721
 118064944.172 8  22467015.318          48.000         364.674
 124897690.092 7  23767240.740          46.000       -3545.609
 126952400.063 7  24158245.573          42.000       -4455.112
 128330158.614 7  24420425.977          46.000        1299.352
                  25259236.279          37.000       -4547.498
                  25193088.918          32.000       -5529.114
                  25095320.503          37.000        2009.988
 196175260.902 6  37330914.650          41.000       -1831.660
 196502293.798 7  37393147.341          43.000       -1839.810
 135550982.017 6  25794502.964          41.000          78.417
 07  8 29  8 11 56.0000000  0 13G 3G19G16G25G13G23G27G21G31G11S29S37
                                G22
 106846763.143 8  20332266.645          49.000       -2436.292
 110361330.889 8  21001066.100          50.000        -641.761
 115634877.304 8  22004591.062          48.000       -3428.852
 118064578.719 8  22466945.501          48.000         366.409
 124901234.248 7  23767915.279          46.000       -3543.500
 126956855.042 7  24159093.079          42.000       -4452.035
 128328857.644 7  24420178.149          46.000        1301.649
 132742723.95836  25260100.638          36.000       -4552.501
 132396104.96936  25194141.113          36.000       -5531.101
 131874800.85536  25094940.241          39.000        1997.959
 196177091.421 7  37331262.923          43.000       -1827.954
 196504134.282 7  37393497.516          42.000       -1837.781
 135550903.112 6  25794487.783          41.000          79.549
 07  8 29  8 11 57.0000000  0 13G 3G19G16G25G13G23G27G21G31G11S29S37
                                G22
 106849198.955 8  20332730.350          49.000       -2434.932
 110361971.142 8  21001187.834          49.000        -639.140
 115638305.398 8  22005243.282          49.000       -3427.540
 118064211.868 8  22466875.701          48.000         367.914
 124904776.746 7  23768589.416          46.000       -3542.029
 126961308.237 7  24159940.618          42.000       -4451.703
 128327554.961 7  24419930.357          46.000        1304.271
                  25260966.745          32.000       -4552.853
 132401637.23536  25195193.536          36.000       -5530.283
 131872802.79436  25094560.629          39.000        1999.744
 196178920.446 7  37331611.090          43.000       -1826.842
 196505973.305 7  37393847.515          44.000       -1837.696
 135550823.481 7  25794472.618          43.000          78.457
 07  8 29  8 11 58.0000000  0 13G 3G19G16G25G13G23G27G21G31G11S29S37
                                G22
 106851633.494 8  20333193.496          49.000       -2434.091
 110362609.913 8  21001309.322          49.000        -638.836
 115641732.588 8  22005895.693          48.000       -3426.520
 118063843.595 8  22466805.446          48.000         369.251
 124908317.663 7  23769263.030          46.000       -3540.894
 126965759.657 7  24160787.914          42.000       -4449.946
 128326250.735 7  24419682.181          46.000        1304.894
 132751819.88036  25261831.493          41.000       -4546.586
 132407168.24536  25196245.174          38.000       -5528.348
 131870802.88236  25094180.895          39.000        1999.546
 196180748.134 6  37331959.082          41.000       -1827.288
 196507811.029 7  37394197.217          43.000       -1837.342
 135550743.078 7  25794457.211          42.000          80.726
 07  8 29  8 11 59.0000000  0 13G 3G19G16G25G13G23G27G21G31G11S29S37
                                G22
 106854067.361 8  20333656.521          49.000       -2433.521
 110363247.880 8  21001430.672          49.000        -637.152
 115645159.095 8  22006547.843          49.000       -3425.784
 118063474.363 8  22466735.175          48.000         369.995
 124911857.522 7  23769936.364          46.000       -3539.396
 126970209.706 6  24161634.529          41.000       -4449.075
 128324945.237 7  24419433.516          46.000        1306.530
 132756366.32727  25262696.831          42.000       -4546.831
 132412698.20436  25197297.317          36.000       -5528.697
 131868801.61526  25093800.987          40.000        2002.251
 196182574.538 7  37332306.884          42.000       -1825.413
 196509647.772 7  37394546.675          43.000       -1837.419
 135550661.738 6  25794441.628          37.000          82.561
 07  8 29  8 12  0.0000000  0 13G 3G19G16G25G13G23G27G21G31G11S29S37
                                G22
 106856500.127 8  20334119.475          49.000       -2432.399
 110363884.889 8  21001552.143          50.000        -636.094
 115648584.451 8  22007199.505          48.000       -3424.571
 118063104.019 8  22466665.008          48.000         371.090
 124915396.418 7  23770609.751          45.000       -3537.892
 126974658.748 7  24162481.162          42.000       -4447.274
 128323638.312 7  24419184.973          46.000        1308.016
 132760911.46227  25263562.102          42.000       -4543.389
 132418227.24326  25198350.089          39.000       -5526.841
 131866799.31226  25093420.765          40.000        2002.605
 196184400.055 6  37332654.109          41.000       -1821.997
 196511483.838 7  37394896.082          43.000       -1834.222
 135550579.231 6  25794426.325          39.000          83.554
 07  8 29  8 12  1.0000000  0 13G 3G19G16G25G13G23G27G21G31G11S29S37
                                G22
 106858932.022 8  20334582.151          49.000       -2431.419
 110364521.358 8  21001673.003          50.000        -636.130
 115652007.978 8  22007850.974          49.000       -3422.314
 118062733.454 8  22466594.456          48.000         370.756
 124918935.170 7  23771282.928          46.000       -3538.767
 126979106.56737  24163327.899          42.000       -4447.368
 128322330.996 7  24418936.307          46.000        1307.550
 132765455.13827  25264427.075          42.000       -4541.377
 132423754.13426  25199402.111          40.000       -5525.623
 131864795.66626  25093039.531          39.000        2005.553
 196186223.682 7  37333001.142          43.000       -1821.658
 196513318.262 7  37395245.174          43.000       -1834.412
 135550494.422 6  25794409.888          36.000          87.079
 07  8 29  8 12  2.0000000  0 13G 3G19G16G25G13G23G27G21G31G11S29S37
                                G22
 106861363.080 8  20335044.809          49.000       -2430.628
 110365157.386 8  21001794.335          50.000        -635.687
 115655429.356 8  22008502.200          48.000       -3420.028
 118062363.077 8  22466523.748          48.000         369.898
 124922474.132 7  23771956.402          46.000       -3539.291
 126983554.21527  24164174.183          42.000       -4447.009
 128321023.829 7  24418687.554          47.000        1306.310
 132769997.34927  25265292.292          42.000       -4541.693
 132429278.25936  25200453.977          40.000       -5521.131
 131862790.51026  25092658.139          40.000        2006.466
 196188044.699 7  37333347.722          43.000       -1818.928
 196515150.328 7  37395593.743          44.000       -1830.095
 135550406.632 6  25794392.909          37.000          88.056
 07  8 29  8 12  3.0000000  0 13G 3G19G16G25G13G23G27G21G31G11S29S37
                                G22
 106863793.025 8  20335507.432          49.000       -2429.290
 110365793.012 8  21001915.370          49.000        -636.055
 115658847.953 8  22009152.623          49.000       -3416.998
 118061993.047 8  22466453.650          48.000         369.167
 124926013.699 7  23772630.364          45.000       -3539.921
 126988001.59227  24165020.501          42.000       -4447.333
 128319717.114 7  24418438.853          47.000        1306.965
 132774537.69227  25266156.463          42.000       -4538.277
 132434799.39326  25201505.144          39.000       -5518.022
 131860783.95526  25092276.294          41.000        2007.527
 196189863.650 6  37333693.830          41.000       -1816.005
 196516979.740 7  37395941.893          44.000       -1828.554
 135550315.334 6  25794375.845          38.000          93.746
 07  8 29  8 12  4.0000000  0 13G 3G19G16G25G13G23G27G21G31G11S29S37
                                G22
 106866222.001 8  20335969.479          49.000       -2429.162
 110366429.233 8  21002036.369          49.000        -637.715
 115662263.223 8  22009802.471          50.000       -3412.870
 118061623.760 8  22466383.447          48.000         368.231
 124929555.178 7  23773304.307          46.000       -3543.234
 126992450.29227  24165867.271          43.000       -4451.033
 128318410.828 7  24418190.397          47.000        1305.527
 132779074.82427  25267020.233          42.000       -4532.908
 132440318.12626  25202555.211          39.000       -5519.271
 131858777.82936  25091894.639          37.000        2005.162
 196191681.196 6  37334039.623          41.000       -1817.668
 196518807.339 7  37396289.694          42.000       -1828.561
 135550219.937 6  25794357.210          37.000          97.024
 07  8 29  8 12  5.0000000  0 13G 3G19G16G25G13G23G27G21G31G11S29S37
                                G22
 106868649.440 8  20336431.527          49.000       -2425.850
 110367066.892 8  21002157.560          49.000        -638.520
 115665674.340 8  22010451.673          49.000       -3409.499
 118061254.782 8  22466313.891          48.000         368.645
 124933099.896 7  23773979.088          47.000       -3546.856
 126996902.69827  24166715.001          44.000       -4454.751
 128317103.986 7  24417941.924          46.000        1307.129
 132783606.14426  25267882.624          40.000       -4528.190
 132445836.19226  25203605.400          39.000       -5517.908
 131856774.60126  25091513.752          40.000        2001.252
 196193499.673 7  37334385.591          43.000       -1818.264
 196520634.823 7  37396637.529          42.000       -1827.792
 135550120.040 5  25794338.697          34.000         102.950
 07  8 29  8 12  6.0000000  0 13G 3G19G16G25G13G23G27G21G31G11S29S37
                                G22
 106871074.620 8  20336893.208          49.000       -2423.884
 110367706.632 8  21002278.646          48.000        -640.690
 115669080.130 8  22011099.724          49.000       -3402.676
 118060885.810 7  22466243.706          46.000         368.988
 124936649.130 7  23774654.497          47.000       -3552.111
 127001360.97227  24167563.987          43.000       -4460.919
 128315795.899 7  24417693.207          45.000        1309.592
 132788129.39526  25268743.255          37.000       -4520.035
 132451354.95327  25204655.640          42.000       -5521.209
 131854777.00326  25091133.387          41.000        1994.376
 196195319.654 7  37334731.837          42.000       -1821.770
 196522463.380 7  37396985.416          42.000       -1828.868
                  25794319.626          31.000         107.514
 07  8 29  8 12  7.0000000  0 13G 3G19G16G25G13G23G27G21G31G11S29S37
                                G22
 106873497.415 8  20337354.122          50.000       -2421.499
 110368348.659 8  21002400.728          48.000        -642.101
 115672480.692 8  22011746.780          50.000       -3398.086
 118060516.220 7  22466172.771          45.000         369.570
 124940202.954 7  23775330.465          47.000       -3555.290
 127005825.56827  24168413.915          45.000       -4467.500
 128314485.592 7  24417444.175          45.000        1311.482
 132792643.622 6  25269602.699          38.000       -4510.681
 132456875.61327  25205705.864          42.000       -5520.948
 131852786.25336  25090754.105          40.000        1989.183
 196197141.822 7  37335078.572          43.000       -1822.511
 196524293.745 7  37397333.635          43.000       -1830.613
 135549948.32035  25794297.694          33.000         114.895
 07  8 29  8 12  8.0000000  0 13G 3G19G16G25G13G23G27G21G31G11S29S37
                                G22
 106875917.506 8  20337814.425          49.000       -2418.312
 110368991.694 8  21002523.176          49.000        -642.679
 115675876.693 8  22012393.207          50.000       -3393.336
 118060145.447 7  22466101.523          45.000         372.613
 124943759.680 7  23776007.358          45.000       -3558.085
 127010294.65527  24169264.489          45.000       -4470.901
 128313172.916 7  24417194.411          44.000        1313.148
 132797150.502 6  25270459.681          38.000       -4506.488
 132462397.49127  25206756.734          43.000       -5520.713
                  25090374.402          36.000        1981.344
 196198965.422 6  37335425.639          41.000       -1826.038
 196526125.018 7  37397682.133          42.000       -1830.508
 135549834.67426  25794275.847          38.000         116.792
 07  8 29  8 12  9.0000000  0 13G 3G19G16G25G13G23G27G21G31G11S29S37
                                G22
 106878335.013 8  20338273.942          48.000       -2416.208
 110369635.886 8  21002645.693          49.000        -644.784
 115679267.291 8  22013038.502          49.000       -3386.431
 118059774.469 7  22466030.762          47.000         370.909
 124947320.102 7  23776684.634          43.000       -3562.532
 127014768.35727  24170115.465          44.000       -4475.874
 128311859.211 7  24416943.966          43.000        1314.659
 132801650.380 5  25271316.508          35.000       -4496.646
 132467919.16026  25207807.342          41.000       -5519.361
 131848818.77236  25089996.082          36.000        1981.563
 196200789.303 7  37335772.760          43.000       -1822.492
 196527956.412 7  37398030.753          43.000       -1830.511
 135549716.17026  25794253.286          39.000         122.536
 07  8 29  8 12 10.0000000  0 13G 3G19G16G25G13G23G27G21G31G11S29S37
                                G22
 106880750.212 8  20338733.355          48.000       -2414.095
 110370282.826 8  21002768.576          50.000        -649.055
 115682651.091 8  22013682.400          48.000       -3379.962
 118059404.907 8  22465960.716          48.000         369.173
 124950886.810 7  23777363.375          44.000       -3569.933
 127019248.95037  24170968.516          42.000       -4481.739
 128310546.001 6  24416693.904          41.000        1313.478
                  25272171.464          29.000       -4495.984
 132473440.07426  25208857.287          40.000       -5520.006
 131846841.31336  25089619.258          38.000        1971.940
 196202613.680 6  37336119.879          41.000       -1824.256
 196529787.735 7  37398379.356          42.000       -1830.779
                  25794228.265          26.000         129.709
 07  8 29  8 12 11.0000000  0 13G 3G19G16G25G13G23G27G21G31G11S29S37
                                G22
 106883162.817 8  20339192.192          48.000       -2411.318
 110370932.063 8  21002892.227          50.000        -649.977
 115686027.951 8  22014325.006          50.000       -3373.382
 118059036.392 8  22465891.386          48.000         367.712
 124954459.472 7  23778044.106          46.000       -3575.033
 127023736.23627  24171822.178          42.000       -4489.234
 128309232.896 7  24416444.209          43.000        1313.126
 132810634.13536  25273023.390          39.000       -4478.895
 132478960.22326  25209907.319          38.000       -5518.477
                  25089245.492          29.000        1972.137
 196204438.927 6  37336467.295          41.000       -1825.072
 196531618.722 7  37398728.012          43.000       -1831.148
 135549447.78137  25794202.372          43.000         136.733
 07  8 29  8 12 12.0000000  0 13G 3G19G16G25G13G23G27G21G31G11S29S37
                                G22
 106885573.604 8  20339650.906          49.000       -2409.912
 110371583.537 8  21003016.176          50.000        -652.183
 115689399.049 8  22014966.653          50.000       -3368.235
 118058669.121 8  22465821.969          48.000         366.853
 124958037.229 7  23778725.570          45.000       -3579.959
 127028228.83327  24172676.609          44.000       -4494.527
 128307920.286 7  24416194.705          44.000        1312.127
 132815109.43427  25273874.841          42.000       -4472.500
 132484479.02127  25210957.718          42.000       -5516.895
                  25088870.991          31.000        1968.774
 196206263.877 6  37336814.642          40.000       -1824.598
 196533449.026 7  37399076.284          43.000       -1829.755
 135549308.79627  25794176.564          43.000         140.584
 07  8 29  8 12 13.0000000  0 13G 3G19G16G25G13G23G27G21G31G11S29S37
                                G22
 106887983.471 8  20340109.585          49.000       -2409.630
 110372237.203 8  21003140.333          49.000        -654.729
 115692765.597 8  22015607.234          50.000       -3364.538
 118058303.492 8  22465752.917          49.000         363.559
 124961619.299 7  23779407.279          46.000       -3583.824
 127032725.59927  24173532.330          45.000       -4499.783
 128306608.597 7  24415945.044          44.000        1310.839
 132819579.08226  25274725.682          41.000       -4464.379
 132489996.602 7  25212008.030          43.000       -5516.615
 131840938.49336  25088496.594          36.000        1961.369
 196208088.766 7  37337162.163          44.000       -1824.486
 196535278.807 7  37399424.590          42.000       -1828.703
 135549164.18727  25794149.990          42.000         148.318
 07  8 29  8 12 14.0000000  0 13G 3G19G16G25G13G23G27G21G31G11S29S37
                                G22
 106890392.446 8  20340567.916          50.000       -2408.553
 110372893.200 8  21003264.856          48.000        -657.833
 115696127.446 8  22016246.770          51.000       -3358.610
 118057939.736 8  22465683.779          49.000         362.536
 124965205.931 7  23780089.405          46.000       -3589.842
 127037226.78827  24174388.471          47.000       -4504.996
 128305298.025 7  24415695.924          44.000        1309.453
                  25275575.788          38.000       -4461.659
 132495511.864 7  25213057.888          44.000       -5513.385
 131838977.24536  25088123.507          38.000        1957.775
 196209913.225 7  37337509.335          44.000       -1824.802
 196537108.113 6  37399772.792          41.000       -1828.753
 135549014.75336  25794121.233          36.000         150.240
 07  8 29  8 12 15.0000000  0 13G 3G19G16G25G13G23G27G21G31G11S29S37
                                G22
 106892800.484 8  20341026.508          51.000       -2407.746
 110373551.895 7  21003389.886          47.000        -660.320
 115699483.968 8  22016885.589          50.000       -3353.918
 118057578.161 8  22465615.216          48.000         359.417
 124968797.779 7  23780772.841          45.000       -3595.193
 127041732.95127  24175245.816          46.000       -4508.173
 128303988.870 7  24415447.014          46.000        1308.337
 132828497.17636  25276422.686          40.000       -4450.937
 132501024.874 7  25214107.729          45.000       -5511.850
 131837019.59426  25087751.904          38.000        1954.547
 196211737.795 7  37337856.699          43.000       -1825.088
 196538936.809 7  37400120.714          42.000       -1828.605
 135548857.47527  25794090.594          43.000         160.495
 07  8 29  8 12 16.0000000  0 13G 3G19G16G25G13G23G27G21G31G11S29S37
                                G22
 106895208.291 8  20341485.239          52.000       -2407.529
 110374214.363 8  21003515.823          48.000        -663.521
 115702835.263 8  22017522.925          50.000       -3348.598
 118057219.671 8  22465547.019          48.000         357.002
 124972395.906 7  23781457.550          44.000       -3601.333
 127046245.03626  24176104.487          40.000       -4514.537
 128302681.879 7  24415198.522          47.000        1306.283
 132832948.07737  25277268.639          42.000       -4447.230
 132506535.746 7  25215156.313          45.000       -5509.198
 131835065.47936  25087380.038          38.000        1951.250
 196213562.832 6  37338204.027          41.000       -1825.739
 196540765.614 7  37400468.637          42.000       -1829.314
 135548693.22337  25794059.798          44.000         168.223
 07  8 29  8 12 17.0000000  0 13G 3G19G16G25G13G23G27G21G31G11S29S37
                                G22
 106897615.662 8  20341943.796          52.000       -2407.017
 110374879.922 8  21003642.598          50.000        -667.261
 115706181.849 8  22018159.912          49.000       -3344.107
 118056863.500 7  22465479.329          47.000         354.866
 124975999.228 7  23782143.098          45.000       -3605.385
 127050762.22226  24176964.066          39.000       -4518.400
 128301376.199 7  24414950.048          47.000        1304.726
 132837392.68927  25278113.930          43.000       -4441.444
 132512044.960 7  25216204.636          43.000       -5507.753
 131833115.29726  25087008.959          40.000        1949.632
 196215389.044 6  37338551.495          41.000       -1827.931
 196542594.398 6  37400816.525          41.000       -1827.559
 135548522.60327  25794028.215          42.000         173.221
 07  8 29  8 12 18.0000000  0 13G 3G19G16G25G13G23G27G21G31G11S29S37
                                G22
 106900022.467 8  20342401.690          52.000       -2405.760
 110375548.759 8  21003770.594          50.000        -670.223
 115709523.212 8  22018795.574          49.000       -3338.394
 118056509.902 7  22465412.319          47.000         352.091
 124979608.345 7  23782829.535          45.000       -3611.913
 127055285.00527  24177824.778          44.000       -4525.022
 128300072.232 7  24414702.010          45.000        1303.373
 132841830.58627  25278958.436          44.000       -4434.360
 132517552.235 7  25217252.819          43.000       -5506.482
 131831169.14726  25086637.791          37.000        1945.784
 196217215.211 6  37338898.982          41.000       -1825.572
 196544422.873 7  37401164.447          43.000       -1827.803
 135548345.34025  25793995.569          34.000         182.384
 07  8 29  8 12 19.0000000  0 13G 3G19G16G25G13G23G27G21G31G11S29S37
                                G22
 106902428.616 8  20342859.776          51.000       -2405.756
 110376221.473 8  21003898.450          49.000        -674.705
 115712858.048 8  22019429.979          49.000       -3330.909
 118056159.933 8  22465345.082          51.000         347.416
 124983224.733 7  23783517.192          47.000       -3620.231
 127059814.798 7  24178686.710          43.000       -4533.746
 128298771.031 6  24414454.285          41.000        1299.790
 132846260.98727  25279801.545          42.000       -4427.767
 132523056.464 6  25218300.165          41.000       -5500.664
 131829227.22326  25086267.181          39.000        1940.374
 196219041.631 7  37339246.452          43.000       -1824.186
 196546250.329 7  37401512.196          43.000       -1825.411
 135548159.43526  25793960.689          36.000         191.249
 07  8 29  8 12 20.0000000  0 13G 3G19G16G25G13G23G27G21G31G11S29S37
                                G22
 106904834.236 8  20343317.600          51.000       -2404.578
 110376898.076 8  21004027.179          49.000        -677.335
 115716186.180 8  22020063.442          49.000       -3324.188
 118055813.931 8  22465279.259          51.000         344.851
 124986848.392 7  23784206.631          47.000       -3627.002
 127064350.602 6  24179550.094          41.000       -4536.978
 128297473.068 7  24414207.102          42.000        1296.941
 132850684.11727  25280643.784          42.000       -4418.686
 132528556.981 7  25219347.092          45.000       -5497.578
 131827289.18126  25085898.894          37.000        1938.211
 196220867.418 6  37339594.025          41.000       -1824.331
 196548076.633 7  37401859.787          43.000       -1825.011
 135547964.68825  25793924.378          33.000         198.831
 07  8 29  8 12 21.0000000  0 13G 3G19G16G25G13G23G27G21G31G11S29S37
                                G22
 106907238.638 8  20343775.180          51.000       -2403.783
 110377577.720 8  21004156.885          49.000        -681.395
 115719506.881 7  22020694.916          47.000       -3316.410
 118055471.828 8  22465214.394          51.000         339.877
 124990479.068 7  23784897.866          43.000       -3634.039
 127068892.267 7  24180413.493          46.000       -4544.173
 128296178.945 7  24413961.436          45.000        1292.886
 132855100.55927  25281484.659          44.000       -4412.530
 132534052.853 7  25220393.096          43.000       -5491.146
 131825354.09235  25085530.204          34.000        1935.837
 196222691.602 7  37339941.320          42.000       -1823.056
 196549900.355 7  37402206.890          42.000       -1822.588
                  25793885.834          28.000         206.850
 07  8 29  8 12 22.0000000  0 13G 3G19G16G25G13G23G27G21G31G11S29S37
                                G22
 106909641.890 8  20344232.621          51.000       -2402.421
 110378260.212 8  21004286.958          50.000        -684.210
 115722819.584 7  22021325.727          47.000       -3309.097
 118055134.524 8  22465150.490          51.000         334.827
 124994117.253 6  23785589.886          41.000       -3641.483
 127073439.243 7  24181278.463          46.000       -4549.022
 128294889.988 7  24413716.136          44.000        1286.392
 132859511.03027  25282324.156          43.000       -4408.459
 132539542.237 6  25221437.929          40.000       -5488.543
 131823420.70626  25085162.598          37.000        1934.026
 196224512.740 7  37340288.127          42.000       -1817.911
 196551719.752 7  37402553.122          43.000       -1816.692
                  25793844.917          34.000         217.255
 07  8 29  8 12 23.0000000  0 13G 3G19G16G25G13G23G27G21G31G11S29S37
                                G22
 106912044.320 8  20344689.922          51.000       -2401.409
 110378945.116 8  21004417.363          49.000        -685.753
 115726124.697 7  22021955.124          46.000       -3301.453
 118054802.320 8  22465087.248          50.000         330.199
 124997762.103 7  23786283.059          44.000       -3647.698
 127077990.316 7  24182143.905          45.000       -4552.597
 128293606.788 7  24413472.198          46.000        1281.681
 132863916.87926  25283162.694          39.000       -4402.541
 132545024.328 7  25222481.421          42.000       -5478.253
 131821487.74926  25084795.498          40.000        1934.953
 196226330.121 7  37340633.888          43.000       -1813.834
 196553534.461 7  37402898.412          43.000       -1811.434
 135547342.56436  25793801.766          39.000         226.584
 07  8 29  8 12 24.0000000  0 13G 3G19G16G25G13G23G27G21G31G11S29S37
                                G22
 106914445.495 8  20345146.454          51.000       -2400.718
 110379630.615 8  21004547.559          49.000        -685.446
 115729424.752 7  22022583.280          46.000       -3299.075
 118054472.325 8  22465024.340          49.000         330.356
 125001410.115 7  23786977.298          46.000       -3647.553
 127082542.872 7  24183009.855          45.000       -4551.870
 128292326.199 7  24413228.627          45.000        1280.402
 132868319.57326  25284000.496          39.000       -4402.092
 132550501.351 7  25223523.566          42.000       -5476.206
 131819554.13626  25084428.066          40.000        1934.355
 196228143.701 7  37340979.053          42.000       -1813.396
 196555345.408 7  37403242.967          43.000       -1809.561
 135547111.42326  25793758.019          39.000         228.538
 07  8 29  8 12 25.0000000  0 13G 3G19G16G25G13G23G27G21G31G11S29S37
                                G22
 106916845.574 8  20345603.372          51.000       -2398.932
 110380315.729 8  21004677.703          49.000        -684.580
 115732723.056 7  22023211.018          44.000       -3296.998
 118054141.779 8  22464961.310          50.000         331.169
 125005058.281 7  23787671.974          46.000       -3647.619
 127087095.433 7  24183875.962          45.000       -4552.591
 128291044.735 7  24412984.988          46.000        1281.962
 132872720.29436  25284838.404          38.000       -4400.407
 132555977.327 7  25224565.606          43.000       -5475.783
 131817620.27026  25084060.582          40.000        1934.603
 196229956.510 7  37341324.132          44.000       -1811.114
 196557155.326 7  37403587.434          43.000       -1809.545
 135546878.39336  25793714.152          37.000         234.852
 07  8 29  8 12 26.0000000  0 13G 3G19G16G25G13G23G27G21G31G11S29S37
                                G22
 106919244.303 8  20346059.625          51.000       -2398.325
 110381000.105 8  21004807.830          49.000        -683.925
 115736019.719 7  22023838.738          44.000       -3295.900
 118053810.198 8  22464898.228          50.000         332.315
 125008706.061 7  23788365.900          47.000       -3646.747
 127091647.691 7  24184741.998          45.000       -4552.857
 128289761.821 7  24412740.808          47.000        1284.385
 132877119.01026  25285675.003          37.000       -4397.616
 132561452.544 7  25225607.576          43.000       -5476.112
 131815686.03526  25083692.225          40.000        1934.754
 196231768.333 7  37341668.791          42.000       -1811.393
 196558964.554 7  37403931.623          42.000       -1808.920
 135546643.77126  25793669.601          36.000         234.618
 07  8 29  8 12 27.0000000  0 13G 3G19G16G25G13G23G27G21G31G11S29S37
                                G22
 106921642.024 8  20346515.966          51.000       -2396.951
 110381683.952 8  21004938.078          49.000        -683.552
 115739315.087 7  22024465.637          44.000       -3294.462
 118053477.812 8  22464835.024          50.000         333.107
 125012353.572 7  23789059.912          47.000       -3647.068
 127096199.607 7  24185608.420          45.000       -4550.580
 128288477.734 7  24412496.418          47.000        1285.301
 132881516.03526  25286512.336          37.000       -4393.885
 132566927.082 7  25226649.319          43.000       -5474.815
 131813751.40926  25083324.705          40.000        1933.286
 196233579.523 7  37342013.451          44.000       -1809.711
 196560772.835 7  37404275.776          43.000       -1807.386
 135546407.87626  25793625.034          39.000         236.556
 07  8 29  8 12 28.0000000  0 13G 3G19G16G25G13G23G27G21G31G11S29S37
                                G22
 106924038.296 8  20346971.854          51.000       -2395.034
 110382366.950 8  21005068.083          49.000        -681.639
 115742608.747 7  22025092.520          44.000       -3291.873
 118053144.242 8  22464771.558          50.000         333.793
 125016000.597 7  23789753.750          46.000       -3647.374
 127100751.132 7  24186474.265          46.000       -4551.446
 128287192.050 7  24412251.836          46.000        1287.348
 132885910.85126  25287349.196          37.000       -4393.026
 132572400.839 7  25227690.993          43.000       -5473.734
 131811816.37526  25082956.385          39.000        1936.152
 196235390.249 7  37342357.988          43.000       -1809.710
 196562580.158 7  37404619.580          42.000       -1807.857
 135546170.46726  25793580.207          37.000         242.755
 07  8 29  8 12 29.0000000  0 13G 3G19G16G25G13G23G27G21G31G11S29S37
                                G22
 106926433.268 8  20347427.549          51.000       -2394.080
 110383049.249 8  21005197.878          49.000        -681.567
 115745900.744 7  22025719.053          44.000       -3291.373
 118052809.648 8  22464707.830          50.000         334.723
 125019647.210 7  23790447.606          46.000       -3645.919
 127105302.250 7  24187340.075          46.000       -4551.564
 128285904.906 7  24412006.469          46.000        1287.101
 132890303.71726  25288184.365          38.000       -4391.265
 132577873.703 7  25228732.405          42.000       -5473.004
 131809880.90726  25082588.185          39.000        1935.634
 196237199.698 7  37342702.177          43.000       -1808.035
 196564386.346 7  37404963.211          42.000       -1805.456
                  25793534.838          34.000         246.917
 07  8 29  8 12 30.0000000  0 13G 3G19G16G25G13G23G27G21G31G11S29S37
                                G22
 106928827.122 8  20347883.018          51.000       -2393.393
 110383731.019 8  21005327.620          49.000        -681.338
 115749191.226 7  22026345.394          44.000       -3289.256
 118052474.133 8  22464643.771          49.000         336.102
 125023293.481 7  23791141.828          46.000       -3647.997
 127109853.070 7  24188205.902          45.000       -4551.762
 128284616.434 7  24411761.416          46.000        1289.965
 132894694.50726  25289019.288          37.000       -4391.127
 132583345.686 7  25229773.729          42.000       -5472.004
 131807944.98126  25082219.288          39.000        1936.249
 196239008.338 7  37343046.226          42.000       -1806.903
 196566191.614 7  37405306.789          42.000       -1804.354
                  25793488.125          31.000         249.906
 07  8 29  8 12 31.0000000  0 13G 3G19G16G25G13G23G27G21G31G11S29S37
                                G22
 106931219.797 8  20348338.504          51.000       -2391.930
 110384412.238 8  21005457.275          48.000        -681.365
 115752479.973 7  22026971.142          44.000       -3287.674
 118052137.886 8  22464580.008          50.000         337.229
 125026939.675 7  23791835.562          46.000       -3646.403
 127114403.576 7  24189071.956          45.000       -4551.423
 128283326.856 7  24411516.171          47.000        1289.837
 132899083.20326  25289854.421          38.000       -4388.102
 132588816.578 7  25230814.740          42.000       -5470.450
 131806009.097 6  25081850.704          40.000        1935.693
 196240815.484 7  37343390.152          42.000       -1806.433
 196567995.588 7  37405650.053          42.000       -1800.707
                  25793440.504          26.000         252.040
 07  8 29  8 12 32.0000000  0 13G 3G19G16G25G13G23G27G21G31G11S29S37
                                G22
 106933611.167 8  20348793.676          51.000       -2390.179
 110385092.764 8  21005586.722          49.000        -679.886
 115755766.660 7  22027596.594          43.000       -3285.378
 118051800.873 8  22464515.687          50.000         338.214
 125030585.610 7  23792529.313          46.000       -3644.362
 127118953.680 7  24189937.697          45.000       -4549.479
 128282036.197 7  24411270.717          46.000        1291.812
 132903469.75126  25290689.398          38.000       -4384.848
 132594285.59836  25231855.924          40.000       -5473.633
 131804072.014 6  25081482.383          39.000        1937.471
 196242621.446 7  37343733.783          44.000       -1804.208
 196569798.101 7  37405993.159          43.000       -1801.412
                  25793393.421          30.000         246.373
 07  8 29  8 12 33.0000000  0 13G 3G19G16G25G13G23G27G21G31G11S29S37
                                G22
 106936001.242 8  20349248.464          51.000       -2389.113
 110385772.413 8  21005716.150          49.000        -678.504
 115759052.008 7  22028221.748          44.000       -3284.029
 118051462.605 8  22464451.436          49.000         339.192
 125034230.829 7  23793223.151          46.000       -3644.424
 127123503.162 7  24190803.630          45.000       -4548.602
 128280743.842 7  24411024.722          46.000        1293.690
 132907854.38826  25291523.449          38.000       -4383.217
                  25232895.960          40.000       -5465.769
 131802134.392 6  25081113.939          40.000        1937.432
 196244426.736 7  37344077.238          43.000       -1804.017
 196571599.954 7  37406336.039          43.000       -1800.786
 135544949.04036  25793346.253          37.000         244.678
 07  8 29  8 12 34.0000000  0 13G 3G19G16G25G13G23G27G21G31G11S29S37
                                G22
 106938390.144 8  20349703.095          51.000       -2388.037
 110386451.247 8  21005845.596          49.000        -678.656
 115762336.293 7  22028846.571          44.000       -3282.964
 118051122.992 8  22464386.731          50.000         340.639
 125037875.167 7  23793916.798          46.000       -3643.939
 127128051.922 7  24191669.352          45.000       -4549.149
 128279449.680 7  24410778.570          46.000        1295.611
 132912237.32226  25292357.640          38.000       -4381.955
 132605221.45837  25233934.648          44.000       -5468.592
 131800196.224 6  25080745.024          40.000        1937.787
 196246231.525 7  37344420.903          42.000       -1803.273
 196573400.948 7  37406678.709          42.000       -1800.670
                  25793299.678          29.000         243.854
 07  8 29  8 12 35.0000000  0 13G 3G19G16G25G13G23G27G21G31G11S29S37
                                G22
 106940777.779 8  20350157.499          51.000       -2386.822
 110387129.211 8  21005974.275          48.000        -677.420
 115765619.366 7  22029471.289          44.000       -3282.910
 118050782.074 8  22464322.026          50.000         341.690
 125041518.750 7  23794610.026          46.000       -3642.357
 127132600.065 7  24192534.918          45.000       -4548.130
 128278153.761 7  24410532.086          47.000        1296.788
 132916618.42326  25293190.557          38.000       -4379.384
 132610689.34827  25234975.605          42.000       -5469.433
 131798257.516 6  25080376.249          40.000        1939.019
 196248035.620 7  37344764.114          43.000       -1803.023
 196575201.153 7  37407021.396          42.000       -1800.552
                  25793251.012          25.000         251.506
 07  8 29  8 12 36.0000000  0 13G 3G19G16G25G13G23G27G21G31G11S29S37
                                G22
 106943164.241 8  20350611.589          51.000       -2386.149
 110387806.563 8  21006103.162          49.000        -677.283
 115768900.633 7  22030095.729          44.000       -3280.084
 118050440.462 8  22464257.094          50.000         342.195
 125045162.068 7  23795303.183          46.000       -3642.910
 127137147.768 7  24193400.031          45.000       -4547.145
 128276856.757 7  24410285.428          45.000        1297.728
 132920997.62226  25294024.416          38.000       -4378.220
                  25236016.512          35.000       -5465.704
 131796318.125 6  25080007.003          38.000        1940.310
 196249837.974 7  37345107.063          42.000       -1802.768
 196577000.461 7  37407363.945          42.000       -1797.646
                  25793203.440          22.000         244.915
 07  8 29  8 12 37.0000000  0 12G 3G19G16G25G13G23G27G21G31G11S29S37
 106945549.551 8  20351065.487          51.000       -2384.352
 110388483.199 8  21006231.858          48.000        -675.506
 115772180.274 7  22030719.749          44.000       -3278.598
 118050098.089 8  22464191.725          50.000         343.008
 125048805.051 7  23795995.940          46.000       -3642.047
 127141694.908 7  24194265.178          45.000       -4546.771
 128275558.729 7  24410038.456          47.000        1300.545
 132925374.999 6  25294857.334          37.000       -4375.091
                  25237057.610          29.000       -5465.764
 131794378.007 6  25079638.333          38.000        1941.909
 196251639.017 7  37345449.700          42.000       -1798.669
 196578798.960 7  37407706.179          42.000       -1796.614
 07  8 29  8 12 38.0000000  0 12G 3G19G16G25G13G23G27G21G31G11S29S37
 106947933.617 8  20351519.054          51.000       -2382.770
 110389159.015 8  21006360.361          48.000        -675.434
 115775458.313 7  22031343.647          44.000       -3276.719
 118049754.852 8  22464126.340          50.000         343.417
 125052447.560 7  23796689.411          46.000       -3642.040
 127146241.427 7  24195130.499          46.000       -4546.499
 128274259.642 7  24409791.203          46.000        1300.285
 132929750.833 6  25295690.512          39.000       -4374.503
 132627091.14236  25238096.352          40.000       -5463.960
 131792436.991 6  25079268.649          39.000        1940.746
 196253439.063 7  37345792.108          44.000       -1798.523
 196580596.004 7  37408048.099          43.000       -1795.804
 07  8 29  8 12 39.0000000  0 12G 3G19G16G25G13G23G27G21G31G11S29S37
 106950316.972 8  20351972.672          52.000       -2382.548
 110389834.472 8  21006488.690          49.000        -675.023
 115778735.233 7  22031967.196          44.000       -3277.320
 118049411.020 8  22464060.902          50.000         344.376
 125056089.699 7  23797382.412          46.000       -3641.637
 127150787.361 7  24195995.647          46.000       -4545.618
 128272959.421 7  24409543.690          47.000        1300.337
 132934125.053 6  25296522.749          39.000       -4372.822
                  25239134.781          36.000       -5461.523
 131790495.358 6  25078899.386          40.000        1941.530
 196255238.272 7  37346134.603          44.000       -1798.402
 196582392.095 7  37408389.844          43.000       -1795.407
 07  8 29  8 12 40.0000000  0 12G 3G19G16G25G13G23G27G21G31G11S29S37
 106952699.110 8  20352425.995          52.000       -2381.282
 110390509.010 8  21006617.264          49.000        -673.753
 115782010.754 7  22032590.536          44.000       -3274.320
 118049066.191 8  22463995.289          50.000         346.138
 125059731.200 7  23798075.238          46.000       -3639.948
 127155332.546 7  24196860.515          46.000       -4544.678
 128271657.966 7  24409295.740          47.000        1302.478
 132938497.759 6  25297355.229          39.000       -4371.473
 132638001.10337  25240172.546          44.000       -5459.290
 131788552.734 6  25078529.791          40.000        1944.913
 196257036.395 7  37346476.646          43.000       -1796.748
 196584186.627 7  37408731.696          43.000       -1791.260
 07  8 29  8 12 41.0000000  0 13G 3G19G16G25G13G23G27G21G31G11S29S37
                                G22
 106955080.184 8  20352879.212          52.000       -2380.493
 110391182.793 8  21006745.680          49.000        -673.332
 115785284.921 7  22033213.318          44.000       -3272.080
 118048720.536 8  22463929.450          50.000         346.312
 125063372.128 7  23798768.064          47.000       -3640.295
 127159876.949 7  24197725.051          46.000       -4544.479
 128270355.404 7  24409047.651          47.000        1303.289
 132942869.043 6  25298186.907          39.000       -4370.609
 132643462.02527  25241212.387          44.000       -5459.247
 131786609.239 6  25078159.899          39.000        1943.899
 196258833.902 7  37346818.653          43.000       -1794.349
 196585979.782 7  37409073.022          42.000       -1790.027
 135542912.94436  25792958.776          36.000         259.217
 07  8 29  8 12 42.0000000  0 13G 3G19G16G25G13G23G27G21G31G11S29S37
                                G22
 106957460.543 8  20353331.976          51.000       -2379.597
 110391856.245 8  21006873.852          49.000        -672.722
 115788557.621 7  22033836.326          44.000       -3271.539
 118048374.797 8  22463863.715          50.000         345.482
 125067013.194 7  23799461.134          46.000       -3641.371
 127164421.016 7  24198590.093          46.000       -4543.573
 128269052.622 7  24408799.578          46.000        1301.724
 132947239.099 6  25299018.323          38.000       -4369.813
 132648921.34427  25242252.298          44.000       -5458.097
 131784664.897 6  25077789.832          39.000        1944.092
 196260629.943 7  37347160.346          43.000       -1795.269
 196587771.907 7  37409413.999          42.000       -1790.491
 135542652.72425  25792912.062          35.000         260.818
 07  8 29  8 12 43.0000000  0 13G 3G19G16G25G13G23G27G21G31G11S29S37
                                G22
 106959840.262 8  20353784.739          51.000       -2379.293
 110392529.576 8  21007002.111          49.000        -672.984
 115791828.086 7  22034458.845          44.000       -3269.724
 118048029.704 8  22463798.119          50.000         345.694
 125070654.898 7  23800154.152          47.000       -3641.292
 127168964.758 7  24199454.769          46.000       -4543.343
                  24408551.524          42.000        1303.859
 132951607.722 6  25299849.006          37.000       -4369.332
 132654377.83727  25243291.076          43.000       -5454.242
 131782719.265 6  25077419.557          40.000        1947.173
 196262423.517 7  37347501.604          44.000       -1791.888
 196589561.933 7  37409754.733          42.000       -1789.371
 135542389.37635  25792866.240          32.000         265.765
 07  8 29  8 12 44.0000000  0 13G 3G19G16G25G13G23G27G21G31G11S29S37
                                G22
 106962219.028 8  20354237.416          51.000       -2378.166
 110393202.313 8  21007130.161          49.000        -672.435
 115795096.837 7  22035081.069          44.000       -3267.655
 118047684.241 8  22463732.420          51.000         346.627
 125074296.377 7  23800847.100          46.000       -3641.806
 127173507.745 7  24200319.410          46.000       -4542.662
                  24408302.458          39.000        1306.907
 132955974.815 6  25300680.632          38.000       -4366.081
 132659832.32527  25244329.923          43.000       -5453.720
 131780772.333 6  25077048.758          40.000        1948.100
 196264215.047 7  37347842.459          45.000       -1790.424
 196591350.268 7  37410095.065          43.000       -1787.504
                  25792816.176          32.000         267.856
 07  8 29  8 12 45.0000000  0 13G 3G19G16G25G13G23G27G21G31G11S29S37
                                G22
 106964596.908 8  20354690.057          52.000       -2377.020
 110393874.399 8  21007258.490          49.000        -671.849
 115798364.101 7  22035702.785          44.000       -3266.176
 118047338.349 8  22463666.650          51.000         346.086
 125077937.503 7  23801539.822          43.000       -3639.087
 127178049.955 7  24201183.685          46.000       -4542.453
                  24408053.546          41.000        1301.772
 132960340.640 6  25301511.645          37.000       -4368.775
 132665285.22127  25245367.880          42.000       -5452.357
 131778824.305 6  25076677.818          41.000        1946.811
 196266005.723 7  37348183.227          43.000       -1790.653
 196593136.962 7  37410435.101          42.000       -1784.432
 135541891.25435  25792764.491          35.000         273.660
 07  8 29  8 12 46.0000000  0 13G 3G19G16G25G13G23G27G21G31G11S29S37
                                G22
 106966973.824 8  20355142.193          52.000       -2375.999
 110394545.742 8  21007385.790          49.000        -670.437
 115801630.054 7  22036324.083          43.000       -3265.220
 118046991.906 8  22463600.758          51.000         347.142
 125081578.194 7  23802232.962          45.000       -3639.377
 127182591.384 7  24202048.204          46.000       -4540.685
 128263882.65737  24407805.475          46.000        1304.640
 132964705.325 6  25302341.736          36.000       -4365.666
 132670736.83427  25246405.645          45.000       -5450.771
 131776875.098 6  25076306.775          41.000        1950.513
 196267795.281 7  37348523.891          43.000       -1787.831
 196594921.953 7  37410774.805          42.000       -1782.433
 135541622.28125  25792713.273          34.000         269.177
 07  8 29  8 12 47.0000000  0 13G 3G19G16G25G13G23G27G21G31G11S29S37
                                G22
 106969349.891 8  20355594.346          52.000       -2375.310
 110395216.379 8  21007513.247          49.000        -669.926
 115804894.735 7  22036945.207          43.000       -3264.070
 118046644.851 8  22463534.377          51.000         347.591
 125085218.335 7  23802925.753          47.000       -3640.204
 127187131.832 7  24202911.868          46.000       -4539.249
 128262577.67627  24407558.049          46.000        1305.927
 132969068.870 6  25303172.000          37.000       -4364.057
 132676186.86637  25247442.991          42.000       -5448.042
 131774924.740 7  25075935.837          43.000        1952.164
 196269583.148 7  37348864.049          43.000       -1786.134
 196596705.854 7  37411114.090          42.000       -1781.291
 135541353.22335  25792662.407          35.000         272.313
 07  8 29  8 12 48.0000000  0 13G 3G19G16G25G13G23G27G21G31G11S29S37
                                G22
 106971725.171 8  20356046.464          52.000       -2374.716
 110395886.433 8  21007640.721          49.000        -669.662
 115808158.275 7  22037566.086          43.000       -3263.932
 118046297.329 8  22463468.451          51.000         348.089
 125088858.078 7  23803618.440          47.000       -3639.918
 127191671.514 7  24203775.951          46.000       -4539.829
 128261272.16227  24407310.256          42.000        1305.500
 132973431.401 6  25304001.916          37.000       -4363.284
 132681635.65827  25248479.849          44.000       -5447.805
 131772973.302 6  25075564.601          41.000        1952.593
 196271369.770 7  37349203.858          43.000       -1783.986
 196598488.273 7  37411453.358          42.000       -1779.862
 135541081.17725  25792609.846          35.000         272.380
 07  8 29  8 12 49.0000000  0 13G 3G19G16G25G13G23G27G21G31G11S29S37
                                G22
 106974099.663 8  20356498.145          51.000       -2373.914
 110396555.760 8  21007768.230          49.000        -668.351
 115811420.604 7  22038186.895          43.000       -3261.681
 118045949.382 8  22463402.628          51.000         348.105
 125092497.271 7  23804311.162          47.000       -3638.690
 127196210.226 7  24204639.860          46.000       -4536.708
 128259965.82127  24407061.852          45.000        1307.300
 132977793.013 6  25304832.407          37.000       -4362.999
 132687082.90827  25249516.322          44.000       -5446.095
 131771020.553 6  25075193.156          40.000        1953.555
 196273155.081 7  37349543.771          45.000       -1783.836
 196600269.365 7  37411792.293          43.000       -1780.912
 135540807.68726  25792557.635          36.000         271.147
 07  8 29  8 12 50.0000000  0 13G 3G19G16G25G13G23G27G21G31G11S29S37
                                G22
 106976473.565 8  20356950.228          52.000       -2373.789
 110397223.880 8  21007895.495          49.000        -667.534
 115814682.310 7  22038807.443          44.000       -3261.009
 118045600.900 8  22463336.248          51.000         347.877
 125096135.114 7  23805003.133          47.000       -3636.440
 127200746.736 7  24205503.105          46.000       -4535.333
 128258659.04527  24406813.501          46.000        1308.094
 132982154.817 6  25305662.532          38.000       -4360.675
 132692528.01027  25250552.413          43.000       -5442.967
 131769065.215 6  25074820.944          40.000        1957.359
 196274938.294 7  37349883.004          44.000       -1782.152
 196602048.583 6  37412130.777          41.000       -1776.322
 135540533.14626  25792505.739          37.000         274.645
 07  8 29  8 12 51.0000000  0 13G 3G19G16G25G13G23G27G21G31G11S29S37
                                G22
 106978846.950 8  20357401.683          52.000       -2373.237
 110397890.314 8  21008022.306          49.000        -665.501
 115817943.999 7  22039428.304          44.000       -3261.770
 118045251.565 8  22463269.886          51.000         350.386
 125099770.737 7  23805695.140          47.000       -3634.064
 127205280.166 7  24206365.897          46.000       -4531.766
 128257351.61927  24406564.678          45.000        1306.944
 132986517.778 6  25306493.144          38.000       -4363.223
 132697971.02327  25251588.380          42.000       -5441.641
 131767106.523 6  25074447.999          40.000        1960.487
 196276719.231 7  37350221.940          44.000       -1780.460
 196603825.615 7  37412468.788          42.000       -1776.190
 135540258.25726  25792453.249          40.000         275.492
 07  8 29  8 12 52.0000000  0 13G 3G19G16G25G13G23G27G21G31G11S29S37
                                G22
 106981219.822 8  20357853.382          52.000       -2372.820
 110398554.953 8  21008148.716          49.000        -663.673
 115821205.794 7  22040049.130          45.000       -3262.101
 118044901.288 8  22463203.278          51.000         350.509
 125103403.921 7  23806386.518          47.000       -3632.542
 127209810.269 7  24207227.887          45.000       -4528.740
 128256043.42127  24406315.751          45.000        1307.937
 132990881.945 6  25307323.704          36.000       -4365.081
 132703411.87827  25252623.860          43.000       -5439.142
 131765144.327 6  25074075.055          41.000        1964.787
 196278497.557 7  37350560.406          43.000       -1776.313
 196605600.218 7  37412806.503          42.000       -1772.934
 135539982.95026  25792400.724          40.000         275.368
 07  8 29  8 12 53.0000000  0 13G 3G19G16G25G13G23G27G21G31G11S29S37
                                G22
 106983592.810 8  20358304.802          52.000       -2372.727
 110399218.590 8  21008274.882          49.000        -663.263
 115824467.153 7  22040669.643          44.000       -3259.723
 118044551.546 8  22463136.513          51.000         349.132
 125107035.914 7  23807077.512          46.000       -3631.283
 127214337.601 7  24208089.231          45.000       -4525.281
 128254736.10027  24406067.259          45.000        1305.818
 132995247.495 6  25308154.787          37.000       -4365.826
 132708849.30127  25253658.624          43.000       -5435.117
 131763178.397 6  25073700.836          41.000        1968.543
 196280273.151 7  37350898.174          43.000       -1771.698
 196607372.099 7  37413143.765          42.000       -1768.959
 135539706.03926  25792347.800          38.000         280.606
 07  8 29  8 12 54.0000000  0 13G 3G19G16G25G13G23G27G21G31G11S29S37
                                G22
 106985965.837 8  20358756.291          51.000       -2373.095
 110399881.852 8  21008400.925          48.000        -662.913
 115827726.479 7  22041289.790          43.000       -3258.301
 118044203.626 8  22463070.097          50.000         347.178
 125110668.293 7  23807768.907          44.000       -3632.771
 127218863.171 7  24208950.330          45.000       -4525.198
 128253431.16927  24405819.239          44.000        1304.417
 132999613.756 5  25308986.569          35.000       -4367.716
 132714281.66727  25254692.569          43.000       -5429.356
 131761208.891 7  25073326.094          43.000        1971.651
 196282045.093 7  37351235.244          42.000       -1768.331
 196609140.285 6  37413480.188          41.000       -1768.707
 135539425.57126  25792294.281          39.000         283.337
 07  8 29  8 12 55.0000000  0 13G 3G19G16G25G13G23G27G21G31G11S29S37
                                G22
 106988339.216 8  20359208.042          51.000       -2373.190
 110400545.394 8  21008527.403          49.000        -664.046
 115830983.376 7  22041909.675          42.000       -3255.634
 118043858.318 8  22463004.081          50.000         344.178
 125114302.093 7  23808460.389          42.000       -3633.559
 127223387.804 7  24209811.516          43.000       -4523.205
 128252129.389 7  24405571.776          44.000        1300.951
 133003980.143 6  25309816.798          38.000       -4365.727
 132719708.657 7  25255725.398          42.000       -5423.351
 131759236.202 7  25072950.637          44.000        1975.101
 196283813.681 7  37351571.981          43.000       -1767.378
 196610904.906 7  37413816.002          42.000       -1763.247
 135539140.997 6  25792240.274          41.000         287.630
 07  8 29  8 12 56.0000000  0 13G 3G19G16G25G13G23G27G21G31G11S29S37
                                G22
 106990712.662 8  20359659.951          51.000       -2373.057
 110401209.020 8  21008654.023          49.000        -663.217
 115834237.684 6  22042528.461          41.000       -3252.199
 118043515.323 8  22462939.061          50.000         341.788
 125117937.066 7  23809151.906          43.000       -3634.667
 127227911.341 7  24210672.143          43.000       -4523.905
 128250830.479 7  24405324.505          44.000        1298.530
 133008346.508 6  25310647.255          37.000       -4364.895
 132725130.194 6  25256756.724          39.000       -5420.092
 131757260.362 7  25072574.777          45.000        1977.191
 196285578.517 7  37351907.900          43.000       -1761.268
 196612665.578 7  37414151.013          42.000       -1757.049
 135538851.489 6  25792185.203          41.000         292.069
 07  8 29  8 12 57.0000000  0 13G 3G19G16G25G13G23G27G21G31G11S29S37
                                G22
 106993086.195 8  20360111.475          51.000       -2373.754
 110401872.651 8  21008780.345          48.000        -663.771
 115837489.663 6  22043146.357          40.000       -3250.015
 118043174.488 8  22462874.128          50.000         340.023
 125121573.102 7  23809843.317          45.000       -3637.028
 127232433.760 6  24211532.596          41.000       -4522.676
 128249534.318 7  24405077.705          44.000        1294.426
 133012713.022 6  25311477.518          40.000       -4367.220
 132730546.679 6  25257787.127          36.000       -5414.675
 131755281.481 7  25072198.325          45.000        1980.123
 196287339.701 6  37352242.718          41.000       -1759.201
 196614422.543 7  37414485.343          43.000       -1754.911
 135538557.811 6  25792129.243          36.000         300.215
 07  8 29  8 12 58.0000000  0 13G 3G19G16G25G13G23G27G21G31G11S29S37
                                G22
 106995459.828 8  20360563.121          51.000       -2373.815
 110402536.160 8  21008906.457          48.000        -663.634
 115840739.399 6  22043764.147          39.000       -3249.044
 118042835.784 8  22462809.561          50.000         337.523
 125125209.987 7  23810535.271          46.000       -3636.829
 127236954.906 7  24212392.613          42.000       -4521.452
 128248240.883 7  24404831.517          44.000        1291.660
 133017080.103 6  25312308.235          41.000       -4366.897
 132735958.14135  25258817.040          34.000       -5409.772
 131753299.422 7  25071820.948          45.000        1983.369
 196289097.487 7  37352577.258          42.000       -1754.530
 196616175.817 7  37414819.184          43.000       -1751.486
                  25792072.340          36.000         305.973
 07  8 29  8 12 59.0000000  0 13G 3G19G16G25G13G23G27G21G31G11S29S37
                                G22
 106997833.774 8  20361014.768          50.000       -2374.485
 110403199.725 8  21009033.058          48.000        -664.208
 115843987.257 6  22044381.694          41.000       -3246.622
 118042499.223 8  22462745.309          50.000         335.602
 125128847.682 7  23811227.608          47.000       -3637.457
 127241474.775 7  24213252.510          43.000       -4516.678
 128246950.054 7  24404585.503          43.000        1289.672
 133021447.669 6  25313139.337          41.000       -4366.109
 132741364.91535  25259846.221          35.000       -5406.089
 131751314.229 7  25071443.012          45.000        1987.310
 196290851.659 6  37352911.029          41.000       -1753.508
 196617925.411 7  37415151.996          43.000       -1748.301
 135537948.48136  25792014.109          37.000         305.668
 07  8 29  8 13  0.0000000  0 13G 3G19G16G25G13G23G27G21G31G11S29S37
                                G22
 107000207.980 8  20361466.676          50.000       -2373.759
 110403863.196 8  21009159.154          48.000        -662.575
 115847233.567 7  22044999.554          42.000       -3244.824
 118042164.122 8  22462681.318          50.000         334.159
 125132485.657 7  23811919.736          47.000       -3638.595
 127245993.090 7  24214112.473          43.000       -4517.260
 128245660.982 7  24404340.431          45.000        1288.270
 133025815.461 6  25313970.439          41.000       -4366.760
                  25260874.460          33.000       -5400.379
 131749325.951 7  25071064.570          43.000        1989.438
 196292603.170 6  37353244.277          41.000       -1749.208
 196619671.590 7  37415484.267          44.000       -1743.912
 135537644.01236  25791954.481          38.000         306.009
 07  8 29  8 13  1.0000000  0 13G 3G19G16G25G13G23G27G21G31G11S29S37
                                G22
 107002582.103 8  20361918.497          50.000       -2373.822
 110404526.436 8  21009285.092          48.000        -662.771
 115850478.180 7  22045616.821          42.000       -3244.151
 118041830.320 8  22462617.730          49.000         333.792
 125136124.068 7  23812611.846          47.000       -3638.083
 127250510.248 7  24214972.456          44.000       -4516.167
 128244373.590 7  24404095.500          45.000        1286.969
 133030183.484 6  25314801.818          39.000       -4368.907
 132752188.12425  25261901.616          33.000       -5394.544
 131747335.199 6  25070685.797          41.000        1991.656
 196294351.833 7  37353576.949          43.000       -1747.411
 196621414.911 7  37415816.015          44.000       -1739.912
 135537336.71836  25791895.763          38.000         308.860
 07  8 29  8 13  2.0000000  0 13G 3G19G16G25G13G23G27G21G31G11S29S37
                                G22
 107004955.774 8  20362370.144          51.000       -2373.117
 110405189.130 8  21009411.118          48.000        -662.248
 115853721.125 7  22046234.001          42.000       -3242.052
 118041497.075 8  22462554.106          49.000         333.605
 125139762.368 7  23813303.817          46.000       -3638.204
 127255026.057 7  24215832.124          45.000       -4514.716
 128243086.920 7  24403850.464          46.000        1287.641
 133034551.127 6  25315633.305          38.000       -4366.296
 132757583.68935  25262928.596          35.000       -5395.475
 131745342.134 6  25070306.569          40.000        1994.183
 196296098.057 7  37353909.149          43.000       -1745.996
 196623155.906 7  37416147.464          44.000       -1740.187
                  25791836.974          36.000         311.876
 07  8 29  8 13  3.0000000  0 13G 3G19G16G25G13G23G27G21G31G11S29S37
                                G22
 107007328.767 8  20362821.704          51.000       -2372.344
 110405851.147 8  21009537.144          49.000        -661.257
 115856962.609 7  22046850.762          43.000       -3240.145
 118041163.808 8  22462490.552          50.000         332.973
 125143400.365 7  23813995.981          46.000       -3637.250
 127259540.758 7  24216691.599          46.000       -4513.992
 128241800.266 7  24403605.742          46.000        1287.694
 133038918.142 6  25316464.563          38.000       -4366.530
 132762977.09425  25263954.792          34.000       -5392.679
 131743347.268 6  25069926.993          39.000        1995.618
 196297842.738 7  37354241.245          44.000       -1743.726
 196624895.283 7  37416478.460          44.000       -1739.744
 135536707.67536  25791777.940          37.000         311.497
 07  8 29  8 13  4.0000000  0 13G 3G19G16G25G13G23G27G21G31G11S29S37
                                G22
 107009700.814 8  20363273.089          51.000       -2371.291
 110406512.371 8  21009662.908          49.000        -660.304
 115860202.728 7  22047467.122          43.000       -3239.252
 118040830.018 8  22462426.964          50.000         334.315
 125147037.801 7  23814687.987          46.000       -3636.822
 127264054.463 7  24217550.639          46.000       -4513.734
 128240512.913 7  24403360.671          46.000        1287.552
 133043284.210 6  25317294.862          38.000       -4365.622
 132768368.70326  25264981.144          36.000       -5393.704
 131741351.074 6  25069547.521          39.000        1997.677
 196299585.634 7  37354572.783          42.000       -1740.115
 196626633.106 7  37416809.108          44.000       -1737.205
 135536394.04036  25791718.016          36.000         311.302
 07  8 29  8 13  5.0000000  0 13G 3G19G16G25G13G23G27G21G31G11S29S37
                                G22
 107012071.979 8  20363724.369          51.000       -2370.636
 110407172.895 8  21009788.532          48.000        -660.254
 115863441.723 7  22048083.394          43.000       -3238.380
 118040495.501 8  22462363.393          50.000         334.786
 125150674.691 7  23815379.958          46.000       -3635.559
 127268567.341 7  24218409.504          45.000       -4512.371
 128239224.563 7  24403115.322          46.000        1289.589
 133047649.044 6  25318125.529          38.000       -4363.551
 132773759.35426  25266008.335          37.000       -5391.312
 131739353.933 6  25069167.490          39.000        1996.318
 196301327.467 7  37354904.284          43.000       -1742.239
 196628369.656 7  37417139.632          44.000       -1737.098
 135536079.19935  25791658.232          35.000         314.821
 07  8 29  8 13  6.0000000  0 13G 3G19G16G25G13G23G27G21G31G11S29S37
                                G22
 107014441.943 8  20364175.336          51.000       -2368.905
 110407832.516 8  21009913.843          49.000        -659.022
 115866679.726 7  22048699.265          42.000       -3236.791
 118040159.617 8  22462299.404          50.000         336.667
 125154310.612 7  23816072.086          46.000       -3635.437
 127273079.437 7  24219268.195          45.000       -4511.269
 128237934.439 7  24402869.676          46.000        1292.334
 133052012.291 6  25318955.915          39.000       -4361.323
 132779149.62526  25267034.444          37.000       -5387.774
 131737356.230 6  25068787.164          39.000        1999.245
 196303068.793 7  37355235.612          43.000       -1739.926
 196630105.397 7  37417469.914          44.000       -1734.066
 135535763.46526  25791597.803          40.000         317.620
 07  8 29  8 13  7.0000000  0 13G 3G19G16G25G13G23G27G21G31G11S29S37
                                G22
 107016811.102 8  20364626.092          51.000       -2368.399
 110408491.619 8  21010039.293          49.000        -658.188
 115869916.528 7  22049315.328          42.000       -3236.247
 118039823.244 8  22462235.554          50.000         336.831
 125157946.230 7  23816764.074          46.000       -3636.326
 127277590.921 7  24220126.589          45.000       -4510.490
 128236643.543 7  24402623.994          47.000        1291.599
 133056374.432 5  25319786.737          33.000       -4362.857
 132784538.78326  25268060.464          39.000       -5388.435
 131735357.712 6  25068406.435          40.000        1999.003
 196304808.577 7  37355566.695          44.000       -1739.441
 196631840.333 7  37417800.072          45.000       -1734.348
 135535446.33326  25791537.601          39.000         318.494
 07  8 29  8 13  8.0000000  0 13G 3G19G16G25G13G23G27G21G31G11S29S37
                                G22
 107019179.364 8  20365076.762          51.000       -2367.672
 110409150.160 8  21010164.603          49.000        -658.379
 115873151.987 7  22049930.937          43.000       -3235.485
 118039486.264 8  22462171.302          50.000         337.174
 125161581.506 7  23817455.941          46.000       -3635.548
 127282101.828 7  24220984.756          45.000       -4510.333
 128235351.756 7  24402378.418          46.000        1292.426
 133060735.085 5  25320616.252          34.000       -4360.258
 132789926.76226  25269085.332          38.000       -5390.132
 131733358.340 6  25068026.107          39.000        1999.922
 196306547.077 7  37355897.483          44.000       -1736.949
 196633574.091 7  37418130.091          45.000       -1733.441
 135535127.59126  25791477.712          41.000         319.496
 07  8 29  8 13  9.0000000  0 13G 3G19G16G25G13G23G27G21G31G11S29S37
                                G22
 107021546.629 8  20365527.310          51.000       -2366.732
 110409808.084 8  21010289.721          49.000        -657.275
 115876386.085 7  22050546.372          43.000       -3233.994
 118039148.596 8  22462106.981          50.000         338.175
 125165216.380 7  23818147.738          46.000       -3633.576
 127286612.150 7  24221842.940          45.000       -4510.807
 128234058.971 7  24402132.527          46.000        1294.192
 133065094.294 5  25321445.870          35.000       -4359.415
 132795313.70626  25270110.254          38.000       -5386.540
 131731358.268 6  25067645.240          39.000        2001.347
 196308284.713 7  37356228.251          42.000       -1737.417
 196635306.273 7  37418459.604          44.000       -1732.724
 135534807.40127  25791416.776          43.000         320.428
 07  8 29  8 13 10.0000000  0 13G 3G19G16G25G13G23G27G21G31G11S29S37
                                G22
 107023912.891 8  20365977.648          51.000       -2365.645
 110410465.375 8  21010414.822          49.000        -656.490
 115879618.882 7  22051161.702          43.000       -3231.170
 118038810.134 8  22462042.695          50.000         338.890
 125168850.891 7  23818839.133          46.000       -3633.779
 127291121.921 7  24222701.369          46.000       -4509.187
 128232765.27737  24401886.059          42.000        1290.092
 133069451.929 6  25322274.774          39.000       -4357.636
 132800699.60926  25271135.176          39.000       -5384.208
 131729357.524 6  25067264.703          40.000        2001.473
 196310021.743 7  37356558.741          43.000       -1736.621
 196637037.211 7  37418789.065          44.000       -1729.637
 135534485.80726  25791355.946          41.000         323.375
 07  8 29  8 13 11.0000000  0 13G 3G19G16G25G13G23G27G21G31G11S29S37
                                G22
 107026278.118 8  20366427.602          51.000       -2364.282
 110411122.026 8  21010539.783          49.000        -655.955
 115882850.215 7  22051776.509          43.000       -3229.998
 118038470.940 8  22461978.112          50.000         339.459
 125172484.950 7  23819530.842          46.000       -3634.254
 127295631.076 7  24223559.448          45.000       -4509.354
 128231470.22927  24401639.943          42.000        1296.155
 133073808.010 6  25323103.642          39.000       -4355.758
 132806084.37726  25272159.905          40.000       -5384.459
 131727355.949 6  25066884.079          41.000        2001.638
 196311757.704 7  37356889.162          43.000       -1734.425
 196638766.986 7  37419118.176          44.000       -1730.027
 135534162.46036  25791293.771          40.000         323.932
 07  8 29  8 13 12.0000000  0 13G 3G19G16G25G13G23G27G21G31G11S29S37
                                G22
 107028642.480 8  20366877.417          51.000       -2363.231
 110411778.210 8  21010664.552          49.000        -655.346
 115886080.259 7  22052391.036          43.000       -3228.420
 118038131.262 8  22461913.494          50.000         340.247
 125176118.854 7  23820222.290          46.000       -3632.507
 127300139.861 7  24224417.668          45.000       -4508.469
 128230174.42627  24401393.005          43.000        1295.997
 133078162.702 6  25323931.988          40.000       -4352.842
 132811468.13726  25273184.426          41.000       -5381.219
 131725353.768 6  25066502.879          39.000        2002.652
 196313492.772 7  37357219.443          42.000       -1733.814
 196640496.045 7  37419447.148          44.000       -1727.854
 135533837.84226  25791231.963          38.000         325.823
 07  8 29  8 13 13.0000000  0 13G 3G19G16G25G13G23G27G21G31G11S29S37
                                G22
 107031005.840 8  20367327.371          51.000       -2362.816
 110412433.793 8  21010789.217          49.000        -654.919
 115889308.810 7  22053004.848          42.000       -3226.896
 118037790.949 8  22461848.457          50.000         340.501
 125179752.407 7  23820913.859          46.000       -3633.594
 127304648.030 7  24225275.469          46.000       -4507.163
 128228877.75227  24401146.382          46.000        1297.901
 133082515.792 6  25324760.386          41.000       -4350.376
 132816851.146 6  25274208.545          40.000       -5380.285
 131723350.804 6  25066121.871          40.000        2004.014
 196315226.558 7  37357549.234          43.000       -1733.397
 196642224.068 7  37419776.102          44.000       -1727.386
 135533511.43836  25791169.979          38.000         325.672
 07  8 29  8 13 14.0000000  0 13G 3G19G16G25G13G23G27G21G31G11S29S37
                                G22
 107033368.334 8  20367776.854          51.000       -2361.259
 110413088.875 8  21010914.248          49.000        -654.081
 115892535.967 7  22053618.730          42.000       -3224.528
 118037450.158 8  22461783.664          50.000         341.010
 125183385.700 7  23821605.237          46.000       -3632.036
 127309155.636 7  24226133.252          46.000       -4507.044
 128227580.30727  24400899.374          47.000        1297.705
 133086867.505 6  25325588.433          40.000       -4349.960
 132822232.328 6  25275232.611          40.000       -5380.038
 131721346.954 6  25065740.637          39.000        2004.437
 196316959.120 7  37357879.078          44.000       -1733.301
 196643950.863 7  37420104.690          44.000       -1726.304
 135533183.45436  25791107.283          38.000         331.991
 07  8 29  8 13 15.0000000  0 13G 3G19G16G25G13G23G27G21G31G11S29S37
                                G22
 107035729.843 8  20368226.511          51.000       -2361.063
 110413743.351 8  21011038.598          49.000        -654.419
 115895761.620 7  22054232.402          42.000       -3225.472
 118037108.854 8  22461718.942          50.000         341.595
 125187018.751 7  23822296.527          46.000       -3632.505
 127313662.692 7  24226990.947          46.000       -4507.308
 128226282.10827  24400652.314          46.000        1298.303
 133091217.791 6  25326416.533          38.000       -4350.365
 132827612.215 6  25276256.416          40.000       -5379.295
 131719342.321 6  25065358.949          39.000        2006.214
 196318690.471 7  37358208.435          44.000       -1731.103
 196645676.347 7  37420433.296          44.000       -1724.539
 135532853.58026  25791044.374          39.000         329.643
 07  8 29  8 13 16.0000000  0 13G 3G19G16G25G13G23G27G21G31G11S29S37
                                G22
 107038090.519 8  20368675.628          51.000       -2359.907
 110414397.287 8  21011163.246          49.000        -652.938
 115898986.078 7  22054846.458          42.000       -3224.067
 118036766.966 8  22461654.097          50.000         342.833
 125190651.466 7  23822987.835          46.000       -3632.276
 127318169.170 7  24227848.766          45.000       -4505.578
 128224983.07127  24400405.028          46.000        1300.508
 133095566.766 6  25327243.831          40.000       -4348.379
 132832990.52936  25277279.976          41.000       -5378.451
 131717336.928 6  25064977.104          39.000        2008.167
 196320420.257 7  37358537.582          43.000       -1727.703
 196647400.939 7  37420761.500          44.000       -1723.074
 135532522.68235  25790981.694          35.000         331.578
 07  8 29  8 13 17.0000000  0 12G 3G19G16G25G13G23G27G21G31G11S29S37
 107040450.232 8  20369124.937          51.000       -2358.883
 110415050.352 8  21011287.247          48.000        -651.569
 115902209.457 7  22055459.834          43.000       -3221.318
 118036424.159 8  22461588.729          50.000         343.812
 125194283.316 7  23823678.742          46.000       -3631.432
 127322674.518 7  24228705.904          45.000       -4503.975
 128223682.86127  24400157.706          46.000        1300.522
 133099914.651 6  25328071.461          41.000       -4346.045
 132838368.14126  25278303.293          40.000       -5375.768
 131715330.296 6  25064594.892          39.000        2008.048
 196322148.545 7  37358866.396          43.000       -1727.797
 196649124.594 7  37421089.425          43.000       -1722.357
 07  8 29  8 13 18.0000000  0 12G 3G19G16G25G13G23G27G21G11S29S37G22
 107042809.191 8  20369573.652          51.000       -2357.767
 110415702.487 8  21011411.423          49.000        -651.064
 115905432.009 7  22056073.314          43.000       -3221.999
 118036080.586 8  22461523.326          50.000         344.698
 125197914.114 7  23824369.702          46.000       -3628.198
 127327178.428 7  24229562.675          45.000       -4503.144
 128222381.70427  24399909.809          46.000        1302.948
 133104261.929 6  25328898.968          40.000       -4346.485
 131713322.028 6  25064212.576          39.000        2010.549
 196323876.177 7  37359195.001          43.000       -1728.357
 196650846.597 7  37421417.228          44.000       -1720.303
 135531855.89036  25790854.674          39.000         331.781
 07  8 29  8 13 19.0000000  0 12G 3G19G16G25G13G23G27G21G11S29S37G22
 107045167.422 8  20370022.175          51.000       -2357.739
 110416353.184 8  21011535.163          48.000        -649.716
 115908654.324 7  22056686.706          43.000       -3223.632
 118035735.966 8  22461457.591          50.000         344.996
 125201543.138 7  23825060.295          45.000       -3627.791
 127331680.058 7  24230419.220          46.000       -4499.732
 128221079.450 7  24399662.086          46.000        1303.179
 133108609.494 6  25329726.370          41.000       -4347.675
 131711311.518 6  25063829.753          40.000        2011.558
 196325602.228 7  37359523.224          42.000       -1723.573
 196652567.068 7  37421744.856          43.000       -1720.417
 135531522.02826  25790789.062          38.000         335.385
 07  8 29  8 13 20.0000000  0 13G 3G19G16G25G13G23G27G21G31G11S29S37
                                G22
 107047525.195 8  20370471.012          51.000       -2357.220
 110417002.372 8  21011658.694          48.000        -648.048
 115911877.031 7  22057299.768          43.000       -3221.815
 118035390.211 8  22461391.787          49.000         346.422
 125205169.876 7  23825750.068          46.000       -3625.605
 127336178.901 7  24231275.573          45.000       -4497.536
 128219776.034 7  24399414.294          46.000        1304.777
 133112958.072 6  25330553.946          40.000       -4348.398
 132854495.62236  25281370.100          38.000       -5373.148
 131709298.314 6  25063446.705          40.000        2015.592
 196327326.484 7  37359851.358          43.000       -1723.243
 196654285.997 7  37422071.717          44.000       -1717.767
 135531188.58526  25790725.665          38.000         332.736
 07  8 29  8 13 21.0000000  0 13G 3G19G16G25G13G23G27G21G31G11S29S37
                                G22
 107049882.325 8  20370919.553          51.000       -2356.459
 110417649.770 8  21011782.051          48.000        -645.662
 115915100.046 7  22057913.125          43.000       -3224.144
 118035042.997 8  22461325.791          50.000         348.111
 125208794.058 7  23826439.614          46.000       -3622.193
 127340674.720 7  24232131.403          45.000       -4493.898
 128218471.109 7  24399166.082          46.000        1305.777
 133117307.428 6  25331381.417          39.000       -4349.871
 132859868.18326  25282393.136          39.000       -5372.218
 131707282.196 6  25063063.150          39.000        2018.453
 196329049.340 7  37360179.197          44.000       -1719.977
 196656003.340 7  37422398.578          44.000       -1716.052
 135530855.34026  25790661.239          36.000         333.050
 07  8 29  8 13 22.0000000  0 13G 3G19G16G25G13G23G27G21G31G11S29S37
                                G22
 107052238.997 8  20371368.006          51.000       -2356.640
 110418295.493 8  21011904.848          48.000        -644.740
 115918323.732 7  22058526.500          42.000       -3224.020
 118034694.422 8  22461259.463          50.000         349.028
 125212415.630 7  23827128.986          46.000       -3620.080
 127345167.481 7  24232986.151          45.000       -4489.998
 128217164.729 7  24398917.382          46.000        1308.138
 133121657.873 6  25332209.134          39.000       -4348.504
 132865239.78626  25283413.905          38.000       -5370.394
 131705263.319 6  25062679.386          40.000        2021.695
 196330770.291 7  37360506.615          42.000       -1720.017
 196657719.305 7  37422725.037          44.000       -1714.774
 135530522.73925  25790597.964          35.000         333.507
 07  8 29  8 13 23.0000000  0 13G 3G19G16G25G13G23G27G21G31G11S29S37
                                G22
 107054594.986 8  20371816.163          51.000       -2355.418
 110418939.244 8  21012027.419          49.000        -642.322
 115921547.629 7  22059140.346          43.000       -3223.754
 118034344.520 8  22461192.926          50.000         350.955
 125216034.496 7  23827817.555          45.000       -3617.476
 127349656.877 7  24233840.601          45.000       -4487.776
 128215857.177 7  24398668.699          46.000        1307.621
 133126009.597 6  25333036.552          40.000       -4353.019
 132870609.61526  25284437.116          39.000       -5369.662
 131703241.054 6  25062294.627          41.000        2024.011
 196332489.633 7  37360833.807          43.000       -1718.293
 196659432.797 7  37423051.077          44.000       -1713.704
 135530190.31536  25790535.354          37.000         334.984
 07  8 29  8 13 24.0000000  0 13G 3G19G16G25G13G23G27G21G31G11S29S37
                                G22
 107056950.590 8  20372264.843          51.000       -2355.225
 110419581.138 8  21012149.572          48.000        -639.952
 115924772.059 7  22059753.843          43.000       -3224.999
 118033993.483 8  22461125.883          49.000         352.558
 125219650.636 7  23828505.776          46.000       -3614.433
 127354142.753 7  24234694.076          46.000       -4483.756
 128214548.599 7  24398419.406          46.000        1309.584
 133130362.808 6  25333865.436          40.000       -4355.953
 132875977.64926  25285458.078          39.000       -5364.684
 131701215.252 6  25061909.067          39.000        2029.035
 196334206.133 7  37361160.268          42.000       -1714.035
 196661144.307 7  37423376.664          44.000       -1710.851
                  25790472.183          33.000         332.059
 07  8 29  8 13 25.0000000  0 13G 3G19G16G25G13G23G27G21G31G11S29S37
                                G22
 107059305.885 8  20372713.034          51.000       -2355.335
 110420220.637 8  21012271.201          49.000        -637.732
 115927997.883 7  22060367.794          43.000       -3224.397
 118033640.793 8  22461058.805          50.000         354.231
 125223263.042 7  23829193.350          46.000       -3611.754
 127358624.189 7  24235546.451          46.000       -4479.652
 128213238.546 7  24398170.148          46.000        1311.353
 133134718.487 6  25334694.234          39.000       -4356.980
 132881344.37635  25286480.068          35.000       -5364.571
 131699185.275 6  25061522.755          41.000        2032.363
 196335920.462 7  37361486.326          42.000       -1711.784
 196662853.992 7  37423701.937          44.000       -1710.235
 135529505.84636  25790407.598          38.000         329.008
 07  8 29  8 13 26.0000000  0 13G 3G19G16G25G13G23G27G21G31G11S29S37
                                G22
 107061660.08538  20373161.209          51.000       -2354.022
 110420858.53238  21012392.585          48.000        -636.083
 115931224.462 7  22060981.866          43.000       -3226.765
 118033286.318 8  22460991.395          50.000         355.947
 125226872.280 7  23829880.210          46.000       -3607.715
 127363101.846 7  24236398.599          46.000       -4475.683
 128211926.724 7  24397920.628          46.000        1312.761
 133139075.609 6  25335523.311          40.000       -4357.524
 132886710.02535  25287502.196          35.000       -5365.413
 131697151.988 6  25061136.129          41.000        2034.018
 196337632.721 7  37361812.244          44.000       -1710.839
 196664562.064 7  37424026.931          44.000       -1707.050
 135529175.89525  25790345.093          35.000         333.021
 07  8 29  8 13 27.0000000  0 13G 3G19G16G25G13G23G27G21G31G11S29S37
                                G22
 107064014.19628  20373609.191          51.000       -2353.630
 110421493.87728  21012513.516          48.000        -634.338
 115934452.071 7  22061595.782          42.000       -3228.106
 118032929.933 8  22460923.567          50.000         357.486
 125230478.157 7  23830566.545          46.000       -3604.837
 127367576.055 7  24237250.223          44.000       -4472.471
 128210612.892 7  24397670.759          46.000        1314.426
 133143434.048 6  25336352.632          39.000       -4357.900
 132892074.92425  25288522.268          34.000       -5361.331
 131695115.572 6  25060748.840          40.000        2038.579
 196339343.740 7  37362137.726          42.000       -1710.146
 196666269.266 7  37424351.784          44.000       -1706.971
                  25790283.266          31.000         329.511
 07  8 29  8 13 28.0000000  0 13G 3G19G16G25G13G23G27G21G31G11S29S37
                                G22
 107066367.63428  20374056.929          51.000       -2352.908
 110422127.10228  21012633.784          48.000        -631.344
 115937680.716 6  22062210.012          40.000       -3228.967
 118032571.388 8  22460855.547          50.000         359.382
 125234080.664 7  23831252.393          47.000       -3601.076
 127372046.745 7  24238100.922          45.000       -4469.243
 128209296.669 7  24397420.279          46.000        1316.347
 133147793.566 6  25337182.721          40.000       -4360.512
 132897439.49225  25289543.051          35.000       -5366.127
 131693076.324 6  25060361.238          40.000        2042.322
 196341053.712 7  37362463.156          42.000       -1707.713
 196667975.509 7  37424676.481          43.000       -1705.249
 135528522.38036  25790220.478          38.000         326.095
 07  8 29  8 13 29.0000000  0 13G 3G19G16G25G13G23G27G21G31G11S29S37
                                G22
 107068720.43428  20374504.440          51.000       -2352.584
 110422757.33028  21012753.843          48.000        -627.409
 115940911.261 6  22062824.137          38.000       -3230.786
 118032210.204 8  22460786.794          50.000         362.606
 125237678.417 7  23831937.176          47.000       -3594.666
 127376512.278 7  24238950.401          44.000       -4462.491
 128207977.868 7  24397169.276          46.000        1319.771
 133152155.761 6  25338013.087          41.000       -4366.166
 132902803.51026  25290564.885          37.000       -5362.326
 131691032.763 6  25059972.152          40.000        2046.629
 196342761.531 7  37362788.184          42.000       -1705.182
 196669680.348 7  37425000.777          44.000       -1702.016
                  25790158.006          27.000         325.518
 07  8 29  8 13 30.0000000  0 13G 3G19G16G25G13G23G27G21G31G11S29S37
                                G22
 107071073.29528  20374952.108          51.000       -2352.496
 110423384.08228  21012873.168          48.000        -624.645
 115944145.017 6  22063438.609          36.000       -3235.484
 118031846.288 8  22460717.378          50.000         365.100
 125241269.989 7  23832620.564          47.000       -3588.042
 127380970.904 7  24239798.834          43.000       -4454.561
 128206656.561 7  24396918.274          46.000        1323.375
 133156522.314 7  25338843.908          42.000       -4369.582
 132908166.23826  25291584.292          38.000       -5363.025
 131688983.022 6  25059581.619          39.000        2054.073
 196344467.025 7  37363112.550          42.000       -1702.588
 196671383.390 7  37425324.775          44.000       -1702.866
                  25790099.337          25.000         319.883
 07  8 29  8 13 31.0000000  0 12G 3G19G16G25G13G23G27G21G31G11S29S37
 107073425.98428  20375400.107          52.000       -2352.780
 110424006.69128  21012991.710          48.000        -619.737
 115947382.348 5  22064054.827          35.000       -3241.483
 118031479.232 8  22460648.032          50.000         368.650
 125244854.682 8  23833302.906          48.000       -3580.537
 127385421.801 7  24240645.348          43.000       -4445.098
 128205332.587 7  24396666.102          46.000        1326.130
 133160894.088 7  25339675.723          42.000       -4375.572
 132913527.87626  25292604.886          38.000       -5361.307
 131686926.599 6  25059190.108          41.000        2060.823
 196346169.814 7  37363436.689          43.000       -1699.977
 196673083.910 7  37425648.373          44.000       -1698.891
 07  8 29  8 13 32.0000000  0 12G 3G19G16G25G13G23G27G21G31G11S29S37
 107075778.70728  20375847.636          52.000       -2352.268
 110424624.59728  21013109.517          48.000        -615.823
 115950624.097 6  22064672.214          36.000       -3243.999
 118031108.657 8  22460578.163          51.000         372.443
 125248431.365 7  23833983.764          47.000       -3573.057
 127389863.747 7  24241490.569          42.000       -4437.933
 128204005.634 7  24396413.633          46.000        1328.207
 133165272.368 7  25340508.759          42.000       -4381.098
 132918888.31935  25293624.799          34.000       -5361.051
 131684862.245 6  25058796.957          41.000        2067.842
 196347869.320 7  37363760.251          43.000       -1698.685
 196674781.803 7  37425971.517          44.000       -1696.135
 07  8 29  8 13 33.0000000  0 12G 3G19G16G25G13G23G27G21G31G11S29S37
 107078131.20928  20376295.181          52.000       -2352.334
 110425238.35428  21013226.261          49.000        -611.806
 115953869.416 6  22065290.562          37.000       -3246.737
 118030734.903 8  22460507.124          51.000         375.381
 125252001.119 7  23834663.068          46.000       -3566.323
 127394298.015 7  24242334.569          42.000       -4429.610
 128202675.866 7  24396160.554          45.000        1331.379
 133169655.721 7  25341342.668          42.000       -4385.882
                  25294644.696          33.000       -5355.588
 131682791.230 7  25058402.515          42.000        2074.175
 196349565.791 7  37364083.048          42.000       -1692.693
 196676477.629 7  37426294.173          44.000       -1693.486
 07  8 29  8 13 34.0000000  0 12G 3G19G16G25G13G23G27G21G31G11S29S37
 107080483.65628  20376742.954          52.000       -2351.994
 110425848.42128  21013342.132          49.000        -608.186
 115957117.858 6  22065909.258          37.000       -3249.324
 118030358.455 8  22460435.283          51.000         377.714
 125255564.609 7  23835341.133          45.000       -3561.226
 127398725.138 7  24243176.457          42.000       -4424.460
 128201343.811 7  24395907.299          46.000        1332.614
 133174043.806 6  25342177.643          37.000       -4388.647
 132929608.95736  25295663.562          36.000       -5356.875
 131680713.886 7  25058007.218          42.000        2080.039
 196351259.415 6  37364405.650          41.000       -1692.189
 196678171.093 7  37426616.271          43.000       -1689.537
 07  8 29  8 13 35.0000000  0 12G 3G19G16G25G13G23G27G21G31G11S29S37
 107082835.76228  20377190.308          52.000       -2351.435
 110426456.21328  21013457.879          49.000        -607.301
 115960367.638 6  22066527.729          39.000       -3249.016
 118029980.245 8  22460363.162          51.000         379.462
 125259124.503 7  23836017.924          44.000       -3558.092
 127403148.047 7  24244018.030          44.000       -4420.973
 128200010.083 7  24395653.487          46.000        1335.713
 133178434.144 6  25343013.071          37.000       -4391.584
 132934965.67026  25296682.288          37.000       -5357.689
 131678632.670 7  25057611.168          43.000        2082.561
 196352950.719 7  37364727.642          42.000       -1689.474
 196679862.882 7  37426938.332          43.000       -1689.994
 07  8 29  8 13 36.0000000  0 12G 3G19G16G25G13G23G27G21G31G11S29S37
 107085187.20128  20377637.801          52.000       -2351.366
 110427062.29828  21013573.086          48.000        -605.359
 115963617.771 6  22067146.427          38.000       -3248.855
 118029600.553 8  22460291.040          51.000         380.723
 125262681.862 7  23836694.819          43.000       -3555.684
 127407568.086 7  24244859.184          44.000       -4418.291
 128198674.795 7  24395399.848          46.000        1336.523
 133182825.148 6  25343848.133          38.000       -4392.645
 132940321.46926  25297700.771          38.000       -5353.985
 131676548.826 7  25057214.962          42.000        2085.061
 196354640.861 7  37365049.355          42.000       -1687.818
 196681553.266 7  37427260.009          42.000       -1690.469
 07  8 29  8 13 37.0000000  0 12G 3G19G16G25G13G23G27G21G31G11S29S37
 107087538.485 8  20378084.911          52.000       -2350.342
 110427667.263 8  21013687.962          48.000        -604.298
 115966868.036 6  22067765.193          38.000       -3251.276
 118029219.484 8  22460218.605          51.000         381.652
 125266236.925 7  23837371.120          43.000       -3552.424
 127411985.465 7  24245700.006          45.000       -4417.222
 128197338.059 7  24395145.180          46.000        1337.420
 133187216.748 6  25344684.086          38.000       -4391.502
 132945676.16126  25298720.247          40.000       -5355.301
 131674462.526 7  25056818.581          43.000        2087.215
 196356329.262 7  37365370.614          43.000       -1686.403
 196683242.169 7  37427581.390          42.000       -1687.519
 07  8 29  8 13 38.0000000  0 12G 3G19G16G25G13G23G27G21G31G11S29S37
 107089888.343 8  20378531.917          52.000       -2349.248
 110428271.287 8  21013802.732          48.000        -603.848
 115970117.364 6  22068383.420          40.000       -3248.609
 118028837.512 8  22460145.768          51.000         382.530
 125269791.613 7  23838048.031          44.000       -3555.422
 127416402.596 7  24246540.722          45.000       -4417.713
 128195999.984 7  24394890.233          46.000        1338.975
 133191606.74936  25345519.726          38.000       -4387.977
 132951030.56726  25299739.288          40.000       -5354.268
 131672376.049 7  25056421.553          42.000        2084.750
 196358017.889 7  37365691.924          44.000       -1688.358
 196684930.526 7  37427902.631          42.000       -1688.433
 07  8 29  8 13 39.0000000  0 12G 3G19G16G25G13G23G27G21G31G11S29S37
 107092236.538 8  20378979.219          52.000       -2346.833
 110428875.768 8  21013917.851          49.000        -604.609
 115973364.088 7  22069001.561          42.000       -3244.766
 118028454.570 8  22460073.053          51.000         384.135
 125273347.838 7  23838725.255          45.000       -3557.339
 127420822.139 7  24247381.786          46.000       -4421.057
 128194659.981 7  24394635.600          47.000        1341.196
 133195992.27326  25346354.651          41.000       -4383.206
 132956385.92027  25300758.677          42.000       -5355.244
 131670292.200 7  25056025.083          43.000        2082.304
 196359706.963 7  37366013.427          44.000       -1688.326
 196686619.445 7  37428224.169          42.000       -1689.445
 07  8 29  8 13 40.0000000  0 12G 3G19G16G25G13G23G27G21G31G11S29S37
 107094582.700 8  20379425.457          52.000       -2345.036
 110429480.674 8  21014033.284          49.000        -605.115
 115976607.880 6  22069619.125          41.000       -3241.698
 118028070.240 8  22460000.042          51.000         385.104
 125276905.517 7  23839402.341          46.000       -3558.812
 127425244.349 7  24248223.619          46.000       -4423.334
 128193317.477 7  24394380.270          47.000        1344.451
 133200372.43126  25347188.180          39.000       -4378.078
 132961742.46226  25301777.821          41.000       -5357.326
 131668211.435 7  25055629.241          42.000        2078.877
 196361397.132 7  37366334.999          43.000       -1690.785
 196688309.416 7  37428545.759          42.000       -1689.691
 07  8 29  8 13 41.0000000  0 13G 3G19G16G25G13G23G27G21G31G11S29S37
                                G22
 107096927.077 8  20379871.520          52.000       -2343.592
 110430085.965 8  21014148.298          48.000        -605.632
 115979849.365 7  22070236.427          42.000       -3240.108
 118027684.450 8  22459926.473          51.000         386.842
 125280464.408 7  23840079.619          47.000       -3558.822
 127429668.943 7  24249065.417          47.000       -4425.461
 128191972.445 7  24394124.154          47.000        1346.134
                  25348020.871          33.000       -4373.831
 132967100.59127  25302797.385          42.000       -5357.049
 131666133.551 6  25055233.731          40.000        2076.270
 196363088.624 7  37366656.938          43.000       -1690.793
 196690000.484 6  37428867.487          41.000       -1691.948
                  25789455.282          36.000         314.825
 07  8 29  8 13 42.0000000  0 13G 3G19G16G25G13G23G27G21G31G11S29S37
                                G22
                  20380317.722          51.000       -2342.416
 110430691.140 8  21014263.382          48.000        -607.072
 115983088.960 7  22070853.555          42.000       -3237.628
 118027296.606 8  22459852.834          51.000         389.285
 125284023.602 7  23840757.054          47.000       -3559.028
 127434095.290 7  24249907.790          47.000       -4427.432
 128190624.240 7  24393867.323          47.000        1349.679
 133209116.04436  25348851.975          37.000       -4367.594
 132972460.41227  25303816.965          43.000       -5360.094
 131664058.235 6  25054839.198          40.000        2075.096
 196364781.305 7  37366978.999          43.000       -1692.377
 196691693.110 7  37429189.548          42.000       -1692.509
                  25789396.771          37.000         313.519
 07  8 29  8 13 43.0000000  0 13G 3G19G16G25G13G23G27G21G31G11S29S37
                                G22
 107101633.30038  20380763.175          52.000       -2338.827
 110431294.97338  21014378.118          49.000        -603.471
 115986327.156 7  22071470.473          42.000       -3235.717
 118026906.327 8  22459778.532          50.000         391.801
 125287582.476 7  23841434.000          47.000       -3558.444
 127438522.589 7  24250750.409          47.000       -4426.504
 128189272.802 7  24393610.108          47.000        1353.703
 133213483.56036  25349682.170          40.000       -4365.513
 132977822.198 7  25304837.104          42.000       -5362.668
 131661984.774 7  25054444.805          43.000        2072.396
 196366474.763 7  37367301.199          43.000       -1694.154
 196693386.397 7  37429511.574          42.000       -1694.330
 135523879.02636  25789336.795          38.000         313.372
 07  8 29  8 13 44.0000000  0 13G 3G19G16G25G13G23G27G21G31G11S29S37
                                G22
 107103971.78428  20381207.964          52.000       -2336.864
 110431898.62828  21014493.133          49.000        -603.225
 115989564.052 6  22072086.710          41.000       -3236.214
 118026513.805 8  22459703.409          50.000         394.117
 125291140.717 7  23842111.226          46.000       -3557.307
 127442950.362 7  24251593.097          46.000       -4428.313
 128187918.163 7  24393352.422          47.000        1356.561
 133217847.99226  25350512.836          41.000       -4362.668
 132983185.406 6  25305857.488          39.000       -5362.221
 131659912.708 7  25054050.465          43.000        2072.154
 196368168.640 7  37367623.644          44.000       -1693.004
 196695080.142 7  37429834.037          44.000       -1693.575
 135523566.90626  25789280.028          38.000         311.087
 07  8 29  8 13 45.0000000  0 13G 3G19G16G25G13G23G27G21G31G11S29S37
                                G22
 107106308.43328  20381652.701          52.000       -2335.969
 110432501.32528  21014608.008          49.000        -602.303
 115992799.731 6  22072702.302          39.000       -3235.177
 118026119.230 8  22459628.304          51.000         395.733
 125294698.325 7  23842787.998          46.000       -3557.477
 127447378.372 7  24252435.349          46.000       -4427.999
 128186560.880 7  24393094.229          47.000        1358.607
 133222209.85726  25351343.538          41.000       -4359.912
 132988549.799 7  25306878.238          42.000       -5365.313
 131657841.616 7  25053656.386          42.000        2071.473
 196369862.263 7  37367945.862          42.000       -1693.966
 196696773.776 7  37430156.308          43.000       -1693.250
 135523254.48826  25789219.843          37.000         313.919
 07  8 29  8 13 46.0000000  0 13G 3G19G16G25G13G23G27G21G31G11S29S37
                                G22
 107108643.36328  20382096.897          52.000       -2333.753
 110433102.74928  21014722.447          49.000        -600.122
 115996034.694 6  22073317.247          39.000       -3236.044
 118025722.285 8  22459552.903          51.000         398.059
 125298254.588 7  23843464.317          45.000       -3554.941
 127451805.864 7  24253278.003          46.000       -4427.130
 128185200.596 7  24392835.513          47.000        1361.998
 133226569.78826  25352173.261          41.000       -4359.450
 132993915.237 7  25307899.302          42.000       -5365.766
 131655770.871 6  25053261.959          41.000        2071.509
 196371555.832 7  37368268.325          42.000       -1693.473
 196698467.262 7  37430478.631          43.000       -1693.267
 135522942.30836  25789160.879          37.000         312.554
 07  8 29  8 13 47.0000000  0 13G 3G19G16G25G13G23G27G21G31G11S29S37
                                G22
 107110977.06028  20382540.639          52.000       -2333.477
 110433703.14328  21014836.781          50.000        -600.108
 115999269.739 6  22073932.141          40.000       -3235.795
 118025323.000 8  22459477.030          52.000         400.709
 125301809.194 7  23844141.090          44.000       -3551.741
 127456232.707 7  24254120.570          46.000       -4425.340
 128183837.248 7  24392576.082          46.000        1364.931
 133230928.18327  25353002.914          42.000       -4358.982
 132999282.301 7  25308920.749          42.000       -5369.230
 131653700.440 6  25052867.218          40.000        2072.041
 196373249.879 7  37368590.648          43.000       -1693.916
 196700161.315 7  37430801.092          44.000       -1694.928
 135522631.00835  25789102.157          35.000         308.053
 07  8 29  8 13 48.0000000  0 13G 3G19G16G25G13G23G27G21G31G11S29S37
                                G22
 107113309.41828  20382984.207          52.000       -2331.070
 110434302.06128  21014950.645          50.000        -597.478
 116002505.005 7  22074547.576          43.000       -3233.897
 118024920.938 8  22459400.634          52.000         403.863
 125305361.12937  23844817.409          43.000       -3548.198
 127460658.144 8  24254963.485          48.000       -4425.686
 128182470.403 7  24392315.971          46.000        1368.964
 133235285.26626  25353832.202          41.000       -4356.009
 133004650.753 7  25309942.581          44.000       -5370.313
 131651629.679 6  25052473.034          38.000        2069.848
 196374944.632 7  37368913.145          42.000       -1694.180
 196701855.968 7  37431123.590          43.000       -1695.303
                  25789044.064          31.000         303.981
 07  8 29  8 13 49.0000000  0 13G 3G19G16G25G13G23G27G21G31G11S29S37
                                G22
 107115640.91128  20383427.914          52.000       -2330.300
 110434899.61328  21015064.421          50.000        -595.745
 116005741.361 7  22075163.550          45.000       -3236.743
 118024516.315 8  22459323.575          51.000         406.766
 125308910.99727  23845493.309          45.000       -3547.714
 127465081.934 7  24255805.390          47.000       -4422.795
 128181100.258 7  24392055.405          45.000        1371.573
 133239641.90327  25354661.279          43.000       -4356.452
 133010021.045 7  25310964.589          45.000       -5368.682
 131649558.532 6  25052078.101          38.000        2070.141
 196376640.100 7  37369235.956          44.000       -1695.087
 196703551.217 7  37431446.175          44.000       -1694.628
                  25788984.943          32.000         306.975
 07  8 29  8 13 50.0000000  0 13G 3G19G16G25G13G23G27G21G31G11S29S37
                                G22
 107117970.90028  20383871.377          51.000       -2328.969
 110435494.91828  21015177.516          50.000        -594.958
 116008978.389 7  22075779.560          45.000       -3237.056
 118024108.514 8  22459245.678          52.000         409.476
 125312457.61027  23846167.987          46.000       -3544.990
 127469503.219 7  24256647.137          46.000       -4419.454
 128179726.339 7  24391793.897          44.000        1374.841
 133243998.15527  25355490.286          43.000       -4356.420
 133015392.405 7  25311986.437          45.000       -5372.382
 131647486.019 6  25051683.255          40.000        2071.551
 196378335.459 7  37369558.629          44.000       -1694.155
 196705246.465 7  37431768.830          43.000       -1694.008
                  25788926.135          35.000         302.917
 07  8 29  8 13 51.0000000  0 13G 3G19G16G25G13G23G27G21G31G11S29S37
                                G22
 107120299.71128  20384314.229          51.000       -2327.967
 110436088.14028  21015290.559          50.000        -592.411
 116012216.508 7  22076395.203          44.000       -3238.716
 118023697.611 8  22459167.555          52.000         412.487
 125316000.79127  23846842.195          47.000       -3541.715
 127473921.749 7  24257488.082          44.000       -4416.664
 128178348.791 7  24391531.640          43.000        1378.957
 133248354.46727  25356319.713          44.000       -4355.557
 133020764.945 7  25313008.828          44.000       -5373.163
 131645411.992 7  25051288.375          42.000        2073.894
 196380030.377 7  37369881.282          44.000       -1696.357
 196706941.878 7  37432091.413          43.000       -1696.129
 135521411.26236  25788867.276          36.000         304.894
 07  8 29  8 13 52.0000000  0 13G 3G19G16G25G13G23G27G21G31G11S29S37
                                G22
 107122627.66828  20384757.185          51.000       -2327.183
 110436679.99028  21015403.253          49.000        -591.268
 116015455.652 7  22077010.864          44.000       -3239.684
 118023283.982 8  22459088.611          51.000         415.286
 125319541.27228  23847515.722          48.000       -3538.862
 127478338.455 7  24258328.624          44.000       -4416.002
 128176967.745 7  24391268.352          42.000        1382.339
 133252710.05827  25357148.389          43.000       -4354.499
 133026139.158 7  25314031.410          43.000       -5374.352
 131643337.358 7  25050893.809          43.000        2075.130
 196381726.159 7  37370204.042          43.000       -1695.759
 196708638.195 7  37432414.224          43.000       -1698.439
 135521108.39125  25788809.497          34.000         301.248
 07  8 29  8 13 53.0000000  0 13G 3G19G16G25G13G23G27G21G31G11S29S37
                                G22
 107124954.64928  20385199.950          51.000       -2325.928
 110437270.77828  21015515.616          49.000        -589.400
 116018695.357 7  22077627.310          47.000       -3239.702
 118022867.852 8  22459009.301          50.000         418.095
 125323079.71128  23848189.092          48.000       -3537.319
 127482754.071 7  24259169.446          45.000       -4415.195
 128175583.344 7  24391004.733          42.000        1386.335
 133257064.34927  25357976.612          43.000       -4353.186
 133031515.069 6  25315054.184          41.000       -5376.849
 131641262.768 7  25050499.713          42.000        2074.975
 196383422.449 7  37370526.784          43.000       -1694.898
 196710335.520 7  37432737.176          43.000       -1697.745
 135520806.75935  25788752.016          35.000         302.153
 07  8 29  8 13 54.0000000  0 13G 3G19G16G25G13G23G27G21G31G11S29S37
                                G22
 107127280.53028  20385642.593          51.000       -2325.597
 110437860.32628  21015627.891          50.000        -589.193
 116021935.768 8  22078244.297          49.000       -3241.229
 118022448.978 8  22458929.310          49.000         420.473
 125326615.82427  23848861.973          47.000       -3534.791
 127487168.508 7  24260009.692          46.000       -4413.521
 128174195.181 7  24390740.573          43.000        1390.033
 133261417.25127  25358804.975          44.000       -4351.549
 133036892.984 6  25316077.516          39.000       -5379.849
 131639188.151 6  25050104.815          40.000        2076.349
 196385119.344 6  37370849.805          41.000       -1695.818
 196712033.953 7  37433060.423          43.000       -1699.002
 135520506.61926  25788696.349          36.000         300.968
 07  8 29  8 13 55.0000000  0 13G 3G19G16G25G13G23G27G21G31G11S29S37
                                G22
 107129606.039 8  20386085.271          51.000       -2323.384
 110438449.245 8  21015740.289          50.000        -586.353
 116025177.241 8  22078861.476          49.000       -3241.721
 118022027.202 8  22458849.180          48.000         423.661
 125330149.981 7  23849534.401          47.000       -3531.398
 127491581.624 7  24260849.746          46.000       -4411.446
 128172803.124 7  24390475.541          44.000        1394.938
 133265768.926 7  25359633.040          43.000       -4350.999
 133042273.037 6  25317101.407          41.000       -5379.955
 131637113.617 6  25049710.021          41.000        2076.156
 196386817.264 7  37371172.843          43.000       -1694.736
 196713733.690 7  37433383.897          43.000       -1700.657
 135520208.29225  25788639.601          35.000         298.984
 07  8 29  8 13 56.0000000  0 13G 3G19G16G25G13G23G27G21G31G11S29S37
                                G22
 107131929.562 8  20386527.494          51.000       -2324.153
 110439035.752 8  21015851.813          50.000        -585.988
 116028419.558 8  22079478.952          48.000       -3242.777
 118021601.999 7  22458768.090          47.000         425.794
 125333680.581 7  23850206.481          47.000       -3527.396
 127495992.816 7  24261688.614          45.000       -4409.389
 128171406.764 7  24390209.758          45.000        1398.084
 133270119.60836  25360460.792          41.000       -4349.312
 133047655.150 7  25318125.472          43.000       -5382.936
 131635038.675 7  25049315.332          43.000        2075.629
 196388515.068 6  37371495.950          40.000       -1698.812
 196715434.414 7  37433707.494          43.000       -1699.419
                  25788583.408          28.000         290.387
 07  8 29  8 13 57.0000000  0 13G 3G19G16G25G13G23G27G21G31G11S29S37
                                G22
 107134252.770 8  20386969.561          51.000       -2322.731
 110439622.403 8  21015963.564          50.000        -586.317
 116031661.395 8  22080095.783          48.000       -3240.773
 118021176.202 8  22458687.382          48.000         426.049
 125337211.010 7  23850878.697          47.000       -3530.638
 127500403.954 7  24262528.056          44.000       -4409.351
 128170009.171 7  24389944.096          45.000        1399.100
 133274468.61126  25361288.299          41.000       -4349.246
 133053037.81337  25319149.557          42.000       -5380.215
 131632963.826 7  25048920.137          42.000        2073.964
 196390213.500 6  37371819.024          41.000       -1698.554
 196717135.231 7  37434031.004          42.000       -1699.535
                  25788526.541          32.000         299.387
 07  8 29  8 13 58.0000000  0 13G 3G19G16G25G13G23G27G21G31G11S29S37
                                G22
 107136574.343 8  20387411.436          51.000       -2320.529
 110440208.365 8  21016075.368          50.000        -585.458
 116034901.210 7  22080712.055          47.000       -3239.100
 118020749.248 8  22458606.100          48.000         428.424
 125340741.406 7  23851550.548          46.000       -3529.329
 127504815.361 7  24263367.672          45.000       -4412.478
 128168609.919 7  24389677.702          44.000        1401.288
 133278815.02527  25362115.109          44.000       -4344.080
 133058419.46327  25320174.234          42.000       -5379.888
 131630889.170 6  25048525.292          39.000        2077.748
 196391911.552 6  37372142.185          41.000       -1696.475
 196718835.277 7  37434354.496          43.000       -1700.341
                  25788469.080          35.000         306.140
 07  8 29  8 13 59.0000000  0 13G 3G19G16G25G13G23G27G21G31G11S29S37
                                G22
 107138894.560 8  20387853.014          51.000       -2319.875
 110440793.506 8  21016186.614          50.000        -584.570
 116038140.095 7  22081328.380          47.000       -3238.092
 118020320.608 7  22458524.748          47.000         429.172
 125344270.992 7  23852222.189          47.000       -3529.552
 127509226.438 7  24264206.819          45.000       -4410.924
 128167208.410 7  24389411.116          44.000        1402.224
 133283159.40627  25362941.586          42.000       -4344.106
 133063801.57626  25321197.880          41.000       -5382.038
 131628814.867 7  25048130.724          42.000        2076.062
 196393609.610 7  37372465.468          42.000       -1695.633
 196720535.335 7  37434677.919          42.000       -1699.002
 135519020.09525  25788412.083          35.000         294.959
 07  8 29  8 14  0.0000000  0 13G 3G19G16G25G13G23G27G21G31G11S29S37
                                G22
 107141213.301 8  20388293.912          51.000       -2318.125
 110441377.866 8  21016297.912          50.000        -583.107
 116041377.393 8  22081944.443          48.000       -3236.605
 118019890.696 7  22458443.046          47.000         429.934
 125347800.148 7  23852893.762          47.000       -3527.899
 127513637.334 7  24265046.035          45.000       -4409.892
 128165805.181 7  24389143.901          44.000        1404.930
 133287501.54527  25363767.838          44.000       -4341.979
 133069183.32027  25322221.667          42.000       -5382.725
 131626740.338 6  25047736.053          41.000        2075.878
 196395306.984 7  37372788.489          42.000       -1695.397
 196722234.598 7  37435001.394          43.000       -1697.288
 135518719.32335  25788354.516          34.000         299.127
 07  8 29  8 14  1.0000000  0 13G 3G19G16G25G13G23G27G21G31G11S29S37
                                G22
 107143531.068 8  20388734.984          51.000       -2317.068
 110441961.195 8  21016409.087          50.000        -582.286
 116044613.651 8  22082560.279          48.000       -3235.280
 118019460.023 7  22458361.310          47.000         431.060
 125351328.479 7  23853565.211          47.000       -3527.694
 127518047.072 7  24265884.937          46.000       -4409.207
 128164401.099 7  24388876.809          44.000        1405.956
 133291843.04527  25364593.931          43.000       -4341.109
 133074563.81927  25323245.420          42.000       -5379.785
 131624664.537 6  25047340.474          41.000        2077.104
 196397003.037 6  37373111.476          41.000       -1694.004
 196723932.226 7  37435324.397          42.000       -1697.334
                  25788297.124          27.000         302.233
 07  8 29  8 14  2.0000000  0 13G 3G19G16G25G13G23G27G21G31G11S29S37
                                G22
 107145847.853 8  20389175.951          51.000       -2316.330
 110442543.444 8  21016519.582          49.000        -581.866
 116047849.109 8  22083175.870          48.000       -3234.799
 118019028.376 7  22458278.998          47.000         432.663
 125354855.768 7  23854236.469          47.000       -3527.198
 127522455.511 7  24266723.910          46.000       -4407.292
 128162995.931 7  24388609.262          45.000        1406.775
 133296183.90627  25365420.235          43.000       -4339.326
 133079943.42027  25324269.154          43.000       -5379.266
 131622587.468 6  25046945.559          41.000        2079.060
 196398697.850 7  37373434.025          42.000       -1694.683
 196725628.593 7  37435647.401          43.000       -1696.377
                  25788238.943          24.000         296.315
 07  8 29  8 14  3.0000000  0 13G 3G19G16G25G13G23G27G21G31G11S29S37
                                G22
 107148163.405 8  20389616.325          51.000       -2314.856
 110443124.702 8  21016630.217          50.000        -581.018
 116051083.433 8  22083791.567          48.000       -3233.386
 118018595.638 7  22458196.510          47.000         432.889
 125358382.275 7  23854907.447          47.000       -3526.927
 127526863.162 7  24267562.654          46.000       -4407.609
 128161589.398 7  24388341.558          44.000        1406.509
 133300523.63827  25366245.839          43.000       -4339.553
 133085322.33827  25325292.645          42.000       -5378.061
 131620509.612 6  25046550.224          40.000        2077.271
 196400391.540 7  37373756.367          42.000       -1692.066
 196727323.615 7  37435969.795          44.000       -1694.800
                  25788181.709          27.000         304.402
 07  8 29  8 14  4.0000000  0 13G 3G19G16G25G13G23G27G21G31G11S29S37
                                G22
 107150477.861 8  20390056.577          51.000       -2314.154
 110443705.211 8  21016740.659          50.000        -580.479
 116054316.660 8  22084406.705          48.000       -3232.835
 118018161.798 7  22458113.971          47.000         433.858
 125361908.159 7  23855578.339          47.000       -3525.430
 127531270.239 7  24268401.609          45.000       -4406.803
 128160181.377 7  24388073.541          44.000        1408.344
 133304861.71727  25367071.270          43.000       -4337.273
 133090700.68927  25326316.170          43.000       -5377.480
 131618431.365 6  25046154.802          40.000        2077.978
 196402084.463 6  37374078.620          41.000       -1692.433
 196729017.718 7  37436292.397          43.000       -1693.627
                  25788125.571          27.000         302.383
 07  8 29  8 14  5.0000000  0 13G 3G19G16G25G13G23G27G21G31G11S29S37
                                G22
 107152791.121 8  20390496.864          51.000       -2312.847
 110444284.976 8  21016851.120          49.000        -579.409
 116057548.632 8  22085021.721          48.000       -3231.287
 118017726.851 7  22458030.962          47.000         436.490
 125365433.504 7  23856249.248          46.000       -3525.256
 127535676.838 7  24269240.178          45.000       -4408.793
 128158771.825 7  24387805.349          44.000        1409.851
 133309198.08927  25367896.509          43.000       -4335.919
 133096078.64827  25327339.520          43.000       -5378.155
 131616352.622 6  25045759.364          41.000        2080.476
 196403776.539 6  37374400.507          41.000       -1691.365
 196730711.033 7  37436614.598          43.000       -1693.868
                  25788068.543          28.000         301.058
 07  8 29  8 14  6.0000000  0 13G 3G19G16G25G13G23G27G21G31G11S29S37
                                G22
 107155103.269 8  20390937.186          51.000       -2311.187
 110444864.091 8  21016960.987          49.000        -578.480
 116060779.612 8  22085636.492          48.000       -3230.407
 118017290.676 7  22457948.196          47.000         437.449
 125368958.210 7  23856920.122          46.000       -3523.159
 127540083.057 7  24270078.644          45.000       -4406.683
 128157360.548 7  24387536.617          44.000        1413.490
 133313532.65427  25368721.452          43.000       -4333.775
 133101456.42627  25328363.028          44.000       -5378.290
 131614274.86636  25045362.109          41.000        2078.906
 196405467.992 6  37374722.254          41.000       -1690.173
 196732403.946 7  37436936.852          43.000       -1692.596
                  25788011.045          29.000         302.957
 07  8 29  8 14  7.0000000  0 13G 3G19G16G25G13G23G27G21G31G11S29S37
                                G22
 107157414.364 8  20391376.897          51.000       -2310.429
 110445442.666 8  21017071.133          49.000        -577.970
 116064009.617 8  22086251.142          48.000       -3230.087
 118016853.388 7  22457864.976          47.000         437.790
 125372482.508 7  23857590.856          47.000       -3524.152
 127544489.165 7  24270917.268          45.000       -4404.765
 128155947.641 7  24387268.024          44.000        1414.271
 133317865.446 7  25369546.097          43.000       -4331.593
 133106834.275 7  25329386.710          43.000       -5378.040
 131612196.13427  25044966.808          42.000        2077.486
 196407158.718 6  37375043.984          40.000       -1691.469
 196734096.577 7  37437259.035          43.000       -1693.572
                  25787952.676          31.000         308.120
 07  8 29  8 14  8.0000000  0 13G 3G19G16G25G13G23G27G21G31G11S29S37
                                G22
 107159724.358 8  20391816.416          51.000       -2309.369
 110446020.680 8  21017181.157          50.000        -576.763
 116067238.537 8  22086865.442          48.000       -3228.718
 118016414.993 8  22457782.088          48.000         439.177
 125376006.409 7  23858261.294          47.000       -3522.690
 127548895.103 7  24271755.629          46.000       -4404.432
 128154533.126 7  24386998.907          44.000        1415.450
 133322196.397 7  25370369.766          42.000       -4329.736
 133112212.042 7  25330410.165          43.000       -5378.361
 131610117.47326  25044571.405          41.000        2079.492
 196408849.636 7  37375365.661          42.000       -1691.360
 196735789.099 7  37437581.061          43.000       -1692.642
                  25787894.044          30.000         309.036
 07  8 29  8 14  9.0000000  0 13G 3G19G16G25G13G23G27G21G31G11S29S37
                                G22
 107162033.283 8  20392255.603          51.000       -2308.518
 110446598.065 8  21017290.936          50.000        -577.112
 116070466.515 8  22087479.795          48.000       -3227.808
 118015975.385 8  22457698.851          48.000         441.468
 125379529.650 7  23858931.608          47.000       -3523.268
 127553300.616 7  24272593.937          45.000       -4404.502
 128153116.881 7  24386729.546          44.000        1416.674
 133326525.608 7  25371193.591          42.000       -4327.856
 133117589.665 7  25331433.603          43.000       -5377.990
 131608038.56026  25044176.087          41.000        2078.403
 196410540.136 7  37375687.478          42.000       -1690.460
 196737481.356 7  37437903.087          43.000       -1693.647
                  25787834.730          29.000         308.330
 07  8 29  8 14 10.0000000  0 13G 3G19G16G25G13G23G27G21G31G11S29S37
                                G22
 107164340.55738  20392694.791          51.000       -2307.017
 110447174.658 8  21017401.117          49.000        -575.807
 116073693.611 8  22088094.130          48.000       -3226.650
 118015534.412 7  22457614.601          47.000         441.288
 125383052.147 7  23859601.855          47.000       -3521.703
 127557705.673 7  24273432.036          46.000       -4404.771
 128151698.791 7  24386459.505          45.000        1419.173
 133330853.183 7  25372017.189          42.000       -4327.073
 133122967.338 7  25332456.867          44.000       -5377.455
 131605959.47526  25043780.735          41.000        2079.111
 196412230.405 6  37376009.086          41.000       -1689.847
 196739173.167 7  37438224.905          42.000       -1690.456
                  25787777.110          29.000         310.613
 07  8 29  8 14 11.0000000  0 13G 3G19G16G25G13G23G27G21G31G11S29S37
                                G22
 107166647.16928  20393133.734          51.000       -2305.872
 110447750.391 8  21017510.460          49.000        -575.392
 116076919.904 8  22088708.169          48.000       -3225.826
 118015092.029 7  22457530.352          47.000         442.975
 125386573.696 7  23860272.275          47.000       -3521.323
 127562110.041 7  24274270.118          46.000       -4405.013
 128150278.839 7  24386188.922          45.000        1420.926
 133335179.188 7  25372840.631          43.000       -4325.184
 133128344.951 7  25333480.060          44.000       -5377.219
 131603880.08226  25043385.331          41.000        2079.226
 196413920.178 7  37376330.851          42.000       -1689.342
 196740864.455 7  37438546.513          43.000       -1690.063
 135515369.55335  25787717.499          35.000         307.277
 07  8 29  8 14 12.0000000  0 13G 3G19G16G25G13G23G27G21G31G11S29S37
                                G22
 107168952.62428  20393572.712          51.000       -2304.804
 110448325.446 8  21017619.647          49.000        -574.734
 116080144.995 8  22089321.719          48.000       -3224.306
 118014648.511 7  22457445.545          47.000         444.226
 125390094.716 7  23860942.398          47.000       -3520.202
 127566514.017 7  24275108.077          46.000       -4404.282
 128148857.196 7  24385918.497          45.000        1423.266
 133339503.381 7  25373663.619          44.000       -4322.955
 133133722.255 7  25334503.341          43.000       -5376.994
 131601800.41926  25042989.577          41.000        2078.711
 196415609.224 6  37376652.127          41.000       -1687.061
 196742555.109 7  37438868.173          43.000       -1689.982
 135515058.57825  25787657.315          33.000         311.307
 07  8 29  8 14 13.0000000  0 14G 3G19G16G25G13G23G27G21G31G11S29S37
                                G22G18
 107171257.23028  20394011.237          50.000       -2303.556
 110448900.138 8  21017729.217          49.000        -573.646
 116083369.112 8  22089935.217          48.000       -3223.297
 118014204.205 7  22457361.260          47.000         445.282
 125393615.544 7  23861612.435          47.000       -3517.790
 127570917.939 7  24275946.142          46.000       -4403.419
 128147434.291 7  24385647.757          45.000        1423.155
 133343825.948 7  25374486.049          43.000       -4320.571
 133139099.300 7  25335526.727          44.000       -5376.823
 131599720.718 7  25042593.894          42.000        2079.115
 196417297.796 7  37376973.368          42.000       -1688.085
 196744245.119 7  37439189.850          43.000       -1690.656
 135514746.33135  25787598.002          33.000         312.850
 138143876.70835  26287905.730          33.000        -366.513
