     2.11           OBSERVATION DATA    M (MIXED)           RINEX VERSION / TYPE
teqc  2007Jun25                         20080118 19:15:26UTCPGM / RUN BY / DATE
MSXP|IAx86-PII|bcc32 5.0|MSWin95->XP|486/DX+                COMMENT
-Unknown-                                                   MARKER NAME
-Unknown-           -Unknown-                               OBSERVER / AGENCY
-Unknown-           U-BLOX              -Unknown-           REC # / TYPE / VERS
-Unknown-           -Unknown-                               ANT # / TYPE
        0.0000        0.0000        0.0000                  APPROX POSITION XYZ
        0.0000        0.0000        0.0000                  ANTENNA: DELTA H/E/N
     1     0                                                WAVELENGTH FACT L1/2
     4    L1    C1    S1    D1                              # / TYPES OF OBSERV
 SNR is mapped to RINEX snr flag value [0-9]                COMMENT
  L1 & L2: min(max(int(snr_dBHz/6), 0), 9)                  COMMENT
  2007     8    29    13    34    4.0010000     GPS         TIME OF FIRST OBS
    14                                                      LEAP SECONDS
                                                            END OF HEADER
 07  8 29 13 34  4.0010000  0  9G20G28G17G11G 4G 1S37S29G13
 111326078.079 8  21184651.417          49.000       -2190.086
 113813365.355 8  21657970.515          51.000       -2823.305
 112627066.071 8  21432220.118          49.000         612.733
 120708238.681 8  22970016.490          49.000       -3470.123
 122960346.565 8  23398578.058          48.000        1103.429
 135567793.967 7  25797697.781          43.000       -1949.762
 198311704.654 7  37737460.742          42.000       -1161.623
 198002098.294 6  37678555.402          39.000       -1165.387
                  25605377.187          28.000        1951.014
 07  8 29 13 34  5.0010000  0  9G20G28G17G11G 4G 1S37S29G13
 111328268.518 8  21185068.302          49.000       -2190.772
 113816189.279 8  21658507.772          51.000       -2824.176
 112626453.296 8  21432103.359          49.000         612.769
 120711709.091 8  22970676.736          49.000       -3470.921
 122959243.221 8  23398367.992          49.000        1103.024
 135569743.793 7  25798068.877          44.000       -1950.209
 198312866.670 7  37737681.924          43.000       -1162.163
 198003263.021 6  37678777.090          40.000       -1163.330
                  25605011.011          28.000        1948.444
 07  8 29 13 34  6.0010000  0  9G20G28G17G11G 4G 1S37S29G13
 111330459.673 8  21185485.327          49.000       -2190.950
 113819013.898 8  21659045.274          51.000       -2824.642
 112625840.923 8  21431986.460          49.000         612.277
 120715179.698 8  22971337.088          49.000       -3470.170
 122958140.201 8  23398158.101          49.000        1102.903
 135571694.268 7  25798440.427          44.000       -1949.835
 198314028.825 7  37737903.001          43.000       -1161.462
 198004427.262 6  37678998.516          41.000       -1164.378
                  25604645.167          27.000        1947.636
 07  8 29 13 34  7.0010000  0  9G20G28G17G11G 4G 1S37S29G13
 111332651.318 8  21185902.352          50.000       -2191.753
 113821838.968 8  21659582.880          51.000       -2825.285
 112625228.742 8  21431869.788          49.000         612.190
 120718650.289 8  22971997.701          49.000       -3470.025
 122957037.275 8  23397948.210          49.000        1103.436
 135573645.163 7  25798811.471          44.000       -1951.537
 198315191.265 7  37738124.164          43.000       -1163.237
 198005591.879 6  37679220.134          40.000       -1163.470
                  25604279.428          25.000        1948.138
 07  8 29 13 34  8.0010000  0  9G20G28G17G11G 4G 1S37S29G13
 111334843.454 8  21186319.395          50.000       -2192.138
 113824664.517 8  21660120.556          51.000       -2825.788
 112624616.744 8  21431753.360          49.000         612.017
 120722120.874 8  22972658.209          49.000       -3470.532
 122955934.432 8  23397738.458          49.000        1102.838
 135575596.503 7  25799182.689          44.000       -1951.640
 198316353.689 7  37738345.346          43.000       -1163.074
 198006756.363 6  37679441.768          40.000       -1166.942
                  25603911.910          25.000        1951.186
 07  8 29 13 34  9.0010000  0  9G20G28G17G11G 4G 1S37S29G13
 111337036.333 8  21186736.717          50.000       -2192.835
 113827490.776 8  21660658.371          51.000       -2826.298
 112624005.191 8  21431636.862          49.000         611.347
 120725591.702 8  22973318.507          49.000       -3470.834
 122954831.952 8  23397528.619          49.000        1102.671
 135577548.527 7  25799553.314          43.000       -1952.707
 198317516.224 7  37738566.510          42.000       -1162.481
 198007921.393 6  37679663.317          40.000       -1162.678
                  25603545.822          24.000        1950.267
 07  8 29 13 34 10.0010000  0  9G20G28G17G11G 4G 1S37S29G13
 111339229.813 8  21187154.265          50.000       -2194.105
 113830317.637 8  21661196.256          51.000       -2827.074
 112623393.947 8  21431520.329          49.000         611.171
 120729062.635 8  22973979.015          49.000       -3470.856
 122953729.677 8  23397318.571          49.000        1102.094
 135579501.106 7  25799924.270          43.000       -1953.324
 198318678.642 7  37738787.709          43.000       -1163.061
 198009086.004 6  37679885.161          41.000       -1164.712
                  25603179.543          24.000        1953.197
 07  8 29 13 34 11.0010000  0  9G20G28G17G11G 4G 1S37S29G13
 111341423.827 8  21187571.674          50.000       -2194.000
 113833144.976 8  21661734.351          51.000       -2827.323
 112622782.907 8  21431403.797          49.000         611.338
 120732533.584 8  22974639.768          49.000       -3470.865
 122952627.511 8  23397108.924          49.000        1102.454
 135581454.132 7  25800295.524          43.000       -1953.222
 198319840.857 7  37739008.925          43.000       -1162.540
 198010250.615 6  37680106.656          41.000       -1165.858
                  25602813.995          24.000        1952.098
 07  8 29 13 34 12.0010000  0  9G20G28G17G11G 4G 1S37S29G13
 111343618.535 8  21187989.415          49.000       -2194.802
 113835972.998 8  21662272.742          51.000       -2828.206
 112622172.274 8  21431287.334          49.000         610.956
 120736004.726 8  22975300.032          49.000       -3471.201
 122951525.681 8  23396899.329          49.000        1101.747
 135583407.803 7  25800666.794          42.000       -1953.344
 198321003.446 7  37739230.020          42.000       -1162.647
 198011415.269 6  37680328.328          41.000       -1162.518
                  25602443.350          23.000        1945.654
 07  8 29 13 34 13.0010000  0  8G20G28G17G11G 4G 1S37S29
 111345813.926 8  21188406.998          50.000       -2195.704
 113838801.682 8  21662810.889          51.000       -2828.697
 112621562.033 8  21431171.028          49.000         610.173
 120739476.071 8  22975960.540          49.000       -3471.420
 122950424.116 8  23396689.630          49.000        1101.457
 135585362.112 7  25801038.117          42.000       -1953.958
 198322165.953 7  37739451.306          42.000       -1161.615
 198012580.316 6  37680549.945          40.000       -1163.655
 07  8 29 13 34 14.0010000  0  8G20G28G17G11G 4G 1S37S29
 111348009.857 8  21188825.210          50.000       -2196.127
 113841630.894 8  21663349.194          51.000       -2828.904
 112620952.050 8  21431054.792          48.000         610.272
 120742947.444 8  22976621.327          50.000       -3471.190
 122949322.694 8  23396479.896          49.000        1101.305
 135587316.895 7  25801409.719          42.000       -1955.290
 198323328.052 7  37739672.488          42.000       -1161.897
 198013745.064 6  37680771.597          40.000       -1164.960
 07  8 29 13 34 15.0010000  0  8G20G28G17G11G 4G 1S37S29
 111350206.487 8  21189243.230          49.000       -2196.686
 113844460.762 8  21663887.480          51.000       -2829.939
 112620342.448 8  21430938.608          48.000         609.752
 120746419.038 8  22977282.097          50.000       -3471.209
 122948221.591 8  23396270.231          48.000        1100.802
 135589272.339 7  25801781.444          43.000       -1955.917
 198324490.140 7  37739893.582          42.000       -1162.387
 198014909.681 6  37680993.285          40.000       -1164.869
 07  8 29 13 34 16.0010000  0  8G20G28G17G11G 4G 1S37S29
 111352403.779 8  21189661.092          49.000       -2197.569
 113847291.268 8  21664426.081          51.000       -2830.580
 112619733.198 8  21430822.651          48.000         609.104
 120749890.769 8  22977942.448          49.000       -3471.690
 122947120.764 8  23396060.794          48.000        1101.041
 135591228.373 7  25802153.081          43.000       -1956.124
 198325652.492 7  37740114.676          42.000       -1162.197
 198016074.545 6  37681214.885          41.000       -1164.768
 07  8 29 13 34 17.0010000  0  8G20G28G17G11G 4G 1S37S29
 111354601.555 8  21190079.304          49.000       -2198.299
 113850122.221 8  21664965.135          52.000       -2831.438
 112619124.130 8  21430706.537          48.000         608.900
 120753362.495 8  22978603.096          49.000       -3471.691
 122946020.014 8  23395851.269          49.000        1100.598
 135593184.803 7  25802525.346          42.000       -1957.241
 198326814.961 7  37740335.840          42.000       -1161.808
 198017239.106 6  37681436.696          41.000       -1163.440
 07  8 29 13 34 18.0010000  0  8G20G28G17G11G 4G 1S37S29
 111356800.064 8  21190497.620          50.000       -2198.748
 113852953.907 8  21665503.736          52.000       -2831.896
 112618515.519 8  21430590.441          49.000         608.254
 120756834.446 8  22979263.796          50.000       -3471.805
 122944919.622 8  23395641.953          49.000        1100.012
 135595141.927 7  25802897.227          42.000       -1957.736
 198327977.880 7  37740557.073          42.000       -1164.606
 198018403.822 6  37681658.539          40.000       -1166.770
 07  8 29 13 34 19.0010000  0  8G20G28G17G11G 4G 1S37S29
 111358999.245 8  21190916.181          50.000       -2199.140
 113855786.226 8  21666042.825          52.000       -2832.458
 112617907.271 8  21430474.746          49.000         608.247
 120760306.569 8  22979924.339          50.000       -3472.334
 122943819.500 8  23395432.498          49.000        1099.987
 135597099.685 7  25803269.318          42.000       -1957.555
 198329140.888 7  37740778.377          42.000       -1163.005
 198019568.681 6  37681880.192          41.000       -1164.866
 07  8 29 13 34 20.0010000  0  9G20G28G17G11G 4G23G 1S37S29
 111361198.982 8  21191334.724          50.000       -2199.654
 113858619.074 8  21666582.054          52.000       -2832.925
 112617299.261 8  21430358.929          49.000         608.086
 120763778.757 8  22980585.057          50.000       -3471.606
 122942719.516 8  23395223.375          49.000        1100.421
 128488069.24326  24450466.607          36.000        1511.468
 135599057.922 7  25803641.566          43.000       -1958.406
 198330303.841 7  37740999.699          42.000       -1161.284
 198020733.567 6  37682101.828          41.000       -1163.955
 07  8 29 13 34 21.0010000  0  9G20G28G17G11G 4G23G 1S37S29
 111363399.259 8  21191753.145          50.000       -2200.088
 113861452.428 8  21667121.318          52.000       -2833.151
 112616691.498 8  21430243.304          49.000         607.882
 120767250.973 8  22981245.722          50.000       -3472.157
 122941619.675 8  23395014.199          49.000        1099.946
 128486558.68926  24450168.312          37.000        1508.763
 135601016.622 7  25804014.372          43.000       -1958.699
 198331466.486 7  37741220.827          42.000       -1163.972
 198021898.536 6  37682323.498          41.000       -1162.575
 07  8 29 13 34 22.0010000  0  9G20G28G17G11G 4G23G 1S37S29
 111365600.236 8  21192172.142          50.000       -2200.868
 113864286.477 8  21667660.530          52.000       -2834.224
 112616084.143 8  21430127.888          49.000         607.388
 120770723.393 8  22981906.718          50.000       -3472.555
 122940520.186 8  23394805.215          49.000        1099.516
 128485048.44826  24449882.199          37.000        1510.292
 135602975.971 7  25804387.684          43.000       -1960.005
 198332629.224 7  37741442.236          43.000       -1161.588
 198023063.681 7  37682545.185          42.000       -1164.560
 07  8 29 13 34 23.0010000  0  9G20G28G17G11G 4G23G 1S37S29
 111367801.862 8  21192590.947          50.000       -2201.995
 113867121.148 8  21668200.247          52.000       -2834.652
 112615477.129 8  21430011.966          49.000         607.138
 120774195.972 8  22982567.803          50.000       -3472.641
 122939420.929 8  23394595.900          49.000        1099.396
 128483538.37826  24449594.306          36.000        1511.577
 135604935.916 7  25804760.631          42.000       -1959.689
 198333791.719 7  37741663.488          43.000       -1160.845
 198024228.865 6  37682766.785          41.000       -1165.505
 07  8 29 13 34 24.0010000  0  9G20G28G17G11G 4G23G 1S37S29
 111370003.979 8  21193010.188          50.000       -2202.344
 113869956.271 8  21668739.825          51.000       -2835.380
 112614870.303 8  21429896.637          48.000         606.744
 120777668.524 8  22983228.747          50.000       -3472.647
 122938321.765 8  23394386.602          49.000        1099.528
 128482028.27526  24449306.114          36.000        1508.900
 135606896.290 7  25805134.030          43.000       -1960.654
 198334954.221 7  37741884.599          42.000       -1162.593
 198025393.603 6  37682988.333          41.000       -1166.267
 07  8 29 13 34 25.0010000  0  9G20G28G17G11G 4G23G 1S37S29
 111372206.784 8  21193429.238          50.000       -2203.012
 113872792.071 8  21669279.106          51.000       -2835.987
 112614263.873 8  21429781.361          49.000         606.799
 120781141.269 8  22983889.587          50.000       -3472.577
 122937222.905 8  23394177.915          49.000        1099.471
 128480518.50326  24449016.721          36.000        1511.766
 135608857.309 7  25805507.377          43.000       -1961.060
 198336116.926 7  37742105.746          42.000       -1162.462
 198026558.472 6  37683209.794          40.000       -1165.212
 07  8 29 13 34 26.0010000  0  9G20G28G17G11G 4G23G 1S37S29
 111374410.284 8  21193848.496          50.000       -2203.786
 113875628.538 8  21669819.016          51.000       -2836.847
 112613657.829 8  21429666.329          49.000         606.198
 120784614.201 8  22984550.322          49.000       -3473.003
 122936124.308 8  23393968.651          49.000        1098.647
 128479008.89626  24448728.564          36.000        1508.934
 135610818.933 7  25805880.654          43.000       -1962.165
 198337279.559 7  37742326.997          43.000       -1161.745
 198027723.254 6  37683431.464          39.000       -1166.816
 07  8 29 13 34 27.0010000  0  9G20G28G17G11G 4G23G 1S37S29
 111376614.362 8  21194267.930          50.000       -2204.269
 113878465.556 8  21670358.873          51.000       -2837.061
 112613052.066 8  21429550.913          49.000         605.970
 120788087.210 8  22985211.092          49.000       -3472.566
 122935025.922 8  23393759.685          49.000        1098.323
 128477499.43726  24448440.968          36.000        1509.507
 135612781.092 7  25806253.984          43.000       -1962.053
 198338442.148 7  37742548.144          43.000       -1160.988
 198028888.251 6  37683652.891          39.000       -1163.493
 07  8 29 13 34 28.0010000  0  9G20G28G17G11G 4G23G 1S37S29
 111378818.930 8  21194687.415          50.000       -2204.542
 113881303.052 8  21670898.573          51.000       -2837.900
 112612446.501 8  21429435.654          49.000         605.296
 120791560.236 8  22985872.123          49.000       -3472.948
 122933927.645 8  23393550.945          49.000        1098.240
 128475990.01226  24448153.562          36.000        1508.324
 135614743.698 7  25806627.943          43.000       -1962.327
 198339604.578 7  37742769.413          42.000       -1161.864
 198030053.506 6  37683874.718          40.000       -1163.956
 07  8 29 13 34 29.0010000  0  9G20G28G17G11G 4G23G 1S37S29
 111381024.159 8  21195106.971          50.000       -2205.260
 113884141.194 8  21671438.814          51.000       -2838.195
 112611841.294 8  21429320.518          48.000         605.313
 120795033.405 8  22986532.858          49.000       -3472.943
 122932829.610 8  23393342.014          49.000        1097.840
 128474480.76826  24447865.634          36.000        1508.782
 135616706.892 7  25807001.447          43.000       -1962.675
 198340766.996 7  37742990.594          42.000       -1162.360
 198031218.200 6  37684096.544          39.000       -1166.316
 07  8 29 13 34 30.0010000  0  9G20G28G17G11G 4G23G 1S37S29
 111383229.928 8  21195526.508          49.000       -2205.901
 113886979.825 8  21671978.637          51.000       -2838.675
 112611236.314 8  21429205.660          49.000         605.146
 120798506.612 8  22987193.768          49.000       -3473.293
 122931731.741 8  23393133.449          49.000        1097.565
 128472971.60126  24447578.281          36.000        1510.089
 135618670.555 7  25807374.724          43.000       -1964.413
 198341929.228 7  37743211.863          42.000       -1162.397
 198032383.141 6  37684318.284          41.000       -1165.132
 07  8 29 13 34 31.0010000  0  9G20G28G17G11G 4G23G 1S37S29
 111385436.363 8  21195946.797          49.000       -2206.037
 113889819.102 8  21672519.227          51.000       -2839.382
 112610631.707 8  21429090.785          49.000         604.540
 120801979.990 8  22987854.887          49.000       -3472.621
 122930634.148 8  23392924.552          50.000        1097.927
 128471463.177 5  24447290.894          35.000        1509.481
 135620634.823 7  25807748.542          43.000       -1964.962
 198343091.608 7  37743433.027          43.000       -1162.001
 198033547.735 6  37684539.675          40.000       -1166.487
 07  8 29 13 34 32.0010000  0  9G20G28G17G11G 4G23G 1S37S29
 111387643.443 8  21196366.404          50.000       -2207.574
 113892658.995 8  21673059.520          52.000       -2839.964
 112610027.453 8  21428976.050          49.000         604.382
 120805453.512 8  22988516.006          49.000       -3473.024
 122929536.802 8  23392715.917          50.000        1097.544
 128469954.407 6  24447003.121          36.000        1505.914
 135622599.698 7  25808122.326          43.000       -1965.477
 198344254.247 7  37743654.313          43.000       -1163.749
 198034712.759 6  37684761.223          40.000       -1164.855
 07  8 29 13 34 33.0010000  0  9G20G28G17G11G 4G23G 1S37S29
 111389851.085 8  21196786.204          49.000       -2207.984
 113895499.439 8  21673600.232          52.000       -2840.714
 112609423.464 8  21428861.524          49.000         603.619
 120808927.099 8  22989176.933          49.000       -3473.585
 122928439.632 8  23392507.404          50.000        1097.262
 128468445.770 5  24446716.135          35.000        1507.881
 135624565.074 7  25808496.650          44.000       -1965.961
 198345417.018 7  37743875.634          42.000       -1163.384
 198035878.224 6  37684983.068          40.000       -1164.264
 07  8 29 13 34 34.0010000  0  9G20G28G17G11G 4G23G 1S37S29
 111392059.426 8  21197206.492          50.000       -2208.654
 113898340.560 8  21674140.473          52.000       -2841.247
 112608819.882 8  21428746.614          50.000         603.593
 120812400.891 8  22989837.650          49.000       -3473.635
 122927342.766 8  23392298.735          50.000        1097.083
 128466937.341 6  24446429.027          36.000        1508.081
 135626531.105 7  25808870.748          44.000       -1966.716
 198346579.805 7  37744096.833          42.000       -1162.029
 198037043.529 6  37685204.930          40.000       -1164.978
 07  8 29 13 34 35.0010000  0  9G20G28G17G11G 4G23G 1S37S29
 111394268.253 8  21197626.781          50.000       -2209.265
 113901182.139 8  21674681.465          51.000       -2841.878
 112608216.482 8  21428631.792          49.000         603.454
 120815874.665 8  22990498.752          49.000       -3473.683
 122926245.982 8  23392090.327          50.000        1096.802
 128465428.974 6  24446141.046          36.000        1508.913
 135628497.539 7  25809244.985          45.000       -1966.683
 198347742.296 7  37744317.840          42.000       -1162.476
 198038208.294 6  37685426.792          40.000       -1165.792
 07  8 29 13 34 36.0010000  0  9G20G28G17G11G 4G23G 1S37S29
 111396477.822 8  21198047.366          50.000       -2209.518
 113904024.428 8  21675222.142          51.000       -2842.397
 112607613.523 8  21428517.074          50.000         603.010
 120819348.666 8  22991159.783          49.000       -3474.027
 122925149.561 8  23391881.639          50.000        1096.564
 128463920.909 6  24445853.990          36.000        1509.604
 135630464.661 7  25809619.693          44.000       -1967.556
 198348905.067 7  37744539.039          43.000       -1163.337
 198039372.938 6  37685648.532          41.000       -1165.856
 07  8 29 13 34 37.0010000  0  9G20G28G17G11G 4G23G 1S37S29
 111398687.844 8  21198467.706          50.000       -2210.066
 113906867.163 8  21675763.099          51.000       -2842.648
 112607010.745 8  21428402.583          50.000         602.679
 120822822.661 8  22991820.640          50.000       -3473.939
 122924053.224 8  23391673.162          51.000        1096.720
 128462412.849 5  24445566.985          35.000        1506.618
 135632432.179 7  25809994.419          45.000       -1967.445
 198350067.783 7  37744760.343          43.000       -1162.322
 198040537.670 7  37685870.464          42.000       -1163.172
 07  8 29 13 34 38.0010000  0  9G20G28G17G11G 4G23G 1S37S29
 111400898.322 8  21198888.553          50.000       -2210.533
 113909710.295 8  21676304.055          51.000       -2843.639
 112606408.100 8  21428288.458          50.000         602.512
 120826296.552 8  22992481.916          49.000       -3473.802
 122922956.919 8  23391464.544          50.000        1096.612
 128460904.718 5  24445279.266          35.000        1505.517
 135634400.067 7  25810369.215          45.000       -1967.760
 198351230.372 7  37744981.263          42.000       -1161.375
 198041702.199 6  37686092.029          41.000       -1164.706
 07  8 29 13 34 39.0010000  0  9G20G28G17G11G 4G23G 1S37S29
 111403109.534 8  21199309.417          50.000       -2211.398
 113912554.154 8  21676845.082          52.000       -2843.798
 112605805.890 8  21428173.863          50.000         602.373
 120829770.723 8  22993143.280          49.000       -3474.134
 122921860.945 8  23391256.119          50.000        1096.010
 128459396.896 5  24444992.107          35.000        1509.433
 135636368.682 7  25810743.870          43.000       -1968.961
 198352392.934 7  37745202.514          43.000       -1162.236
 198042867.079 6  37686313.595          41.000       -1164.455
 07  8 29 13 34 40.0010000  0  9G20G28G17G11G 4G23G 1S37S29
 111405321.329 8  21199730.246          50.000       -2212.286
 113915398.581 8  21677386.003          52.000       -2844.519
 112605203.966 8  21428059.110          50.000         601.561
 120833244.961 8  22993804.119          50.000       -3473.695
 122920765.202 8  23391047.344          50.000        1095.647
 128457889.228 5  24444704.491          34.000        1507.489
 135638337.748 7  25811118.142          44.000       -1970.269
 198353555.523 7  37745423.730          43.000       -1162.709
 198044031.867 6  37686535.336          40.000       -1162.285
 07  8 29 13 34 41.0010000  0  9G20G28G17G11G 4G23G 1S37S29
 111407533.802 8  21200151.128          50.000       -2212.386
 113918243.657 8  21677927.536          51.000       -2844.870
 112604602.428 8  21427944.270          49.000         601.278
 120836719.369 8  22994464.924          50.000       -3474.071
 122919669.718 8  23390838.849          50.000        1095.103
 128456381.30235  24444416.877          34.000        1509.144
 135640307.481 7  25811492.170          44.000       -1970.544
 198354718.377 7  37745645.034          43.000       -1162.075
 198045196.494 6  37686757.092          41.000       -1163.486
 07  8 29 13 34 42.0010000  0  9G20G28G17G11G 4G23G 1S37S29
 111409746.974 8  21200572.358          49.000       -2213.152
 113921089.417 8  21678468.876          51.000       -2845.911
 112604001.292 8  21427829.517          49.000         601.063
 120840193.992 8  22995126.287          49.000       -3474.368
 122918574.526 8  23390630.755          50.000        1094.893
 128454874.05235  24444129.507          32.000        1507.450
 135642277.870 7  25811866.285          43.000       -1970.403
 198355881.500 7  37745866.337          43.000       -1162.816
 198046361.595 6  37686978.762          40.000       -1165.126
 07  8 29 13 34 43.0010000  0  9G20G28G17G11G 4G23G 1S37S29
 111411960.785 8  21200993.432          49.000       -2214.006
 113923935.793 8  21679010.827          51.000       -2846.299
 112603400.497 8  21427715.427          49.000         600.664
 120843668.748 8  22995787.144          49.000       -3474.843
 122917479.598 8  23390422.120          50.000        1094.843
 128453367.05125  24443841.875          31.000        1506.970
 135644248.815 6  25812240.662          41.000       -1972.492
 198357044.371 7  37746087.711          43.000       -1162.455
 198047526.867 6  37687200.362          41.000       -1165.410
 07  8 29 13 34 44.0010000  0  9G20G28G17G11G 4G23G 1S37S29
 111414175.296 8  21201414.889          50.000       -2214.785
 113926782.825 8  21679552.674          51.000       -2847.307
 112602800.105 8  21427601.303          50.000         600.568
 120847143.679 8  22996448.560          50.000       -3475.152
 122916384.979 8  23390214.131          50.000        1094.658
 128451860.29125  24443554.662          31.000        1508.771
 135646220.432 6  25812615.422          40.000       -1972.569
 198358207.340 7  37746308.997          42.000       -1164.070
 198048692.387 6  37687421.997          40.000       -1165.044
 07  8 29 13 34 45.0010000  0  9G20G28G17G11G 4G23G 1S37S29
 111416390.242 8  21201836.539          49.000       -2215.181
 113929630.271 8  21680094.311          51.000       -2847.605
 112602199.844 8  21427487.318          50.000         600.500
 120850618.589 8  22997109.906          50.000       -3474.958
 122915290.426 8  23390005.688          50.000        1094.746
                  24443266.876          31.000        1515.323
 135648192.374 6  25812990.148          41.000       -1972.929
 198359370.249 7  37746530.283          43.000       -1163.107
 198049857.587 6  37687644.016          41.000       -1166.202
 07  8 29 13 34 46.0010000  0 10G20G28G17G11G 4G23G 1S37S29G13
 111418605.717 8  21202257.961          50.000       -2215.402
 113932478.211 8  21680636.559          52.000       -2848.082
 112601599.805 8  21427373.420          50.000         599.750
 120854093.493 8  22997771.269          49.000       -3475.048
 122914195.972 8  23389797.716          50.000        1094.218
                  24442976.657          30.000        1504.423
 135650164.828 6  25813364.857          41.000       -1971.938
 198360533.031 7  37746751.395          43.000       -1163.202
 198051022.523 6  37687865.687          40.000       -1163.278
                  25589776.239          27.000        1951.243
 07  8 29 13 34 47.0010000  0 10G20G28G17G11G 4G23G 1S37S29G13
 111420821.869 8  21202679.733          50.000       -2216.352
 113935326.819 8  21681178.876          52.000       -2849.139
 112601000.200 8  21427259.627          50.000         599.833
 120857568.584 8  22998432.754          49.000       -3474.809
 122913101.821 8  23389589.657          50.000        1094.214
                  24442684.594          29.000        1508.829
 135652137.871 7  25813740.001          42.000       -1973.900
 198361695.929 7  37746972.856          43.000       -1162.687
 198052187.316 7  37688087.374          42.000       -1165.503
                  25589401.515          29.000        1955.316
 07  8 29 13 34 48.0010000  0  9G20G28G17G11G 4G 1S37S29G13
 111423038.511 8  21203101.749          50.000       -2216.777
 113938175.878 8  21681721.124          51.000       -2849.298
 112600400.749 8  21427145.625          50.000         599.496
 120861043.670 8  22999093.891          49.000       -3474.857
 122912007.753 8  23389381.563          50.000        1094.229
 135654111.350 7  25814115.844          42.000       -1973.575
 198362858.540 7  37747194.072          43.000       -1162.786
 198053351.976 7  37688308.782          42.000       -1165.463
                  25589027.400          29.000        1957.232
 07  8 29 13 34 49.0010000  0  9G20G28G17G11G 4G 1S37S29G13
 111425255.716 8  21203523.625          49.000       -2217.169
 113941025.460 8  21682263.581          51.000       -2849.783
 112599801.547 8  21427031.413          50.000         599.179
 120864518.811 8  22999755.132          49.000       -3475.251
 122910913.844 8  23389173.487          50.000        1093.893
 135656085.341 7  25814491.198          42.000       -1974.325
 198364021.074 7  37747415.358          43.000       -1162.363
 198054516.802 6  37688530.330          41.000       -1165.418
                  25588655.169          29.000        1955.067
 07  8 29 13 34 50.0010000  0  9G20G28G17G11G 4G 1S37S29G13
 111427473.636 8  21203945.710          50.000       -2218.208
 113943875.781 8  21682806.074          51.000       -2850.529
 112599202.796 8  21426917.742          50.000         598.877
 120867994.183 8  23000416.495          49.000       -3475.161
 122909820.288 8  23388965.201          50.000        1093.728
 135658060.026 6  25814866.971          41.000       -1974.213
 198365184.071 7  37747636.680          43.000       -1161.629
 198055681.876 6  37688752.210          40.000       -1165.493
                  25588283.235          30.000        1955.479
 07  8 29 13 34 51.0010000  0  9G20G28G17G11G 4G 1S37S29G13
 111429692.234 8  21204368.093          50.000       -2218.737
 113946726.707 8  21683348.670          51.000       -2850.827
 112598604.392 8  21426803.810          50.000         598.388
 120871469.710 8  23001078.260          49.000       -3475.425
 122908726.969 8  23388757.142          49.000        1093.507
 135660035.273 6  25815242.046          41.000       -1975.390
 198366347.228 7  37747858.053          43.000       -1162.663
 198056847.142 6  37688974.003          40.000       -1163.925
                  25587911.599          29.000        1958.595
 07  8 29 13 34 52.0010000  0  9G20G28G17G11G 4G 1S37S29G13
 111431911.427 8  21204790.021          50.000       -2219.367
 113949578.229 8  21683891.634          51.000       -2851.995
 112598006.308 8  21426690.156          50.000         597.993
 120874945.341 8  23001739.605          49.000       -3475.757
 122907633.876 8  23388549.187          49.000        1092.955
 135662011.104 7  25815618.010          42.000       -1975.539
 198367510.093 7  37748079.357          43.000       -1162.742
 198058012.309 6  37689195.847          41.000       -1164.683
                  25587538.617          29.000        1955.094
 07  8 29 13 34 53.0010000  0  9G20G28G17G11G 4G 1S37S29G13
 111434131.270 8  21205212.543          50.000       -2219.840
 113952430.361 8  21684434.388          51.000       -2852.380
 112597408.570 8  21426576.451          50.000         597.934
 120878421.121 8  23002401.004          49.000       -3475.116
 122906541.036 8  23388341.059          49.000        1093.197
 135663987.491 7  25815994.306          42.000       -1977.137
 198368672.688 7  37748300.608          43.000       -1161.671
 198059177.229 6  37689417.604          41.000       -1164.793
                  25587164.955          29.000        1955.583
 07  8 29 13 34 54.0010000  0  9G20G28G17G11G 4G 1S37S29G13
 111436351.554 8  21205635.152          50.000       -2220.428
 113955282.924 8  21684977.281          51.000       -2852.915
 112596810.970 8  21426462.693          50.000         597.672
 120881896.845 8  23003062.314          49.000       -3475.426
 122905448.246 8  23388133.017          49.000        1093.088
 135665964.264 7  25816370.655          42.000       -1976.638
 198369834.875 7  37748521.737          43.000       -1162.017
 198060342.253 6  37689639.414          41.000       -1166.199
                  25586791.905          28.000        1956.678
 07  8 29 13 34 55.0010000  0  9G20G28G17G11G 4G 1S37S29G13
 111438572.565 8  21206057.796          50.000       -2221.259
 113958136.180 8  21685520.209          51.000       -2853.756
 112596213.800 8  21426348.742          50.000         596.990
 120885372.796 8  23003724.079          49.000       -3475.700
 122904355.824 8  23387925.115          49.000        1092.376
 135667941.731 7  25816747.126          42.000       -1977.940
 198370997.475 7  37748742.884          43.000       -1161.922
 198061507.178 6  37689860.980          40.000       -1164.172
                  25586416.587          29.000        1959.981
 07  8 29 13 34 56.0010000  0  9G20G28G17G11G 4G 1S37S29G13
 111440794.220 8  21206480.772          50.000       -2221.718
 113960990.059 8  21686063.312          51.000       -2853.867
 112595617.005 8  21426234.915          50.000         597.017
 120888848.884 8  23004385.494          49.000       -3475.825
 122903263.629 8  23387717.143          49.000        1092.306
 135669919.754 7  25817123.737          42.000       -1977.485
 198372160.560 7  37748964.257          43.000       -1162.703
 198062672.472 6  37690082.562          40.000       -1165.806
                  25586043.603          30.000        1952.342
 07  8 29 13 34 57.0010000  0  9G20G28G17G11G 4G 1S37S29G13
 111443016.531 8  21206903.678          50.000       -2222.464
 113963844.572 8  21686606.660          52.000       -2854.012
 112595020.551 8  21426121.156          50.000         596.461
 120892325.138 8  23005046.858          49.000       -3475.891
 122902171.692 8  23387509.346          49.000        1091.943
 135671898.389 7  25817500.451          42.000       -1978.972
 198373323.739 7  37749185.578          43.000       -1162.161
 198063837.771 6  37690304.111          41.000       -1164.271
                  25585670.432          30.000        1957.258
 07  8 29 13 34 58.0010000  0  9G20G28G17G11G 4G 1S37S29G13
 111445239.221 8  21207326.461          50.000       -2222.744
 113966699.442 8  21687149.850          52.000       -2854.966
 112594424.196 8  21426007.695          49.000         596.044
 120895801.276 8  23005708.605          49.000       -3475.924
 122901079.772 8  23387301.409          49.000        1092.227
 135673877.359 7  25817877.236          42.000       -1979.605
 198374486.697 7  37749406.742          43.000       -1162.738
 198065002.448 6  37690525.850          41.000       -1166.085
                  25585296.716          29.000        1952.268
 07  8 29 13 34 59.0010000  0  9G20G28G17G11G 4G 1S37S29G13
 111447462.441 8  21207749.542          50.000       -2223.738
 113969554.814 8  21687693.232          52.000       -2855.554
 112593828.084 8  21425893.832          49.000         596.052
 120899277.447 8  23006369.933          49.000       -3475.993
 122899987.985 8  23387093.594          49.000        1091.485
 135675856.809 7  25818254.143          43.000       -1980.082
 198375649.193 7  37749627.959          43.000       -1162.214
 198066167.379 6  37690747.556          41.000       -1162.308
                  25584922.500          29.000        1962.125
 07  8 29 13 35  0.0010000  0  9G20G28G17G11G 4G 1S37S29G13
 111449686.377 8  21208172.657          50.000       -2223.836
 113972410.880 8  21688236.789          52.000       -2856.164
 112593232.374 8  21425780.266          49.000         595.559
 120902753.833 8  23007031.680          49.000       -3475.992
 122898896.522 8  23386885.727          49.000        1091.405
 135677836.898 7  25818630.963          43.000       -1980.392
 198376811.694 7  37749849.227          43.000       -1163.676
 198067332.375 6  37690969.295          41.000       -1165.447
                  25584547.318          29.000        1956.145
 07  8 29 13 35  1.0010000  0  9G20G28G17G11G 4G 1S37S29G13
 111451910.676 8  21208596.313          50.000       -2224.599
 113975267.292 8  21688780.293          52.000       -2856.653
 112592636.757 8  21425666.805          49.000         595.587
 120906230.075 8  23007692.886          49.000       -3476.304
 122897805.026 8  23386677.825          49.000        1091.141
 135679817.301 7  25819008.516          43.000       -1980.772
 198377974.300 7  37750070.566          43.000       -1162.641
 198068496.865 6  37691190.721          41.000       -1165.678
                  25584172.679          28.000        1954.607
 07  8 29 13 35  2.0010000  0  9G20G28G17G11G 4G 1S37S29G13
 111454135.669 8  21209019.498          50.000       -2224.703
 113978124.366 8  21689324.111          52.000       -2856.985
 112592041.515 8  21425553.221          49.000         595.242
 120909706.516 8  23008353.953          49.000       -3476.143
 122896713.833 8  23386470.220          49.000        1091.721
 135681798.348 7  25819386.174          44.000       -1980.853
 198379136.752 7  37750291.660          43.000       -1163.018
 198069662.082 6  37691412.217          40.000       -1163.918
                  25583798.355          28.000        1957.040
 07  8 29 13 35  3.0010000  0  9G20G28G17G11G 4G 1S37S29G13
 111456361.329 8  21209443.172          51.000       -2225.680
 113980982.074 8  21689867.790          52.000       -2858.072
 112591446.659 8  21425440.039          50.000         594.616
 120913183.117 8  23009015.665          49.000       -3476.913
 122895622.893 8  23386262.702          49.000        1091.017
 135683779.979 7  25819764.093          45.000       -1981.254
 198380298.900 7  37750512.807          43.000       -1161.412
 198070827.128 6  37691633.992          40.000       -1162.957
                  25583421.204          27.000        1957.266
 07  8 29 13 35  4.0010000  0  9G20G28G17G11G 4G 1S37S29G13
 111458587.601 8  21209866.688          51.000       -2226.247
 113983840.381 8  21690411.643          52.000       -2858.479
 112590852.127 8  21425326.909          50.000         594.767
 120916659.844 8  23009677.535          49.000       -3476.379
 122894532.224 8  23386054.835          49.000        1091.082
 135685762.183 7  25820142.221          45.000       -1982.219
 198381461.253 7  37750734.059          43.000       -1161.424
 198071991.722 6  37691855.749          40.000       -1165.219
                  25583045.851          28.000        1959.749
 07  8 29 13 35  5.0010000  0  9G20G28G17G11G 4G 1S37S29G13
 111460814.571 8  21210290.746          50.000       -2227.234
 113986699.356 8  21690955.566          52.000       -2859.210
 112590257.981 8  21425213.570          50.000         593.829
 120920136.770 8  23010339.020          49.000       -3476.918
 122893441.830 8  23385847.247          49.000        1090.459
 135687745.026 7  25820520.210          45.000       -1982.739
 198382624.002 7  37750955.310          43.000       -1161.535
 198073156.449 7  37692077.245          42.000       -1163.809
                  25582670.949          28.000        1955.699
 07  8 29 13 35  6.0010000  0  9G20G28G17G11G 4G 1S37S29G13
 111463042.049 8  21210714.646          50.000       -2227.790
 113989558.815 8  21691499.873          52.000       -2859.715
 112589664.056 8  21425100.422          49.000         593.686
 120923613.701 8  23011000.575          49.000       -3476.864
 122892351.557 8  23385639.781          49.000        1090.323
 135689728.310 7  25820897.763          45.000       -1982.945
 198383786.685 7  37751176.614          43.000       -1160.814
 198074321.286 6  37692298.880          41.000       -1163.815
                  25582295.856          28.000        1955.316
 07  8 29 13 35  7.0010000  0 10G20G28G17G11G 4G23G 1S37S29G13
 111465270.171 8  21211138.582          50.000       -2228.077
 113992418.879 8  21692044.145          52.000       -2859.907
 112589070.461 8  21424987.659          49.000         593.927
 120927090.764 8  23011662.183          48.000       -3476.528
 122891261.532 8  23385432.525          48.000        1090.151
                  24436938.079          32.000        1504.825
 135691712.167 7  25821275.525          45.000       -1983.791
 198384949.401 7  37751398.074          43.000       -1163.042
 198075486.365 6  37692520.394          40.000       -1162.885
                  25581921.288          27.000        1957.695
 07  8 29 13 35  8.0010000  0 10G20G28G17G11G 4G23G 1S37S29G13
 111467498.811 8  21211562.569          50.000       -2228.715
 113995279.462 8  21692588.138          51.000       -2860.857
 112588477.119 8  21424874.669          49.000         593.443
 120930567.872 8  23012324.052          48.000       -3477.193
 122890171.661 8  23385224.867          48.000        1089.920
                  24436658.734          31.000        1498.686
 135693696.503 7  25821653.235          44.000       -1984.513
 198386112.062 7  37751619.151          43.000       -1161.945
 198076651.422 6  37692742.290          40.000       -1163.806
                  25581548.148          25.000        1951.521
 07  8 29 13 35  9.0010000  0 10G20G28G17G11G 4G23G 1S37S29G13
 111469728.095 8  21211986.784          50.000       -2229.310
 113998140.651 8  21693132.480          51.000       -2861.218
 112587884.108 8  21424761.626          49.000         593.004
 120934045.101 8  23012985.764          48.000       -3476.825
 122889082.016 8  23385017.175          49.000        1090.298
                  24436375.448          30.000        1502.414
 135695681.422 7  25822031.224          44.000       -1984.287
 198387274.861 7  37751840.594          43.000       -1163.314
 198077816.633 6  37692963.960          40.000       -1165.627
                  25581176.896          26.000        1955.825
 07  8 29 13 35 10.0010000  0 10G20G28G17G11G 4G23G 1S37S29G13
 111471957.975 8  21212411.260          49.000       -2230.076
 114001002.423 8  21693676.927          51.000       -2862.024
 112587291.411 8  21424649.002          48.000         592.683
 120937522.428 8  23013647.284          48.000       -3477.516
 122887992.596 8  23384809.674          48.000        1089.576
                  24436087.713          31.000        1506.400
 135697666.904 7  25822409.213          44.000       -1985.446
 198388437.632 7  37752062.019          42.000       -1164.109
 198078981.470 6  37693185.472          39.000       -1166.488
                  25580805.085          24.000        1958.235
 07  8 29 13 35 11.0010000  0 10G20G28G17G11G 4G23G 1S37S29G13
 111474188.350 8  21212835.597          49.000       -2230.155
 114003864.659 8  21694221.618          51.000       -2862.055
 112586698.912 8  21424536.117          49.000         592.616
 120940999.762 8  23014308.613          48.000       -3476.812
 122886903.287 8  23384601.999          48.000        1089.548
                  24435799.453          30.000        1505.701
 135699652.810 7  25822787.219          43.000       -1985.778
 198389600.408 7  37752283.271          42.000       -1162.026
 198080146.516 6  37693407.091          41.000       -1164.665
                  25580431.266          23.000        1958.205
 07  8 29 13 35 12.0010000  0 10G20G28G17G11G 4G23G 1S37S29G13
 111476419.347 8  21213260.422          50.000       -2231.400
 114006727.483 8  21694766.186          51.000       -2863.369
 112586106.738 8  21424423.615          49.000         592.406
 120944477.216 8  23014970.255          48.000       -3477.583
 122885814.199 8  23384394.603          48.000        1088.654
                  24435513.722          31.000        1502.820
 135701639.288 7  25823164.859          43.000       -1986.361
 198390763.328 7  37752504.610          43.000       -1162.323
 198081311.661 6  37693628.656          41.000       -1165.405
                  25580060.692          23.000        1953.695
 07  8 29 13 35 13.0010000  0  9G20G28G17G11G 4G23G 1S37S29
 111478650.868 8  21213685.160          50.000       -2231.935
 114009590.809 8  21695311.191          51.000       -2863.327
 112585514.785 8  21424311.323          49.000         591.769
 120947954.687 8  23015632.281          48.000       -3477.959
 122884725.226 8  23384187.382          48.000        1088.989
                  24435227.938          31.000        1499.836
 135703626.224 7  25823542.569          42.000       -1986.700
 198391926.044 7  37752725.948          42.000       -1163.195
 198082476.757 6  37693850.379          40.000       -1164.206
 07  8 29 13 35 14.0010000  0  9G20G28G17G11G 4G23G 1S37S29
 111480883.094 8  21214109.741          50.000       -2232.556
 114012454.824 8  21695855.865          51.000       -2864.234
 112584923.255 8  21424198.874          49.000         591.578
 120951432.373 8  23016293.802          48.000       -3477.495
 122883636.589 8  23383980.300          48.000        1088.305
 128406487.63535  24434942.193          33.000        1504.739
 135705613.805 7  25823920.261          42.000       -1988.041
 198393088.876 7  37752947.269          43.000       -1162.463
 198083641.406 6  37694071.875          40.000       -1163.811
 07  8 29 13 35 15.0010000  0  9G20G28G17G11G 4G23G 1S37S29
 111483115.937 8  21214534.741          50.000       -2232.833
 114015319.416 8  21696400.695          51.000       -2864.641
 112584332.056 8  21424086.424          49.000         591.332
 120954910.180 8  23016955.619          48.000       -3477.523
 122882548.156 8  23383772.974          48.000        1088.364
 128404985.14525  24434658.364          33.000        1502.808
 135707601.969 7  25824297.936          42.000       -1988.105
 198394251.636 7  37753168.573          43.000       -1163.363
 198084806.331 6  37694293.684          40.000       -1165.721
 07  8 29 13 35 16.0010000  0  9G20G28G17G11G 4G23G 1S37S29
 111485349.375 8  21214959.950          50.000       -2233.527
 114018184.588 8  21696945.805          51.000       -2865.143
 112583741.144 8  21423973.748          50.000         591.092
 120958388.075 8  23017617.366          48.000       -3477.541
 122881459.959 8  23383565.543          48.000        1088.569
 128403482.77025  24434375.008          34.000        1502.740
 135709590.651 7  25824675.681          42.000       -1988.690
 198395414.407 7  37753389.720          43.000       -1162.403
 198085971.074 6  37694515.546          41.000       -1165.645
 07  8 29 13 35 17.0010000  0  9G20G28G17G11G 4G23G 1S37S29
 111487583.413 8  21215385.002          50.000       -2234.569
 114021050.326 8  21697490.984          51.000       -2866.005
 112583150.556 8  21423861.299          50.000         590.357
 120961866.091 8  23018278.956          48.000       -3478.271
 122880371.939 8  23383358.339          48.000        1087.647
 128401980.61625  24434091.686          33.000        1503.897
 135711579.889 7  25825053.582          42.000       -1989.256
 198396576.930 7  37753611.128          43.000       -1162.195
 198087135.790 6  37694736.955          40.000       -1164.344
 07  8 29 13 35 18.0010000  0  9G20G28G17G11G 4G23G 1S37S29
 111489817.991 8  21215810.125          50.000       -2234.844
 114023916.588 8  21698036.635          51.000       -2866.668
 112582560.200 8  21423749.181          49.000         590.224
 120965344.141 8  23018940.929          48.000       -3478.406
 122879284.090 8  23383151.153          48.000        1088.210
 128400478.51725  24433807.789          34.000        1503.788
 135713569.607 7  25825431.868          42.000       -1990.712
 198397739.349 7  37753832.431          43.000       -1163.106
 198088300.026 6  37694958.450          40.000       -1165.935
 07  8 29 13 35 19.0010000  0  9G20G28G17G11G 4G23G 1S37S29
 111492053.076 8  21216235.700          50.000       -2235.248
 114026783.313 8  21698581.797          50.000       -2867.081
 112581970.059 8  21423636.383          49.000         590.166
 120968822.184 8  23019602.694          48.000       -3477.922
 122878196.340 8  23382944.210          48.000        1087.831
 128398976.46725  24433523.733          34.000        1501.043
 135715559.776 7  25825810.206          42.000       -1990.988
 198398901.630 7  37754053.596          43.000       -1161.559
 198089464.367 6  37695179.998          41.000       -1164.420
 07  8 29 13 35 20.0010000  0  9G20G28G17G11G 4G23G 1S37S29
 111494288.794 8  21216661.032          50.000       -2235.623
 114029650.671 8  21699127.151          51.000       -2867.151
 112581380.281 8  21423523.637          49.000         589.998
 120972300.377 8  23020264.581          48.000       -3478.076
 122877108.860 8  23382737.006          48.000        1087.378
 128397474.62725  24433239.416          34.000        1500.393
 135717550.524 7  25826188.911          42.000       -1990.106
 198400063.690 7  37754274.865          43.000       -1162.022
 198090629.331 6  37695401.860          41.000       -1165.826
 07  8 29 13 35 21.0010000  0  9G20G28G17G11G 4G23G 1S37S29
 111496525.063 8  21217086.660          50.000       -2236.609
 114032518.536 8  21699672.522          51.000       -2868.229
 112580790.735 8  21423411.519          49.000         589.872
 120975778.630 8  23020926.573          48.000       -3477.781
 122876021.550 8  23382529.733          49.000        1087.467
 128395972.88025  24432955.066          34.000        1501.719
 135719541.756 7  25826567.440          42.000       -1991.549
 198401225.844 7  37754496.046          44.000       -1161.700
 198091794.228 6  37695623.704          41.000       -1165.158
 07  8 29 13 35 22.0010000  0  9G20G28G17G11G 4G23G 1S37S29
 111498761.806 8  21217512.253          50.000       -2236.428
 114035386.858 8  21700218.400          50.000       -2868.042
 112580201.371 8  21423299.157          49.000         589.599
 120979256.839 8  23021588.669          48.000       -3477.871
 122874934.285 8  23382322.895          48.000        1087.430
 128394471.17725  24432670.959          35.000        1503.740
 135721533.401 7  25826945.743          42.000       -1991.676
 198402388.296 7  37754717.245          43.000       -1161.642
 198092958.955 6  37695845.323          41.000       -1164.028
 07  8 29 13 35 23.0010000  0  9G20G28G17G11G 4G23G 1S37S29
 111500999.006 8  21217937.986          50.000       -2237.265
 114038255.615 8  21700764.156          50.000       -2868.435
 112579612.182 8  21423186.882          49.000         589.378
 120982735.021 8  23022250.311          48.000       -3477.833
 122873847.102 8  23382116.110          48.000        1087.305
 128392969.45825  24432386.468          34.000        1503.193
 135723525.460 6  25827324.273          41.000       -1991.937
 198403550.775 7  37754938.479          43.000       -1161.556
 198094123.720 6  37696066.923          41.000       -1163.786
 07  8 29 13 35 24.0010000  0  9G20G28G17G11G 4G23G 1S37S29
 111503236.790 8  21218363.509          50.000       -2238.048
 114041124.912 8  21701309.893          50.000       -2869.625
 112579023.269 8  21423074.991          49.000         589.067
 120986213.258 8  23022912.093          48.000       -3478.385
 122872760.079 8  23381909.185          48.000        1087.106
 128391467.84425  24432102.186          35.000        1500.335
 135725518.048 6  25827703.431          41.000       -1992.749
 198404713.039 7  37755159.713          43.000       -1161.516
 198095288.336 6  37696288.698          41.000       -1163.215
 07  8 29 13 35 25.0010000  0  9G20G28G17G11G 4G23G 1S37S29
 111505475.168 8  21218789.329          50.000       -2239.054
 114043994.793 8  21701856.155          50.000       -2870.112
 112578434.676 8  21422962.699          49.000         588.628
 120989691.610 8  23023573.875          48.000       -3478.244
 122871673.282 8  23381702.173          48.000        1086.648
 128389966.933 5  24431817.329          35.000        1501.217
 135727511.175 6  25828082.624          41.000       -1993.285
 198405875.430 7  37755380.894          43.000       -1162.661
 198096452.898 6  37696510.437          41.000       -1165.312
 07  8 29 13 35 26.0010000  0  9G20G28G17G11G 4G23G 1S37S29
 111507714.087 8  21219215.585          50.000       -2238.998
 114046865.191 8  21702402.451          50.000       -2870.492
 112577846.319 8  21422850.407          49.000         588.363
 120993170.006 8  23024235.727          48.000       -3478.462
 122870586.666 8  23381495.388          48.000        1086.355
 128388465.572 5  24431532.838          34.000        1501.503
 135729504.776 6  25828462.236          41.000       -1993.747
 198407037.408 7  37755602.163          43.000       -1162.145
 198097617.062 6  37696731.846          40.000       -1164.276
 07  8 29 13 35 27.0010000  0  9G20G28G17G11G 4G23G 1S37S29
 111509953.611 8  21219641.929          50.000       -2239.878
 114049736.174 8  21702948.590          50.000       -2871.326
 112577258.288 8  21422738.568          49.000         588.450
 120996648.507 8  23024897.544          48.000       -3478.345
 122869500.249 8  23381288.621          48.000        1086.620
 128386964.409 5  24431247.842          34.000        1503.447
 135731498.933 6  25828841.744          41.000       -1993.935
 198408199.507 7  37755823.275          43.000       -1161.695
 198098781.916 6  37696953.568          41.000       -1165.388
 07  8 29 13 35 28.0010000  0  9G20G28G17G11G 4G23G 1S37S29
 111512193.687 8  21220068.115          50.000       -2240.106
 114052607.680 8  21703495.271          50.000       -2871.560
 112576670.510 8  21422626.991          49.000         587.780
 121000127.052 8  23025559.640          48.000       -3478.436
 122868413.992 8  23381082.010          48.000        1086.106
 128385463.313 5  24430962.757          34.000        1501.684
 135733493.575 7  25829221.268          42.000       -1995.615
 198409361.606 7  37756044.422          43.000       -1161.894
 198099946.196 7  37697175.029          42.000       -1165.330
 07  8 29 13 35 29.0010000  0  9G20G28G17G11G 4G23G 1S37S29
 111514434.230 8  21220494.354          50.000       -2240.412
 114055479.627 8  21704041.863          51.000       -2872.396
 112576082.913 8  21422515.118          49.000         587.311
 121003605.586 8  23026221.667          48.000       -3478.031
 122867327.806 8  23380875.155          48.000        1085.595
 128383962.282 5  24430677.846          35.000        1500.124
 135735488.631 7  25829601.054          42.000       -1995.796
 198410523.788 7  37756265.533          44.000       -1162.207
 198101110.449 7  37697396.630          42.000       -1163.510
 07  8 29 13 35 30.0010000  0  9G20G28G17G11G 4G23G 1S37S29
 111516675.330 8  21220920.768          50.000       -2240.792
 114058352.113 8  21704588.526          51.000       -2872.276
 112575495.576 8  21422403.192          49.000         587.650
 121007084.165 8  23026883.361          48.000       -3478.191
 122866241.786 8  23380668.597          48.000        1086.124
 128382461.334 5  24430392.431          35.000        1501.099
 135737484.204 7  25829981.347          42.000       -1995.358
 198411685.843 7  37756486.575          44.000       -1161.677
 198102274.222 7  37697618.108          42.000       -1164.090
 07  8 29 13 35 31.0010000  0  9G20G28G17G11G 4G23G 1S37S29
 111518916.954 8  21221347.408          50.000       -2241.416
 114061225.084 8  21705135.119          51.000       -2873.013
 112574908.475 8  21422291.528          49.000         587.336
 121010562.776 8  23027545.265          49.000       -3478.130
 122865155.908 8  23380462.004          48.000        1086.258
 128380960.430 5  24430107.032          35.000        1498.888
 135739480.217 7  25830361.761          43.000       -1996.464
 198412847.843 7  37756707.722          44.000       -1160.971
 198103438.475 6  37697839.866          41.000       -1161.697
 07  8 29 13 35 32.0010000  0  9G20G28G17G11G 4G23G 1S37S29
 111521159.045 8  21221774.170          50.000       -2242.312
 114064098.507 8  21705682.009          51.000       -2873.417
 112574321.551 8  21422180.039          50.000         586.649
 121014041.354 8  23028207.274          48.000       -3478.575
 122864070.108 8  23380255.498          49.000        1085.907
 128379459.603 5  24429821.896          35.000        1501.644
 135741476.661 7  25830742.089          43.000       -1996.508
 198414009.584 7  37756928.624          44.000       -1161.687
 198104602.282 6  37698061.308          41.000       -1165.330
 07  8 29 13 35 33.0010000  0  9G20G28G17G11G 4G23G 1S37S29
 111523401.732 8  21222201.142          51.000       -2242.454
 114066972.486 8  21706228.986          51.000       -2874.093
 112573734.930 8  21422068.218          50.000         587.100
 121017520.031 8  23028869.213          48.000       -3478.533
 122862984.495 8  23380049.271          49.000        1086.049
 128377958.859 5  24429536.742          35.000        1500.427
 135743473.638 7  25831122.748          43.000       -1996.536
 198415171.022 7  37757149.527          44.000       -1160.918
 198105766.805 6  37698282.769          41.000       -1163.612
 07  8 29 13 35 34.0010000  0  9G20G28G17G11G 4G23G 1S37S29
 111525644.715 8  21222627.869          51.000       -2243.027
 114069846.746 8  21706775.840          51.000       -2874.577
 112573148.308 8  21421956.885          50.000         586.763
 121020998.494 8  23029531.344          48.000       -3478.404
 122861898.794 8  23379842.556          49.000        1086.367
 128376458.033 5  24429251.135          35.000        1501.541
 135745470.847 7  25831503.075          43.000       -1996.832
 198416332.295 7  37757370.516          44.000       -1161.654
 198106930.711 6  37698504.230          41.000       -1163.369
 07  8 29 13 35 35.0010000  0  9G20G28G17G11G 4G23G 1S37S29
 111527888.349 8  21223054.684          50.000       -2244.013
 114072721.623 8  21707322.905          51.000       -2875.342
 112572562.045 8  21421845.448          49.000         586.293
 121024477.127 8  23030193.284          48.000       -3478.188
 122860813.369 8  23379636.311          49.000        1085.417
 128374957.360 5  24428965.666          35.000        1498.973
 135747468.651 7  25831883.350          42.000       -1998.560
 198417493.650 7  37757591.488          43.000       -1161.606
 198108094.440 6  37698725.655          41.000       -1164.400
 07  8 29 13 35 36.0010000  0  9G20G28G17G11G 4G23G 1S37S29
 111530132.462 8  21223481.865          50.000       -2244.132
 114075596.958 8  21707870.126          51.000       -2875.844
 112571975.969 8  21421733.941          49.000         586.047
 121027955.738 8  23030855.362          48.000       -3478.156
 122859728.048 8  23379429.683          49.000        1085.909
 128373456.737 5  24428679.867          35.000        1501.363
 135749466.879 7  25832263.276          42.000       -1997.864
 198418655.144 7  37757812.670          44.000       -1159.861
 198109257.944 7  37698947.291          42.000       -1163.092
 07  8 29 13 35 37.0010000  0  9G20G28G17G11G 4G23G 1S37S29
 111532377.022 8  21223908.906          50.000       -2244.717
 114078472.716 8  21708417.330          50.000       -2876.028
 112571390.053 8  21421622.521          49.000         586.133
 121031434.289 8  23031517.389          48.000       -3478.617
 122858642.788 8  23379223.387          49.000        1085.070
 128371956.125 5  24428394.503          35.000        1500.081
 135751465.510 7  25832643.045          42.000       -1998.754
 198419816.554 7  37758033.432          43.000       -1161.983
 198110421.326 6  37699168.734          41.000       -1164.894
 07  8 29 13 35 38.0010000  0  9G20G28G17G11G 4G23G 1S37S29
 111534622.104 8  21224336.367          50.000       -2244.994
 114081348.981 8  21708964.725          50.000       -2876.305
 112570804.368 8  21421511.224          49.000         585.983
 121034912.878 8  23032179.345          48.000       -3478.433
 122857557.637 8  23379016.898          49.000        1085.414
 128370455.579 5  24428108.686          35.000        1501.510
 135753464.614 7  25833023.460          42.000       -1998.465
 198420977.904 7  37758254.545          44.000       -1160.441
 198111584.626 6  37699389.916          41.000       -1162.100
 07  8 29 13 35 39.0010000  0  9G20G28G17G11G 4G23G 1S37S29
 111536867.644 8  21224763.408          50.000       -2246.056
 114084225.670 8  21709511.877          50.000       -2876.814
 112570218.854 8  21421399.717          49.000         585.298
 121038391.418 8  23032841.302          48.000       -3478.476
 122856472.575 8  23378810.672          49.000        1085.213
 128368955.044 5  24427823.165          35.000        1499.746
 135755464.103 6  25833404.083          41.000       -1999.726
 198422138.984 7  37758475.499          44.000       -1162.127
 198112747.568 6  37699611.150          40.000       -1163.193
 07  8 29 13 35 40.0010000  0  9G20G28G17G11G 4G23G 1S37S29
 111539113.790 8  21225191.008          50.000       -2245.992
 114087102.944 8  21710059.360          50.000       -2877.331
 112569633.659 8  21421288.297          49.000         585.108
 121041870.073 7  23033503.206          47.000       -3478.132
 122855387.717 8  23378604.393          49.000        1085.171
 128367454.658 5  24427537.244          35.000        1500.214
 135757464.149 6  25833784.306          41.000       -2000.146
 198423300.048 7  37758696.314          43.000       -1161.262
 198113910.752 6  37699832.576          40.000       -1161.739
 07  8 29 13 35 41.0010000  0  9G20G28G17G11G 4G23G 1S37S29
 111541360.420 8  21225618.678          50.000       -2246.831
 114089980.691 8  21710607.296          50.000       -2878.188
 112569048.657 8  21421176.650          49.000         584.822
 121045348.717 7  23034164.988          47.000       -3478.370
 122854302.942 8  23378397.939          49.000        1085.053
 128365954.327 5  24427251.531          35.000        1500.365
 135759464.624 6  25834164.947          41.000       -2001.035
 198424460.918 7  37758917.339          43.000       -1160.597
 198115073.535 6  37700054.001          41.000       -1163.047
 07  8 29 13 35 42.0010000  0 10G20G28G17G11G 4G23G 1S37S29G13
 111543607.678 8  21226046.313          50.000       -2247.552
 114092859.033 8  21711155.111          50.000       -2878.590
 112568464.002 8  21421065.335          49.000         584.498
 121048827.488 8  23034826.805          48.000       -3478.881
 122853218.414 8  23378191.642          49.000        1084.448
 128364454.189 5  24426965.714          35.000        1499.273
 135761465.689 6  25834546.461          41.000       -2001.059
 198425621.525 7  37759138.188          43.000       -1161.882
 198116236.350 6  37700275.235          41.000       -1163.105
                  25568828.671          25.000        1962.519
 07  8 29 13 35 43.0010000  0 10G20G28G17G11G 4G23G 1S37S29G13
 111545855.510 8  21226474.070          51.000       -2247.984
 114095737.909 8  21711702.925          50.000       -2878.705
 112567879.617 8  21420954.020          49.000         584.469
 121052306.336 8  23035489.006          48.000       -3478.636
 122852134.068 8  23377985.555          49.000        1084.440
 128362954.167 6  24426680.142          36.000        1500.967
 135763467.261 7  25834927.731          42.000       -2001.858
 198426782.230 7  37759359.126          43.000       -1160.424
 198117399.374 6  37700496.573          41.000       -1165.192
                  25568454.678          25.000        1964.966
 07  8 29 13 35 44.0010000  0 10G20G28G17G11G 4G23G 1S37S29G13
 111548103.947 8  21226901.879          51.000       -2249.048
 114098617.374 8  21712250.966          51.000       -2879.984
 112567295.557 8  21420843.037          49.000         584.051
 121055785.289 8  23036151.032          48.000       -3479.024
 122851049.970 8  23377779.259          49.000        1084.279
 128361454.326 6  24426394.463          36.000        1498.938
 135765469.373 7  25835309.140          42.000       -2002.498
 198427943.024 7  37759580.080          43.000       -1160.959
 198118562.514 6  37700717.791          41.000       -1161.267
                  25568081.855          25.000        1966.267
 07  8 29 13 35 45.0010000  0 10G20G28G17G11G 4G23G 1S37S29G13
 111550352.841 8  21227330.020          51.000       -2249.021
 114101497.275 8  21712798.868          51.000       -2879.723
 112566711.657 8  21420731.757          49.000         584.079
 121059264.209 8  23036813.093          48.000       -3478.879
 122849965.905 8  23377572.980          49.000        1084.202
 128359954.491 5  24426108.926          35.000        1501.331
 135767471.903 7  25835690.218          42.000       -2002.540
 198429103.586 7  37759800.896          44.000       -1159.859
 198119725.506 6  37700939.408          41.000       -1162.303
                  25567708.666          25.000        1969.231
 07  8 29 13 35 46.0010000  0 10G20G28G17G11G 4G23G 1S37S29G13
 111552602.281 8  21227758.021          51.000       -2249.184
 114104377.688 8  21713347.014          51.000       -2880.328
 112566128.021 8  21420620.669          49.000         584.058
 121062743.173 8  23037475.224          48.000       -3478.491
 122848881.989 8  23377366.910          49.000        1084.072
 128358454.710 5  24425823.283          35.000        1499.238
 135769474.907 7  25836071.627          42.000       -2002.941
 198430264.137 7  37760021.868          44.000       -1160.102
 198120888.508 6  37701160.607          41.000       -1163.224
                  25567335.629          23.000        1960.977
 07  8 29 13 35 47.0010000  0 10G20G28G17G11G 4G23G 1S37S29G13
 111554852.222 8  21228186.459          51.000       -2250.154
 114107258.591 8  21713895.370          51.000       -2880.993
 112565544.600 8  21420509.877          49.000         583.571
 121066222.142 8  23038137.094          48.000       -3478.907
 122847798.215 8  23377160.666          49.000        1083.808
 128356955.057 5  24425537.554          35.000        1501.233
 135771478.368 7  25836452.897          42.000       -2003.561
 198431424.639 7  37760242.578          44.000       -1160.487
 198122051.406 7  37701381.894          42.000       -1162.277
                  25566962.423          23.000        1965.589
 07  8 29 13 35 48.0010000  0  9G20G28G17G11G 4G23G 1S37S29
 111557102.615 8  21228614.617          51.000       -2250.603
 114110139.919 8  21714443.586          51.000       -2881.308
 112564961.333 8  21420398.946          49.000         583.611
 121069701.067 8  23038799.068          48.000       -3478.881
 122846714.481 8  23376954.806          49.000        1084.164
 128355455.354 5  24425251.946          35.000        1500.913
 135773482.225 7  25836833.957          42.000       -2003.639
 198432584.986 7  37760463.289          44.000       -1159.818
 198123214.128 6  37701603.214          41.000       -1162.856
 07  8 29 13 35 49.0010000  0  9G20G28G17G11G 4G23G 1S37S29
 111559353.608 8  21229042.304          49.000       -2251.146
 114113021.962 8  21714992.116          51.000       -2881.823
 112564378.155 8  21420288.887          50.000         583.522
 121073180.130 8  23039461.530          49.000       -3478.911
 122845630.813 8  23376748.143          48.000        1083.635
 128353956.207 6  24424966.914          37.000        1500.491
 135775486.326 6  25837213.866          37.000       -2004.164
 198433745.477 7  37760684.051          43.000       -1160.081
 198124377.273 6  37701824.465          41.000       -1164.380
 07  8 29 13 35 50.0010000  0  9G20G28G17G11G 4G23G 1S37S29
 111561605.030 8  21229470.847          50.000       -2251.235
 114115904.513 8  21715540.977          51.000       -2882.619
 112563794.723 8  21420178.602          50.000         583.784
 121076659.083 8  23040124.150          49.000       -3479.052
 122844546.852 8  23376541.969          49.000        1084.412
 128352457.578 6  24424682.160          37.000        1498.035
 135777490.635 7  25837595.694          42.000       -2004.768
 198434906.193 7  37760904.988          43.000       -1161.585
 198125540.838 7  37702046.084          42.000       -1161.446
 07  8 29 13 35 51.0010000  0 10G20G28G17G11G 4G23G 1S37S29G13
 111563857.037 8  21229898.988          49.000       -2251.976
 114118788.109 8  21716089.315          49.000       -2884.205
 112563210.823 8  21420068.195          51.000         584.591
 121080138.250 8  23040786.124          49.000       -3479.332
 122843462.451 8  23376335.794          49.000        1085.114
 128350960.376 6  24424397.774          40.000        1497.751
 135779494.983 6  25837976.073          39.000       -2004.783
 198436068.176 7  37761126.082          45.000       -1162.767
 198126705.168 7  37702267.701          42.000       -1163.627
                  25565507.632          24.000        1960.859
 07  8 29 13 35 52.0010000  0 10G20G28G17G11G 4G23G 1S37S29G13
 111566109.594 8  21230327.495          50.000       -2251.968
 114121672.858 8  21716638.473          50.000       -2885.446
 112562626.245 8  21419957.317          51.000         585.617
 121083617.352 8  23041448.116          48.000       -3478.520
 122842377.654 8  23376129.673          50.000        1085.897
 128349464.953 6  24424113.631          41.000        1495.851
 135781498.61537  25838357.414          44.000       -2001.579
 198437231.603 7  37761347.490          45.000       -1162.694
 198127870.539 7  37702489.475          43.000       -1165.476
                  25565139.173          27.000        1968.802
 07  8 29 13 35 53.0010000  0  9G20G28G17G11G 4G23G 1S37S29
 111568362.521 8  21230755.845          50.000       -2252.764
 114124558.542 8  21717187.596          51.000       -2885.878
 112562041.755 8  21419846.211          50.000         584.634
 121087096.260 8  23042109.898          49.000       -3478.719
 122841293.209 8  23375923.166          49.000        1084.371
 128347969.800 7  24423830.082          44.000        1494.679
 135783502.30727  25838737.880          42.000       -2004.897
 198438395.289 7  37761568.881          45.000       -1163.158
 198129036.356 7  37702711.232          43.000       -1166.291
 07  8 29 13 35 54.0010000  0  9G20G28G17G11G 4G23G 1S37S29
 111570615.717 8  21231184.283          49.000       -2253.361
 114127445.185 8  21717736.998          50.000       -2887.324
 112561457.552 8  21419735.402          50.000         584.311
 121090574.684 8  23042771.663          48.000       -3477.746
 122840209.408 8  23375716.678          48.000        1084.018
 128346474.636 8  24423546.447          49.000        1495.810
 135785505.95627  25839117.929          42.000       -2002.788
 198439558.759 7  37761790.219          44.000       -1163.726
 198130202.272 7  37702933.059          44.000       -1165.836
 07  8 29 13 35 55.0010000  0  9G20G28G17G11G 4G23G 1S37S29
 111572868.842 8  21231612.948          49.000       -2252.503
 114130332.517 8  21718285.964          50.000       -2887.386
 112560873.547 8  21419623.947          50.000         584.558
 121094052.128 8  23043433.445          49.000       -3476.883
 122839126.345 8  23375510.364          49.000        1083.731
 128344978.712 8  24423262.113          48.000        1496.429
 135787509.13037  25839499.199          42.000       -2002.158
 198440721.955 7  37762011.592          44.000       -1164.612
 198131368.249 7  37703154.957          42.000       -1165.244
 07  8 29 13 35 56.0010000  0  9G20G28G17G11G 4G23G 1S37S29
 111575122.127 8  21232041.926          49.000       -2253.335
 114133220.487 8  21718835.384          51.000       -2887.374
 112560290.203 8  21419512.719          50.000         582.610
 121097529.053 8  23044094.686          48.000       -3477.325
 122838044.252 8  23375304.660          49.000        1081.768
 128343481.950 8  24422977.501          49.000        1497.332
 135789512.55326  25839880.189          41.000       -2003.059
 198441885.089 7  37762232.984          44.000       -1162.503
 198132533.780 7  37703376.609          43.000       -1165.494
 07  8 29 13 35 57.0010000  0  9G20G28G17G11G 4G23G 1S37S29
 111577376.464 8  21232470.870          49.000       -2253.956
 114136106.943 8  21719384.788          50.000       -2885.904
 112559708.215 8  21419401.962          50.000         581.876
 121101007.070 7  23044755.438          47.000       -3477.228
 122836961.840 8  23375097.962          48.000        1082.851
 128341983.349 8  24422692.452          49.000        1499.248
 135791518.74026  25840260.324          41.000       -2006.340
 198443045.965 7  37762453.887          44.000       -1159.420
 198133696.761 7  37703597.949          43.000       -1161.140
 07  8 29 13 35 58.0010000  0  9G20G28G17G11G 4G23G 1S37S29
 111579632.343 8  21232899.882          49.000       -2257.401
 114138992.496 8  21719933.301          50.000       -2883.305
 112559127.432 8  21419291.030          50.000         579.846
 121104486.805 8  23045418.248          48.000       -3481.625
 122835878.904 8  23374891.893          48.000        1084.099
 128340484.191 8  24422407.717          49.000        1500.316
 135793528.16727  25840641.259          42.000       -2013.975
 198444205.393 7  37762674.599          44.000       -1157.150
 198134858.094 7  37703818.922          44.000       -1159.661
 07  8 29 13 35 59.0010000  0  9G20G28G17G11G 4G23G 1S37S29
 111581891.538 8  21233330.011          50.000       -2260.205
 114141873.928 8  21720481.815          50.000       -2881.245
 112558547.922 8  21419181.234          50.000         580.428
 121107971.707 8  23046081.512          49.000       -3485.906
 122834792.091 7  23374685.529          47.000        1088.761
 128338985.132 8  24422122.073          49.000        1496.689
 135795545.17927  25841025.388          42.000       -2020.750
 198445361.851 7  37762894.629          44.000       -1155.980
 198136016.106 7  37704039.320          42.000       -1156.371
 07  8 29 13 36  0.0010000  0  9G20G28G17G11G 4G23G 1S37S29
 111584153.416 8  21233760.542          49.000       -2263.724
 114144754.324 8  21721029.892          49.000       -2879.170
 112557967.773 8  21419071.036          50.000         581.365
 121111460.354 8  23046745.037          49.000       -3491.040
 122833701.619 7  23374477.506          46.000        1091.854
 128337489.985 8  24421837.458          48.000        1492.227
 135797566.03027  25841410.270          43.000       -2020.773
 198446519.373 7  37763115.094          44.000       -1159.394
 198137174.624 7  37704259.610          43.000       -1158.743
 07  8 29 13 36  1.0010000  0  9G20G28G17G11G 4G23G 1S37S29
 111586418.262 8  21234191.177          50.000       -2265.892
 114147633.498 8  21721577.969          50.000       -2878.304
 112557386.071 8  21418960.332          50.000         582.035
 121114953.430 8  23047409.663          49.000       -3493.210
 122832606.234 7  23374268.559          47.000        1096.866
 128335999.844 8  24421553.629          48.000        1488.250
 135799590.75427  25841795.882          43.000       -2027.977
 198447678.250 7  37763335.490          43.000       -1159.320
 198138334.239 7  37704480.180          43.000       -1160.340
 07  8 29 13 36  2.0010000  0  9G20G28G17G11G 4G23G 1S37S29
 111588684.740 8  21234622.756          50.000       -2265.956
 114150512.726 8  21722125.713          50.000       -2878.907
 112556803.884 8  21418849.471          51.000         582.340
 121118448.247 8  23048074.690          50.000       -3494.333
 122831508.927 8  23374059.209          48.000        1097.053
 128334512.045 8  24421270.360          49.000        1488.155
 135801617.06436  25842181.882          40.000       -2026.398
 198448838.228 7  37763556.217          44.000       -1161.812
 198139494.135 7  37704700.857          42.000       -1158.251
 07  8 29 13 36  3.0010000  0 10G20G28G17G11G 4G23G 1S37S29G13
 111590951.982 8  21235054.212          50.000       -2267.679
 114153391.459 8  21722673.913          50.000       -2877.562
 112556221.895 8  21418738.819          51.000         582.685
 121121943.924 8  23048739.525          50.000       -3495.990
 122830410.942 7  23373849.719          47.000        1098.096
 128333024.510 8  24420987.352          49.000        1487.907
 135803645.10327  25842567.861          43.000       -2031.250
 198449997.545 7  37763776.754          44.000       -1158.935
 198140653.072 7  37704921.323          43.000       -1158.108
 134323826.14236  25560974.297          37.000        1972.599
 07  8 29 13 36  4.0010000  0 10G20G28G17G11G 4G23G 1S37S29G13
 111593219.897 8  21235485.774          50.000       -2267.342
 114156269.278 8  21723221.430          50.000       -2877.917
 112555640.055 8  21418627.975          50.000         582.522
 121125440.382 8  23049405.077          50.000       -3496.168
 122829312.208 7  23373640.596          47.000        1099.154
 128331536.573 8  24420703.978          48.000        1488.513
 135805675.12627  25842955.030          45.000       -2029.903
 198451155.116 7  37763997.203          44.000       -1157.813
 198141810.897 7  37705141.615          42.000       -1157.498
 134321859.07727  25560596.934          44.000        1967.587
 07  8 29 13 36  5.0010000  0 10G20G28G17G11G 4G23G 1S37S29G13
 111595487.173 8  21235917.300          50.000       -2266.791
 114159148.518 8  21723769.227          50.000       -2879.635
 112555059.190 8  21418517.427          51.000         580.176
 121128934.748 8  23050070.106          50.000       -3492.658
 122828215.832 7  23373432.134          47.000        1094.043
 128330046.565 7  24420420.029          47.000        1490.836
                  25843341.065          33.000       -2026.477
 198452311.817 7  37764217.478          44.000       -1155.172
 198142968.451 7  37705361.924          42.000       -1157.042
 134319890.57427  25560221.825          43.000        1969.984
 07  8 29 13 36  6.0010000  0 10G20G28G17G11G 4G23G 1S37S29G13
 111597752.703 8  21236348.252          50.000       -2264.625
 114162030.726 8  21724317.878          50.000       -2883.030
 112554479.074 8  21418406.619          51.000         580.576
 121132425.031 8  23050734.507          50.000       -3488.008
 122827123.681 7  23373224.632          47.000        1089.958
 128328553.791 8  24420136.377          48.000        1494.254
                  25843725.844          36.000       -2021.899
 198453468.507 7  37764437.664          44.000       -1156.867
 198144126.138 7  37705582.075          44.000       -1159.318
 134317920.86026  25559846.696          40.000        1967.224
 07  8 29 13 36  7.0010000  0 10G20G28G17G11G 4G23G 1S37S29G13
 111600016.724 8  21236778.836          50.000       -2263.401
 114164916.031 8  21724867.175          50.000       -2886.094
 112553899.773 8  21418296.542          51.000         579.871
 121135911.519 8  23051397.494          49.000       -3486.106
 122826035.562 7  23373017.322          47.000        1087.888
 128327058.837 8  24419852.027          48.000        1496.333
 135811712.54736  25844109.646          37.000       -2017.406
 198454625.527 7  37764657.851          45.000       -1157.117
 198145285.081 7  37705802.594          44.000       -1158.516
                  25559474.115          33.000        1963.475
 07  8 29 13 36  8.0010000  0 10G20G28G17G11G 4G23G 1S37S29G13
 111602280.645 8  21237209.769          50.000       -2263.085
 114167802.702 8  21725416.525          50.000       -2885.205
 112553320.919 8  21418186.606          51.000         578.874
 121139396.741 8  23052060.533          49.000       -3484.394
 122824948.775 7  23372810.293          47.000        1087.529
 128325563.083 8  24419567.832          49.000        1496.317
 135813732.67236  25844490.601          40.000       -2017.308
 198455782.493 7  37764878.038          44.000       -1155.302
 198146443.930 7  37706023.130          44.000       -1157.333
 134313978.84535  25559100.527          35.000        1971.675
 07  8 29 13 36  9.0010000  0 10G20G28G17G11G 4G23G 1S37S29G13
 111604544.814 8  21237640.458          50.000       -2264.703
 114170689.394 8  21725965.648          50.000       -2886.595
 112552742.246 8  21418076.250          51.000         578.860
 121142881.665 8  23052723.798          50.000       -3484.266
 122823862.017 7  23372603.682          47.000        1087.203
                  24419283.392          42.000        1491.400
 135815753.11536  25844875.778          40.000       -2022.903
 198456938.758 7  37765098.103          45.000       -1155.241
 198147602.052 7  37706243.352          44.000       -1157.444
 134312007.07027  25558724.475          43.000        1973.487
 07  8 29 13 36 10.0010000  0 10G20G28G17G11G 4G23G 1S37S29G13
 111606809.948 8  21238071.861          50.000       -2266.879
 114173575.459 8  21726514.633          50.000       -2884.693
 112552164.521 8  21417966.540          51.000         575.792
 121146367.448 8  23053386.993          49.000       -3486.562
 122822775.016 7  23372396.618          46.000        1088.180
 128322705.39928  24418998.921          48.000        1497.147
 135817775.49836  25845261.846          41.000       -2024.327
 198458094.027 7  37765317.906          44.000       -1155.051
 198148759.370 7  37706463.539          44.000       -1154.620
 134310033.14727  25558348.441          43.000        1976.266
 07  8 29 13 36 11.0010000  0 10G20G28G17G11G 4G23G 1S37S29G13
 111609076.182 8  21238503.266          50.000       -2265.423
 114176459.227 8  21727063.199          50.000       -2882.484
 112551589.539 8  21417857.056          50.000         574.282
 121149854.223 8  23054050.608          49.000       -3485.022
 122821688.736 8  23372190.583          48.000        1085.208
 128321203.86227  24418713.281          47.000        1503.791
 135819802.04536  25845647.913          41.000       -2028.374
 198459245.126 7  37765536.944          44.000       -1146.687
 198149912.540 7  37706682.855          44.000       -1150.315
 134308053.43527  25557971.713          42.000        1986.414
 07  8 29 13 36 12.0010000  0 10G20G28G17G11G 4G23G 1S37S29G13
 111611340.869 8  21238934.165          50.000       -2262.906
 114179342.471 8  21727611.955          50.000       -2884.164
 112551019.217 8  21417748.514          50.000         568.049
 121153337.461 8  23054714.330          50.000       -3478.025
 122820608.560 8  23371986.062          49.000        1074.750
 128319692.78427  24418425.567          45.000        1517.622
 135821829.08736  25846034.174          40.000       -2028.187
 198460389.846 7  37765754.707          44.000       -1142.933
 198151059.733 7  37706901.177          43.000       -1144.205
 134306063.53736  25557592.157          40.000        1996.248
 07  8 29 13 36 13.0010000  0 10G20G28G17G11G 4G23G 1S37S29G13
 111613603.397 8  21239364.732          49.000       -2262.842
 114182227.572 8  21728161.724          50.000       -2884.738
 112550453.417 8  21417640.687          50.000         564.392
 121156815.328 8  23055376.897          49.000       -3476.714
 122819536.316 8  23371782.294          49.000        1069.802
 128318172.48528  24418134.883          48.000        1523.229
 135823853.89336  25846420.821          38.000       -2021.439
 198461529.938 7  37765971.633          44.000       -1138.115
 198152203.495 7  37707118.591          43.000       -1140.312
 134304065.67427  25557211.116          42.000        2003.028
 07  8 29 13 36 14.0010000  0 10G20G28G17G11G 4G23G 1S37S29G13
 111615865.572 8  21239795.404          49.000       -2261.601
 114185112.959 8  21728710.638          50.000       -2886.200
 112549889.111 8  21417533.334          51.000         563.953
 121160291.725 8  23056038.470          49.000       -3476.676
 122818466.160 8  23371578.562          48.000        1068.597
 128316649.05128  24417844.285          48.000        1524.841
 135825878.66736  25846806.644          41.000       -2024.454
 198462668.137 7  37766188.120          43.000       -1139.048
 198153344.909 7  37707335.951          43.000       -1141.483
 134302064.35227  25556829.444          42.000        1999.280
 07  8 29 13 36 15.0010000  0 10G20G28G17G11G 4G23G 1S37S29G13
 111618128.359 8  21240225.865          49.000       -2262.832
 114187998.946 8  21729259.517          50.000       -2884.674
 112549326.236 8  21417426.223          50.000         561.852
 121163767.990 8  23056700.322          48.000       -3476.455
 122817397.491 8  23371374.953          48.000        1068.077
 128315124.34628  24417553.949          48.000        1526.363
 135827904.29436  25847192.608          39.000       -2022.731
 198463805.646 7  37766404.591          44.000       -1135.461
 198154485.696 7  37707552.857          42.000       -1140.199
 134300061.60927  25556448.177          44.000        2006.665
 07  8 29 13 36 16.0010000  0 10G20G28G17G11G 4G23G 1S37S29G13
 111620391.460 8  21240656.641          50.000       -2262.734
 114190884.218 8  21729808.519          49.000       -2885.015
 112548766.083 8  21417319.479          51.000         559.675
 121167243.759 8  23057361.825          49.000       -3476.056
 122816331.296 8  23371172.110          48.000        1064.844
 128313595.42028  24417262.514          48.000        1530.165
                  25847578.848          37.000       -2032.032
 198464939.823 7  37766620.469          43.000       -1131.208
 198155623.123 7  37707769.241          43.000       -1136.794
 134298053.57227  25556065.599          44.000        2010.092
 07  8 29 13 36 17.0010000  0 10G20G28G17G11G 4G23G 1S37S29G13
 111622655.194 8  21241087.417          50.000       -2264.175
 114193768.949 8  21730357.450          50.000       -2884.155
 112548208.430 8  21417213.363          50.000         556.416
 121170719.511 8  23058023.380          49.000       -3475.594
 122815267.044 8  23370969.443          48.000        1063.293
 128312063.05828  24416970.782          48.000        1531.808
 135831969.15436  25847964.410          36.000       -2032.386
 198466071.212 7  37766835.770          44.000       -1130.602
 198156757.807 7  37707985.050          43.000       -1132.971
 134296041.25027  25555682.377          45.000        2014.012
 07  8 29 13 36 18.0010000  0 10G20G28G17G11G 4G23G 1S37S29G13
 111624919.572 8  21241518.263          50.000       -2264.448
 114196653.207 8  21730906.521          50.000       -2884.308
 112547652.997 8  21417107.719          51.000         554.806
 121174195.291 8  23058684.884          49.000       -3474.238
 122814204.407 8  23370767.334          48.000        1061.186
 128310527.76538  24416678.843          48.000        1538.232
                  25848351.655          28.000       -2013.894
 198467200.278 7  37767050.688          43.000       -1128.377
 198157890.078 7  37708200.526          43.000       -1129.332
 134294024.93427  25555298.386          44.000        2016.433
 07  8 29 13 36 19.0010000  0 10G20G28G17G11G 4G23G 1S37S29G13
 111627184.237 8  21241949.265          49.000       -2265.482
 114199537.790 8  21731455.209          50.000       -2884.168
 112547098.545 8  21417002.093          50.000         554.336
 121177670.559 8  23059345.915          50.000       -3475.881
 122813142.861 8  23370565.435          48.000        1062.121
 128308990.95727  24416386.411          47.000        1536.201
                  25848736.338          34.000       -2032.541
 198468328.346 7  37767265.378          43.000       -1127.149
 198159021.837 7  37708415.930          43.000       -1133.964
 134292007.421 7  25554914.393          42.000        2016.347
 07  8 29 13 36 20.0010000  0 10G20G28G17G11G 4G23G 1S37S29G13
 111629449.822 8  21242380.495          49.000       -2265.850
 114202423.007 8  21732004.192          50.000       -2884.357
 112546544.864 8  21416896.833          50.000         552.602
 121181146.283 8  23060006.894          49.000       -3476.208
 122812081.914 8  23370363.344          49.000        1061.031
 128307454.34238  24416093.911          48.000        1538.726
                  25849125.788          35.000       -2044.464
 198469456.298 7  37767479.945          43.000       -1129.460
 198160153.386 7  37708631.284          42.000       -1131.281
 134289989.155 7  25554530.560          43.000        2019.850
 07  8 29 13 36 21.0010000  0 10G20G28G17G11G 4G23G 1S37S29G13
 111631715.738 8  21242811.864          49.000       -2265.879
 114205307.639 8  21732553.333          50.000       -2884.580
 112545992.500 8  21416791.852          51.000         552.289
 121184621.843 8  23060668.171          50.000       -3475.101
 122811021.36137  23370161.845          47.000        1058.404
 128305915.39738  24415801.045          48.000        1540.131
 135840127.86836  25849516.858          39.000       -2060.925
 198470581.959 7  37767694.253          43.000       -1125.058
 198161283.448 7  37708846.377          42.000       -1128.630
 134287967.816 7  25554146.011          45.000        2023.298
 07  8 29 13 36 22.0010000  0 10G20G28G17G11G 4G23G 1S37S29G13
 111633982.193 8  21243243.111          49.000       -2266.217
 114208191.093 8  21733101.899          50.000       -2882.987
 112545441.375 8  21416686.906          51.000         550.600
 121188097.876 8  23061329.988          50.000       -3474.500
 122809961.72528  23369960.138          49.000        1059.050
 128304374.46327  24415507.639          47.000        1544.284
 135842178.76337  25849907.572          43.000       -2051.435
 198471704.998 7  37767908.055          44.000       -1121.336
 198162410.883 6  37709060.858          41.000       -1127.267
 134285943.408 7  25553760.641          46.000        2025.705
 07  8 29 13 36 23.0010000  0 10G20G28G17G11G 4G23G 1S37S29G13
 111636249.419 8  21243674.569          49.000       -2264.094
 114211074.265 8  21733650.988          50.000       -2881.693
 112544891.819 8  21416582.326          51.000         549.644
 121191574.141 8  23061991.647          49.000       -3475.026
 122808903.05428  23369758.710          49.000        1058.969
 128302831.75128  24415214.179          48.000        1545.688
 135844231.86036  25850298.526          39.000       -2054.918
 198472826.406 7  37768121.576          44.000       -1119.951
 198163536.846 7  37709274.973          43.000       -1123.062
 134283916.488 7  25553374.818          45.000        2028.686
 07  8 29 13 36 24.0010000  0 10G20G28G17G11G 4G23G 1S37S29G13
 111638517.037 8  21244105.831          50.000       -2269.082
 114213957.218 8  21734199.483          50.000       -2882.635
 112544343.267 8  21416477.816          51.000         547.736
 121195050.428 8  23062653.255          50.000       -3475.643
 122807845.23728  23369557.648          48.000        1055.752
 128301287.47928  24414920.125          48.000        1545.681
                  25850686.920          36.000       -2041.793
 198473946.239 7  37768334.608          44.000       -1121.007
 198164661.273 7  37709488.721          43.000       -1122.697
 134281887.464 7  25552988.593          45.000        2030.844
 07  8 29 13 36 25.0010000  0 10G20G28G17G11G 4G23G 1S37S29G13
 111640785.128 8  21244537.602          50.000       -2268.659
 114216840.391 8  21734748.013          50.000       -2882.990
 112543795.728 8  21416373.307          51.000         547.426
 121198526.472 8  23063314.461          49.000       -3475.632
 122806788.24028  23369356.167          48.000        1055.956
 128299742.03427  24414626.229          47.000        1547.155
                  25851073.024          33.000       -2040.948
 198475064.893 7  37768547.432          44.000       -1117.795
 198165785.183 7  37709702.643          42.000       -1123.755
 134279856.832 7  25552602.176          44.000        2031.898
 07  8 29 13 36 26.0010000  0 10G20G28G17G11G 4G23G 1S37S29G13
 111643053.726 8  21244969.233          50.000       -2269.426
 114219723.960 8  21735296.944          49.000       -2883.760
 112543249.389 8  21416269.599          51.000         545.615
 121202002.400 8  23063975.946          50.000       -3476.288
 122805732.43928  23369155.472          48.000        1055.526
 128298195.28328  24414332.141          48.000        1548.387
 135850346.81836  25851461.500          37.000       -2041.764
 198476182.638 7  37768760.289          44.000       -1118.817
 198166907.224 6  37709916.095          41.000       -1121.320
 134277824.387 7  25552215.497          45.000        2033.846
 07  8 29 13 36 27.0010000  0 10G20G28G17G11G 4G23G 1S37S29G13
 111645323.200 8  21245401.213          50.000       -2269.673
 114222607.58438  21735845.596          50.000       -2883.534
 112542704.649 8  21416166.084          51.000         544.396
 121205478.505 8  23064637.379          49.000       -3476.067
 122804678.05337  23368955.057          42.000        1055.522
 128296647.20527  24414037.669          47.000        1548.020
 135852391.51536  25851846.696          40.000       -2042.943
 198477299.541 7  37768972.747          43.000       -1114.940
 198168028.159 7  37710129.372          42.000       -1120.472
 134275790.092 7  25551828.487          45.000        2036.456
 07  8 29 13 36 28.0010000  0 10G20G28G17G11G 4G23G 1S37S29G13
 111647593.439 8  21245832.879          50.000       -2270.322
 114225491.66028  21736394.440          50.000       -2884.130
 112542161.593 8  21416062.813          51.000         543.167
 121208954.693 8  23065299.075          49.000       -3474.680
 122803624.91827  23368754.709          47.000        1051.970
 128295097.45828  24413742.726          48.000        1550.434
                  25852235.451          31.000       -2044.829
 198478415.215 7  37769185.186          44.000       -1115.133
 198169148.185 7  37710342.579          42.000       -1118.655
 134273753.471 7  25551440.727          43.000        2038.622
 07  8 29 13 36 29.0010000  0 10G20G28G17G11G 4G23G 1S37S29G13
 111649864.797 8  21246265.085          49.000       -2272.301
 114228375.29028  21736942.954          50.000       -2883.039
 112541620.438 8  21415959.821          51.000         540.486
 121212431.492 8  23065960.751          50.000       -3476.682
 122802572.75238  23368554.398          48.000        1052.696
 128293545.84428  24413447.417          48.000        1553.087
 135856453.04536  25852623.437          39.000       -2049.955
 198479528.983 7  37769397.329          43.000       -1112.998
 198170266.795 7  37710555.542          43.000       -1117.557
 134271713.954 7  25551052.914          42.000        2041.754
 07  8 29 13 36 30.0010000  0 10G20G28G17G11G 4G23G 1S37S29G13
 111652137.686 8  21246697.676          50.000       -2273.478
 114231259.62028  21737491.972          50.000       -2884.690
 112541080.738 8  21415857.126          51.000         539.107
 121215909.156 8  23066622.585          50.000       -3477.545
 122801521.22028  23368354.052          49.000        1051.990
 128291994.00428  24413152.071          48.000        1551.048
 135858502.83826  25853012.193          41.000       -2051.112
 198480642.658 7  37769609.140          43.000       -1114.015
 198171384.970 7  37710768.277          44.000       -1120.043
 134269673.368 7  25550664.681          42.000        2040.462
 07  8 29 13 36 31.0010000  0 10G20G28G17G11G 4G23G 1S37S29G13
 111654411.963 8  21247130.388          49.000       -2274.548
 114234145.15628  21738040.763          50.000       -2885.631
 112540542.210 8  21415754.745          50.000         537.855
 121219387.398 8  23067284.315          50.000       -3477.187
 122800470.48728  23368154.020          49.000        1050.587
 128290442.988 8  24412856.919          49.000        1552.212
 135860553.30226  25853402.450          40.000       -2051.120
 198481756.778 7  37769821.177          44.000       -1114.425
 198172503.844 7  37710980.978          43.000       -1119.211
 134267632.506 7  25550276.083          42.000        2041.791
 07  8 29 13 36 32.0010000  0 10G20G28G17G11G 4G23G 1S37S29G13
 111656687.540 8  21247563.450          50.000       -2276.292
 114237030.66428  21738589.904          51.000       -2885.198
 112540005.909 8  21415652.486          51.000         535.314
 121222866.284 8  23067946.410          50.000       -3479.484
 122799421.04228  23367954.284          49.000        1048.453
 128288889.633 8  24412561.522          48.000        1554.481
 135862606.08036  25853793.595          39.000       -2053.107
 198482869.434 7  37770032.849          45.000       -1111.523
 198173621.419 7  37711193.591          43.000       -1119.300
 134265588.929 7  25549887.503          42.000        2045.116
 07  8 29 13 36 33.0010000  0 10G20G28G17G11G 4G23G 1S37S29G13
 111658964.098 8  21247996.704          50.000       -2276.524
 114239915.95828  21739139.237          51.000       -2884.840
 112539471.931 8  21415550.768          51.000         533.745
 121226345.336 8  23068608.263          50.000       -3478.927
 122798373.14028  23367754.932          49.000        1047.024
 128287333.563 8  24412265.359          49.000        1558.320
 135864660.58226  25854184.794          39.000       -2053.318
 198483979.886 7  37770244.120          44.000       -1108.020
 198174737.131 7  37711405.909          43.000       -1116.407
 134263541.557 7  25549497.946          44.000        2049.826
 07  8 29 13 36 34.0010000  0 10G20G28G17G11G 4G23G 1S37S29G13
 111661241.581 8  21248430.237          50.000       -2277.576
 114242800.60728  21739688.099          51.000       -2883.709
 112538939.865 8  21415449.626          51.000         531.909
 121229824.779 8  23069270.812          50.000       -3479.311
 122797326.25128  23367555.511          49.000        1046.852
 128285775.101 8  24411968.670          49.000        1559.548
                  25854576.133          27.000       -2053.994
 198485088.272 7  37770455.042          45.000       -1107.265
 198175850.497 7  37711617.687          44.000       -1112.625
 134261490.769 7  25549107.847          42.000        2052.990
 07  8 29 13 36 35.0010000  0 10G20G28G17G11G 4G23G 1S37S29G13
 111663520.094 8  21248863.769          50.000       -2279.014
 114245683.48228  21740236.595          51.000       -2881.598
 112538408.642 8  21415348.467          51.000         531.500
 121233305.632 8  23069933.012          50.000       -3481.998
 122796278.59128  23367356.422          49.000        1048.853
 128284215.505 8  24411671.808          49.000        1561.105
 135868767.25935  25854966.927          35.000       -2063.309
 198486194.395 7  37770665.422          45.000       -1105.356
 198176961.743 7  37711829.132          44.000       -1108.716
 134259437.403 6  25548716.754          41.000        2055.789
 07  8 29 13 36 36.0010000  0  9G20G28G17G11G 4G23S37S29G13
 111665798.916 8  21249297.041          50.000       -2278.539
 114248564.75428  21740785.091          51.000       -2880.746
 112537877.546 8  21415247.447          51.000         531.059
 121236787.031 8  23070595.510          49.000       -3481.556
 122795230.04528  23367156.826          49.000        1048.733
 128282654.763 8  24411374.700          48.000        1560.517
 198487298.292 7  37770875.454          45.000       -1102.511
 198178070.228 7  37712040.141          43.000       -1107.540
 134257381.922 7  25548325.154          43.000        2055.666
 07  8 29 13 36 37.0010000  0  9G20G28G17G11G 4G23S37S29G13
 111668078.255 8  21249730.870          49.000       -2279.308
 114251444.760 8  21741333.116          50.000       -2879.036
 112537346.339 8  21415146.411          51.000         532.590
 121240269.223 8  23071258.059          49.000       -3482.071
 122794180.501 8  23366957.406          49.000        1050.748
 128281093.845 8  24411077.645          48.000        1560.436
 198488400.564 7  37771085.293          45.000       -1102.795
 198179177.607 7  37712250.870          43.000       -1107.781
 134255325.274 7  25547933.938          43.000        2056.881
 07  8 29 13 36 38.0010000  0 10G20G28G17G11G 4G23G 1S37S29G13
 111670358.625 8  21250164.682          50.000       -2280.801
 114254324.275 8  21741881.192          50.000       -2879.366
 112536814.223 8  21415045.060          51.000         531.888
 121243752.841 8  23071921.272          49.000       -3483.416
 122793128.947 8  23366757.270          49.000        1051.076
 128279534.866 8  24410781.305          48.000        1558.428
 135875156.61826  25856146.507          41.000       -2067.603
 198489503.354 7  37771295.218          45.000       -1104.218
 198180284.996 7  37712461.651          43.000       -1107.805
 134253269.832 7  25547542.843          42.000        2055.315
 07  8 29 13 39 41.0010000  0  5G20G28G17G11G 4
 112100255.828 8  21331971.732          50.000       -2437.154
                  21844690.310          37.000       -3040.298
 112446130.299 8  21397789.100          51.000         446.604
 121885028.96928  23193950.673          49.000       -3546.471
                  23331356.908          26.000         971.416
 07  8 29 13 39 42.0010000  0  6G20G28G17G11G 4G23
 112102697.149 8  21332435.922          50.000       -2446.224
                  21845266.358          44.000       -3042.421
 112445683.151 8  21397704.031          51.000         448.566
 121888583.24928  23194627.072          49.000       -3562.902
                  23331177.017          24.000         981.543
                  24357705.717          32.000        1418.966
 07  8 29 13 39 43.0010000  0  5G20G28G17G11G23
 112105148.714 8  21332902.101          49.000       -2456.162
 114800679.44728  21845842.987          48.000       -3031.814
 112445234.27837  21397618.596          47.000         450.263
 121892153.38828  23195306.002          48.000       -3576.418
                  24357437.944          28.000        1422.328
 07  8 29 13 39 44.0010000  0  5G20G28G17G11G23
 112107608.141 8  21333370.410          50.000       -2462.309
 114803710.18528  21846420.434          49.000       -3028.633
 112444780.28237  21397531.415          43.000         450.559
 121895736.42328  23195987.150          48.000       -3587.679
                  24357168.268          31.000        1419.768
 07  8 29 13 39 45.0010000  0  6G20G28G17G11G23S29
 112110071.836 8  21333839.313          50.000       -2465.501
 114806741.28628  21846997.860          50.000       -3032.090
                  21397444.043          42.000         455.880
 121899325.43928  23196669.714          48.000       -3589.904
                  24356899.242          32.000        1431.779
 198392346.65627  37752808.337          44.000       -1190.857
 07  8 29 13 39 46.0010000  0  6G20G28G17G11G23S29
 112112536.710 8  21334308.515          50.000       -2464.245
 114809773.55028  21847575.113          50.000       -3033.619
 112443871.16237  21397357.382          45.000         447.627
 121902913.92228  23197352.665          49.000       -3585.812
                  24356626.883          34.000        1442.912
 198393536.68227  37753034.790          43.000       -1187.320
 07  8 29 13 39 47.0010000  0  7G20G28G17G11G 4G23S29
 112114999.651 8  21334776.986          50.000       -2459.770
 114812808.00628  21848152.959          48.000       -3034.500
 112443429.24737  21397273.199          46.000         438.503
 121906495.70628  23198034.082          48.000       -3577.179
                  23330212.254          33.000        1000.506
                  24356354.512          46.000        1420.858
 198394721.416 7  37753260.458          44.000       -1182.246
 07  8 29 13 39 48.0010000  0  7G20G28G17G11G 4G23S29
 112117457.794 8  21335244.949          49.000       -2456.111
                  21848731.225          39.000       -3032.413
 112442993.33628  21397191.216          49.000         434.228
 121910067.34328  23198714.243          48.000       -3566.442
                  23330030.373          34.000         961.715
                  24356082.678          49.000        1434.711
 198395901.180 7  37753485.044          44.000       -1179.940
 07  8 29 13 39 49.0010000  0  7G20G28G17G11G 4G23S29
 112119910.643 8  21335711.501          49.000       -2449.519
                  21849309.519          33.000       -3049.300
 112442560.89028  21397110.229          50.000         431.108
 121913629.048 8  23199392.310          49.000       -3555.422
                  23329855.243          30.000         962.007
 127990612.06938  24355803.689          48.000        1447.651
 198397078.885 7  37753708.950          43.000       -1173.495
 07  8 29 13 39 50.0010000  0  8G20G28G17G11G 4G23S29S37
 112122356.777 8  21336176.814          50.000       -2441.719
                  21849892.004          37.000       -3057.254
 112442130.06328  21397028.736          51.000         430.881
 121917177.996 8  23200068.041          49.000       -3541.322
                  23329673.687          30.000         952.778
 127989158.98428  24355526.268          48.000        1456.370
 198398257.327 7  37753933.479          43.000       -1180.397
 198706625.35127  37812613.694          43.000       -1176.441
 07  8 29 13 39 51.0010000  0  8G20G28G17G11G 4G23S29S37
 112124796.434 8  21336640.817          49.000       -2436.102
 114825002.26738  21850471.472          50.000       -3060.178
 112441698.90128  21396946.703          51.000         431.770
 121920715.558 7  23200741.219          47.000       -3537.004
                  23329490.583          35.000         954.369
 127987700.61628  24355249.265          49.000        1460.105
                  37754158.344          36.000       -1176.208
 198707802.04235  37812837.599          34.000       -1174.894
 07  8 29 13 39 52.0010000  0  8G20G28G17G11G 4G23S29S37
 112127230.830 8  21337104.402          50.000       -2431.546
                  21851054.586          41.000       -3068.214
 112441265.35328  21396864.200          50.000         435.355
 121924244.24837  23201412.900          46.000       -3525.002
                  23329307.873          36.000         939.743
 127986240.88827  24354971.615          47.000        1460.122
                  37754386.406          26.000       -1209.601
                  37813061.553          28.000       -1179.590
 07  8 29 13 39 53.0010000  0  7G20G28G17G11G 4G23S37
 112129662.863 8  21337566.953          49.000       -2435.454
                  21851639.691          31.000       -3069.454
 112440829.37028  21396781.573          51.000         435.169
 121927769.74128  23202083.633          48.000       -3529.363
                  23329127.195          36.000         943.111
 127984783.11527  24354694.033          47.000        1457.301
                  37813286.626          33.000       -1180.158
 07  8 29 13 39 54.0010000  0  7G20G28G17G11G 4G23S37
 112132102.018 8  21338031.230          50.000       -2444.480
                  21852225.548          35.000       -3067.796
 112440394.78128  21396698.596          50.000         433.572
 121931305.54128  23202756.107          49.000       -3542.327
                  23328947.552          31.000         959.963
 127983330.70727  24354418.247          47.000        1449.103
 198711342.16737  37813511.314          43.000       -1180.583
 07  8 29 13 39 55.0010000  0  7G20G28G17G11G 4G23S37
 112134553.468 8  21338498.158          50.000       -2457.138
 114837263.25036  21852804.694          41.000       -3045.724
 112439962.411 8  21396616.109          51.000         432.762
 121934860.49328  23203433.201          49.000       -3567.029
                  23328765.113          27.000         969.056
 127981887.76827  24354144.011          45.000        1435.839
 198712520.481 7  37813735.603          43.000       -1177.782
 07  8 29 13 39 56.0010000  0  6G20G28G17G11G23S37
 112137018.596 8  21338967.076          49.000       -2470.320
 114840304.96628  21853380.833          49.000       -3039.222
 112439527.888 8  21396533.571          50.000         436.056
 121938437.66128  23204113.856          49.000       -3586.938
                  24353872.794          36.000        1419.712
 198713700.852 7  37813960.221          43.000       -1182.298
 07  8 29 13 39 57.0010000  0  6G20G28G17G11G23S37
 112139493.589 8  21339437.792          50.000       -2478.201
 114843341.31728  21853957.983          50.000       -3034.310
 112439089.09837  21396450.038          44.000         440.238
 121942031.07328  23204797.098          49.000       -3597.181
                  24353604.248          32.000        1407.216
 198714886.505 7  37814186.024          43.000       -1189.073
 07  8 29 13 39 58.0010000  0  7G20G28G17G11G 4G23S37
 112141973.033 8  21339910.064          50.000       -2481.647
 114846374.56128  21854535.866          50.000       -3031.475
 112438650.65328  21396366.905          49.000         438.837
 121945631.47028  23205482.209          49.000       -3602.965
                  23328198.267          28.000         987.478
                  24353340.881          31.000        1386.674
 198716072.505 7  37814411.918          44.000       -1187.539
 07  8 29 13 39 59.0010000  0  5G20G28G17G11S37
 112144455.231 8  21340382.667          50.000       -2482.728
 114849405.12328  21855112.666          50.000       -3029.529
                  21396283.370          39.000         437.098
 121949235.85528  23206167.967          49.000       -3604.592
 198717256.230 7  37814637.290          43.000       -1180.688
 07  8 29 13 40  0.0010000  0  5G20G28G17G11S37
 112146939.495 8  21340855.166          50.000       -2484.622
 114852434.46728  21855689.343          50.000       -3030.072
 112437786.61737  21396199.467          45.000         432.382
 121952842.33428  23206854.126          49.000       -3606.331
 198718437.785 7  37814862.293          43.000       -1180.448
 07  8 29 13 40  1.0010000  0  6G20G28G17G11G23S37
 112149423.422 8  21341327.527          50.000       -2483.493
 114855464.43428  21856265.898          50.000       -3031.693
 112437356.83727  21396117.047          47.000         423.716
 121956446.519 8  23207539.940          48.000       -3600.073
                  24352532.181          42.000        1418.432
 198719615.071 7  37815086.583          44.000       -1173.544
 07  8 29 13 40  2.0010000  0  6G20G28G17G11G23S37
 112151904.332 8  21341800.011          49.000       -2478.611
 114858497.03328  21856842.993          50.000       -3033.830
 112436935.81028  21396037.297          50.000         418.123
 121960041.744 8  23208224.568          49.000       -3589.050
 127971990.93938  24352260.295          48.000        1434.427
 198720784.386 7  37815309.128          43.000       -1166.562
 07  8 29 13 40  3.0010000  0  7G20G28G17G11G 4G23S37
 112154382.261 8  21342271.080          49.000       -2477.479
 114861533.12028  21857421.013          49.000       -3037.651
 112436521.63628  21395959.275          50.000         411.293
 121963628.711 8  23208907.275          49.000       -3585.444
 122585491.95438  23327243.523          49.000         965.675
 127970549.27328  24351987.360          49.000        1444.911
 198721948.452 7  37815530.626          44.000       -1162.190
 07  8 29 13 40  4.0010000  0  7G20G28G17G11G 4G23S37
 112156859.716 8  21342742.480          49.000       -2477.585
 114864571.39928  21857999.557          49.000       -3038.854
 112436110.05528  21395881.447          50.000         411.257
 121967213.012 8  23209589.456          49.000       -3584.365
 122584526.01728  23327061.744          50.000         965.641
 127969103.83928  24351712.379          49.000        1444.802
 198723111.498 7  37815752.016          43.000       -1164.264
 07  8 29 13 40  5.0010000  0  7G20G28G17G11G 4G23S37
 112159338.416 8  21343213.966          49.000       -2479.673
 114867610.75228  21858577.875          49.000       -3038.790
 112435699.23528  21395803.374          50.000         409.699
 121970798.118 8  23210271.812          49.000       -3585.683
 122583560.62528  23326876.597          49.000         965.698
 127967659.40728  24351438.341          50.000        1444.162
 198724275.409 7  37815973.617          43.000       -1161.975
 07  8 29 13 40  6.0010000  0  7G20G28G17G11G 4G23S37
 112161818.466 8  21343685.855          49.000       -2480.250
 114870648.50228  21859155.861          49.000       -3036.706
 112435288.96628  21395725.040          50.000         410.586
 121974385.102 8  23210954.446          49.000       -3587.884
 122582594.24838  23326693.596          48.000         965.477
 127966215.10228  24351164.215          49.000        1444.452
 198725437.624 7  37816194.903          43.000       -1163.284
 07  8 29 13 40  7.0010000  0  7G20G28G17G11G 4G23S37
 112164299.585 8  21344158.284          49.000       -2481.288
 114873684.947 8  21859733.324          49.000       -3035.884
 112434879.588 8  21395647.247          50.000         409.434
 121977973.584 8  23211636.958          49.000       -3588.898
 122581627.19338  23326509.218          48.000         966.912
 127964770.83028  24350889.654          49.000        1444.103
 198726598.368 7  37816415.858          43.000       -1160.834
 07  8 29 13 40  8.0010000  0  7G20G28G17G11G 4G23S37
 112166782.350 8  21344630.678          50.000       -2484.309
 114876721.033 8  21860310.752          49.000       -3036.179
 112434470.861 8  21395569.610          50.000         407.944
 121981563.752 8  23212320.133          49.000       -3591.949
 122580660.10528  23326326.095          49.000         966.272
 127963326.82928  24350615.091          49.000        1442.325
 198727758.253 7  37816636.639          43.000       -1158.844
 07  8 29 13 40  9.0010000  0  7G20G28G17G11G 4G23S37
 112169265.474 8  21345103.196          49.000       -2482.398
 114879757.318 8  21860888.843          49.000       -3036.667
 112434062.658 8  21395492.254          50.000         409.138
 121985153.887 8  23213003.311          48.000       -3587.583
 122579694.01436  23326142.989          41.000         964.985
 127961882.46328  24350340.303          49.000        1443.314
 198728917.526 7  37816857.384          43.000       -1159.813
 07  8 29 13 40 10.0010000  0  7G20G28G17G11G 4G23S37
 112171746.890 8  21345575.294          49.000       -2481.655
 114882797.32737  21861467.246          45.000       -3040.636
 112433653.440 8  21395414.199          50.000         409.687
 121988740.749 8  23213686.140          49.000       -3583.470
                  23325959.533          30.000         959.483
 127960438.37328  24350065.741          49.000        1443.369
 198730078.204 7  37817078.355          43.000       -1161.804
 07  8 29 13 40 11.0010000  0  6G20G28G17G11G23S37
 112174226.598 8  21346046.991          49.000       -2481.026
                  21862047.043          36.000       -3050.063
 112433244.565 8  21395336.737          50.000         408.053
 121992322.996 8  23214367.764          49.000       -3580.036
 127958994.58128  24349790.412          49.000        1442.975
 198731242.214 7  37817299.990          42.000       -1163.197
 07  8 29 13 40 12.0010000  0  6G20G28G17G11G23S37
 112176709.060 8  21346519.419          49.000       -2485.301
                  21862627.941          35.000       -3056.556
 112432837.155 8  21395259.064          49.000         404.227
 121995907.815 8  23215049.891          48.000       -3585.922
 127957553.55337  24349516.406          45.000        1436.559
                  37817521.906          35.000       -1158.985
 07  8 29 13 40 13.0010000  0  6G20G28G17G11G23S37
 112179199.28437  21346993.591          47.000       -2494.437
 114891918.75736  21863205.340          41.000       -3041.074
 112432425.54937  21395180.578          44.000         416.918
 121999505.55338  23215734.839          49.000       -3604.638
 127956125.26128  24349244.613          48.000        1422.455
 198733585.18337  37817743.956          43.000       -1170.358
 07  8 29 13 40 14.0010000  0  6G20G28G17G11G23S37
 112181694.04728  21347468.341          49.000       -2494.901
 114894959.98937  21863782.870          44.000       -3045.891
 112432007.85336  21395101.477          39.000         418.548
 122003112.03128  23216420.771          48.000       -3607.711
 127954709.30328  24348975.318          49.000        1412.615
 198734759.72527  37817967.473          43.000       -1178.059
 07  8 29 13 40 15.0010000  0  6G20G28G17G11G23S37
 112184189.03628  21347943.336          49.000       -2493.839
 114898005.64328  21864360.873          48.000       -3047.704
                  21395021.099          39.000         412.602
                  23217106.481          48.000       -3600.406
 127953298.01628  24348707.125          50.000        1411.249
 198735940.678 7  37818192.109          43.000       -1179.253
 07  8 29 13 40 16.0010000  0  6G20G28G17G11G23S37
 112186679.42528  21348417.183          49.000       -2485.606
 114901059.22538  21864942.276          49.000       -3058.020
 112431168.91838  21394940.130          49.000         412.625
 122010301.89438  23217788.528          48.000       -3586.217
 127951880.75728  24348437.227          49.000        1423.662
 198737122.432 7  37818416.989          43.000       -1181.205
 07  8 29 13 40 17.0010000  0  6G20G28G17G11G23S37
 112189159.61228  21348889.006          50.000       -2473.387
 114904124.73228  21865527.289          50.000       -3072.790
 112430758.70928  21394862.894          51.000         409.961
 122013877.51928  23218468.798          49.000       -3563.642
 127950448.58228  24348164.224          48.000        1438.928
 198738302.813 7  37818641.678          42.000       -1181.395
 07  8 29 13 40 18.0010000  0  7G20G28G17G11G 4G23S37
 112191626.37628  21349358.387          49.000       -2461.566
 114907206.33136  21866114.779          40.000       -3087.622
 112430349.14028  21394786.026          50.000         409.222
 122017429.99328  23219145.683          48.000       -3542.210
 122571027.22237  23324491.028          43.000         914.401
 127949003.59927  24347888.462          47.000        1448.102
                  37818867.008          28.000       -1194.859
 07  8 29 13 40 19.0010000  0  6G20G28G17G11G 4G23
 112194085.65428  21349826.333          49.000       -2457.527
 114910300.65235  21866703.669          31.000       -3095.845
 112429940.40228  21394709.262          50.000         408.453
 122020967.24728  23219819.439          49.000       -3533.761
                  23324313.614          34.000         920.036
 127947553.901 7  24347611.930          47.000        1451.484
 07  8 29 13 40 20.0010000  0  6G20G28G17G11G 4G23
 112196544.97528  21350294.224          49.000       -2464.369
                  21867294.253          32.000       -3098.425
 112429532.77128  21394632.219          50.000         406.557
 122024502.67228  23220492.682          48.000       -3543.532
 122569176.03535  23324138.850          34.000         919.605
 127946103.647 7  24347335.430          47.000        1450.132
 07  8 29 13 40 21.0010000  0  6G20G28G17G11G 4G23
 112199014.43228  21350764.590          49.000       -2474.527
                  21867884.980          28.000       -3092.325
 112429130.26328  21394555.819          50.000         400.242
 122028052.46328  23221168.385          48.000       -3555.888
                  23323964.368          32.000         928.406
 127944655.398 7  24347059.820          46.000        1445.434
 07  8 29 13 40 22.0010000  0  6G20G28G17G11G 4G23
 112201492.24628  21351236.058          49.000       -2481.044
                  21868475.321          28.000       -3091.971
 112428730.47128  21394479.527          50.000         399.971
 122031614.73128  23221846.443          49.000       -3567.182
                  23323790.109          29.000         925.279
 127943210.459 8  24346785.083          48.000        1444.022
 07  8 29 13 40 23.0010000  0  6G20G28G17G11G 4G23
 112203973.08328  21351708.086          50.000       -2481.632
                  21869065.873          28.000       -3088.972
 112428332.63528  21394403.879          50.000         396.706
 122035180.07228  23222524.979          49.000       -3564.545
                  23323616.252          26.000         925.015
 127941767.361 8  24346510.504          48.000        1445.227
 07  8 29 13 40 24.0010000  0  6G20G28G17G11G 4G23
 112206453.18828  21352179.854          50.000       -2478.969
                  21869649.742          37.000       -3083.231
 112427935.33828  21394328.110          50.000         397.201
 122038741.91628  23223202.816          48.000       -3560.724
                  23323444.763          24.000         909.468
 127940325.414 8  24346236.133          48.000        1441.189
 07  8 29 13 40 25.0010000  0  5G20G28G17G11G23
 112208931.018 8  21352651.151          49.000       -2474.972
                  21870231.927          48.000       -3098.502
 112427538.899 8  21394252.393          50.000         396.391
 122042297.573 8  23223879.208          49.000       -3550.589
 127938884.353 8  24345962.252          48.000        1441.285
 07  8 29 13 40 26.0010000  0  5G20G28G17G11G23
 112211402.315 8  21353121.664          49.000       -2466.360
                  21870819.400          49.000       -3115.104
 112427140.495 8  21394176.801          51.000         401.918
 122045840.446 8  23224553.281          49.000       -3534.691
 127937442.764 8  24345687.445          49.000        1439.868
 07  8 29 13 40 27.0010000  0  6G20G28G17G11G 4G23
 112213863.311 8  21353590.067          50.000       -2455.288
 114935053.65738  21871413.537          51.000       -3136.029
 112426733.106 8  21394099.223          50.000         416.783
 122049367.145 8  23225224.056          49.000       -3520.556
 122562767.19037  23322919.141          43.000         898.768
 127936008.936 7  24345414.710          47.000        1425.296
 07  8 29 13 40 28.0010000  0  6G20G28G17G11G 4G23
 112216316.254 8  21354056.582          50.000       -2451.855
 114938195.74828  21872011.517          50.000       -3146.942
 112426308.862 8  21394018.644          50.000         432.427
 122052885.131 8  23225892.801          48.000       -3517.449
 122561864.59527  23322749.983          47.000         908.656
 127934595.881 8  24345146.788          48.000        1400.256
 07  8 29 13 40 29.0010000  0  6G20G28G17G11G 4G23
 112218770.040 8  21354523.758          50.000       -2455.914
 114941346.27228  21872611.803          50.000       -3151.794
 112425870.732 8  21393935.323          50.000         443.839
 122056406.983 8  23226563.165          48.000       -3527.069
 122560948.82928  23322578.156          48.000         924.488
 127933208.891 8  24344883.594          48.000        1375.826
 07  8 29 13 40 30.0010000  0  6G20G28G17G11G 4G23
 112221227.659 8  21354991.248          49.000       -2459.386
 114944497.33628  21873212.230          50.000       -3150.543
 112425421.204 8  21393849.839          51.000         454.290
 122059938.503 8  23227235.501          48.000       -3537.224
 122560016.43827  23322401.304          46.000         940.463
 127931844.602 8  24344624.381          49.000        1354.271
 07  8 29 13 40 31.0010000  0  6G20G28G17G11G 4G23
 112223689.856 8  21355459.593          49.000       -2464.455
 114947645.64528  21873811.821          49.000       -3147.324
                  21393762.799          46.000         458.794
 122063480.081 8  23227909.723          48.000       -3543.556
                  23322220.822          41.000         954.233
 127930496.556 8  24344368.051          49.000        1345.718
 07  8 29 13 40 32.0010000  0  6G20G28G17G11G 4G23
 112226155.050 8  21355928.915          48.000       -2466.908
 114950793.85037  21874411.444          47.000       -3149.900
 112424524.59727  21393675.825          46.000         453.833
 122067026.192 8  23228584.433          48.000       -3548.736
                  23322040.193          40.000         950.583
 127929154.576 8  24344112.230          49.000        1342.654
 07  8 29 13 40 33.0010000  0  7G20G28G17G11G 4G13G23
                  21356398.309          48.000       -2465.639
                  21875010.577          46.000       -3156.905
 112424067.44038  21393588.872          48.000         457.259
                  23229260.782          33.000       -3560.073
                  23321858.329          39.000         955.441
 133777552.14335  25457021.878          33.000        1865.993
 127927812.623 8  24343856.935          48.000        1347.561
 07  8 29 13 40 34.0010000  0  7G20G28G17G11G 4G13G23
 112231094.93037  21356867.371          44.000       -2465.057
 114957107.13837  21875610.187          47.000       -3151.358
 112423615.26837  21393502.544          45.000         452.143
                  23229937.716          35.000       -3547.244
                  23321677.660          41.000         937.745
                  25456668.985          28.000        1872.514
                  24343600.696          41.000        1347.906
 07  8 29 13 40 35.0010000  0  7G20G28G17G11G 4G13G23
 112233558.14128  21357335.997          49.000       -2463.745
                  21876209.688          46.000       -3154.509
                  21393417.609          41.000         440.536
                  23230610.742          35.000       -3530.967
                  23321501.773          36.000         919.452
                  25456311.873          26.000        1892.037
                  24343343.361          35.000        1357.688
 07  8 29 13 40 36.0010000  0  6G20G28G17G11G 4G23
 112236017.76528  21357804.084          49.000       -2457.750
 114963408.87438  21876809.415          50.000       -3158.349
                  21393333.477          46.000         429.397
 122081193.54237  23231278.722          43.000       -3522.504
                  23321329.410          39.000         900.405
                  24343086.678          27.000        1337.354
 07  8 29 13 40 37.0010000  0  6G20G28G17G11G 4G23
 112238476.25028  21358271.558          48.000       -2458.880
 114966567.24228  21877410.926          50.000       -3154.135
 112422301.98438  21393252.799          48.000         413.311
 122084712.98137  23231946.439          46.000       -3517.671
 122553522.44736  23321159.999          39.000         891.038
                  24342832.008          28.000        1332.911
 07  8 29 13 40 38.0010000  0  6G20G28G17G11G 4G23
 112240937.80228  21358739.763          48.000       -2463.901
                  21878011.839          41.000       -3161.784
 112421892.64038  21393175.056          49.000         406.553
 122088234.22236  23232616.368          41.000       -3524.787
 122552639.96137  23320991.724          46.000         882.748
                  24342575.641          30.000        1361.794
 07  8 29 13 40 39.0010000  0  5G20G28G17G11G 4
 112243404.24628  21359209.398          49.000       -2469.929
 114972879.09937  21878611.453          46.000       -3142.056
 112421490.15428  21393099.529          50.000         402.023
                  23233287.206          37.000       -3526.315
 122551759.54238  23320824.359          48.000         883.030
 07  8 29 13 40 40.0010000  0  5G20G28G17G11G 4
 112245877.12428  21359680.587          49.000       -2474.610
                  21879209.040          42.000       -3132.022
 112421092.07528  21393024.579          49.000         397.289
 122095284.82335  23233960.220          34.000       -3540.459
 122550876.59528  23320656.785          48.000         884.988
 07  8 29 13 40 41.0010000  0  5G20G28G17G11G 4
 112248356.52428  21360152.473          49.000       -2482.689
 114979157.21638  21879806.148          48.000       -3139.815
 112420697.11928  21392949.873          49.000         392.614
                  23234636.090          31.000       -3571.316
 122549990.82227  23320488.897          47.000         887.219
 07  8 29 13 40 42.0010000  0  4G20G28G17G 4
 112250846.57727  21360625.980          47.000       -2495.285
 114982292.80638  21880403.385          48.000       -3130.259
 112420309.85328  21392876.317          50.000         385.006
 122549101.31528  23320320.086          48.000         893.045
 07  8 29 13 40 43.0010000  0  4G20G28G17G 4
 112253347.43237  21361102.453          47.000       -2508.522
 114985416.42728  21880998.967          50.000       -3116.122
 112419928.33828  21392804.280          50.000         378.439
 122548203.70428  23320149.968          48.000         903.043
 07  8 29 13 40 44.0010000  0  4G20G28G17G 4
                  21361580.587          40.000       -2512.440
 114988528.59128  21881591.596          50.000       -3109.379
 112419550.28228  21392732.158          50.000         378.552
                  23319976.709          40.000         913.590
 07  8 29 13 40 45.0010000  0  4G20G28G17G 4
                  21362059.507          43.000       -2516.973
                  21882183.052          41.000       -3113.839
 112419174.94728  21392660.751          50.000         374.889
 122546392.53836  23319803.147          41.000         908.483
 07  8 29 13 40 46.0010000  0  4G20G28G17G 4
                  21362538.098          37.000       -2513.406
                  21882776.166          38.000       -3119.280
 112418802.31728  21392589.902          51.000         372.810
                  23319631.801          40.000         902.864
 07  8 29 13 40 47.0010000  0  5G20G28G17G 4G23
                  21363014.578          42.000       -2509.150
                  21883370.168          42.000       -3125.997
 112418431.62628  21392519.316          50.000         373.583
 122544596.60336  23319461.466          38.000         893.827
 127908176.16335  24340116.751          33.000        1414.997
 07  8 29 13 40 48.0010000  0  5G20G28G17G 4G23
                  21363489.944          36.000       -2494.685
 115001018.91536  21883966.451          41.000       -3148.946
 112418061.77738  21392449.061          48.000         370.840
                  23319292.142          39.000         883.282
                  24339848.207          30.000        1408.348
 07  8 29 13 40 49.0010000  0  4G20G28G17G 4
                  21363965.027          43.000       -2494.441
 115004160.76436  21884564.944          39.000       -3141.421
 112417690.76128  21392378.388          51.000         371.853
                  23319125.284          38.000         885.929
 07  8 29 13 40 50.0010000  0  4G20G28G17G 4
 112270896.15637  21364441.258          47.000       -2500.330
 115007309.16238  21885163.396          48.000       -3151.085
 112417318.58328  21392307.452          51.000         370.591
 122541952.81036  23318958.404          39.000         876.557
 07  8 29 13 40 51.0010000  0  4G20G28G17G 4
 112273405.41737  21364919.180          46.000       -2512.623
                  21885762.030          42.000       -3138.792
 112416950.32137  21392237.545          47.000         367.425
 122541077.15537  23318790.902          44.000         883.078
 07  8 29 13 40 52.0010000  0  4G20G28G17G 4
 112275925.21028  21365400.261          49.000       -2523.359
                  21886356.773          41.000       -3125.587
 112416584.49438  21392167.780          48.000         369.619
                  23318624.276          41.000         898.869
 07  8 29 13 40 53.0010000  0  5G20G28G17G11G 4
                  21365882.129          40.000       -2528.820
                  21886949.945          44.000       -3115.603
 112416218.69428  21392097.977          51.000         364.839
                  23242814.963          33.000       -3596.345
                  23318453.248          37.000         901.399
 07  8 29 13 40 54.0010000  0  5G20G28G17G11G 4
 112280995.90237  21366363.283          45.000       -2532.907
 115019812.61738  21887542.637          51.000       -3126.405
 112415853.02128  21392028.613          51.000         366.469
                  23243495.949          33.000       -3619.018
                  23318281.281          36.000         914.505
 07  8 29 13 40 55.0010000  0  5G20G28G17G11G 4
 112283523.47637  21366844.109          45.000       -2524.073
                  21888139.759          41.000       -3145.117
 112415486.70928  21391959.074          50.000         364.845
                  23244182.644          33.000       -3588.650
                  23318110.350          35.000         899.365
 07  8 29 13 40 56.0010000  0  6G20G28G17G11G 4G23
 112286044.48637  21367323.206          42.000       -2521.557
 115026094.08937  21888738.069          44.000       -3161.410
 112415119.68628  21391889.205          51.000         369.545
                  23244864.776          36.000       -3580.611
                  23317940.905          36.000         889.468
                  24337711.595          35.000        1391.020
 07  8 29 13 40 57.0010000  0  6G20G28G17G11G 4G23
 112288559.40837  21367802.097          42.000       -2508.342
 115029261.00628  21889341.020          50.000       -3176.980
                  21391818.519          42.000         382.857
 122156145.65337  23245541.713          46.000       -3560.161
 122535725.76537  23317773.376          46.000         871.490
                  24337451.021          33.000        1371.227
 07  8 29 13 40 58.0010000  0  6G20G28G17G11G 4G23
 112291067.33028  21368278.576          48.000       -2506.967
 115032443.08228  21889947.342          49.000       -3186.202
                  21391745.736          40.000         387.175
 122159709.80537  23246218.692          42.000       -3566.665
                  23317606.118          38.000         877.670
                  24337191.929          36.000        1347.288
 07  8 29 13 40 59.0010000  0  6G20G28G17G11G 4G23
 112293574.43728  21368755.508          49.000       -2507.807
 115035631.77438  21890554.731          50.000       -3188.120
                  21391670.924          42.000         381.176
 122163271.51137  23246894.837          45.000       -3561.087
                  23317439.659          38.000         873.522
                  24336939.203          31.000        1317.176
 07  8 29 13 41  0.0010000  0  6G20G28G17G11G 4G23
 112296082.64628  21369234.359          50.000       -2508.681
                  21891161.603          46.000       -3172.491
 112413600.01138  21391596.828          49.000         374.988
 122166832.50027  23247572.726          46.000       -3560.429
                  23317274.089          40.000         867.995
                  24336688.271          32.000        1321.034
 07  8 29 13 41  1.0010000  0  6G20G28G17G11G 4G23
                  21369712.755          44.000       -2513.812
                  21891765.610          41.000       -3167.227
 112413228.74238  21391525.873          50.000         366.467
 122170395.94737  23248251.450          43.000       -3567.658
                  23317108.352          37.000         881.649
                  24336426.919          37.000        1368.450
 07  8 29 13 41  2.0010000  0  6G20G28G17G11G 4G23
 112301114.95137  21370191.670          44.000       -2527.954
 115045169.16837  21892367.785          45.000       -3157.189
 112412866.80928  21391457.272          48.000         357.107
                  23248930.974          42.000       -3578.754
 122531365.42237  23316943.563          46.000         865.907
 127887329.46036  24336149.811          39.000        1417.303
 07  8 29 13 41  3.0010000  0  6G20G28G17G11G 4G23
 112303637.10138  21370670.278          48.000       -2527.369
                  21892970.288          40.000       -3160.758
 112412510.61638  21391390.368          49.000         356.175
                  23249612.975          38.000       -3595.504
                  23316780.661          45.000         853.707
                  24335877.128          39.000        1401.368
 07  8 29 13 41  4.0010000  0  6G20G28G17G11G 4G23
 112306161.54137  21371150.107          44.000       -2526.765
 115051499.30838  21893572.510          50.000       -3165.868
 112412156.24628  21391323.829          51.000         353.745
 122181128.07835  23250295.719          33.000       -3584.689
                  23316617.923          40.000         861.508
 127884478.47036  24335607.173          41.000        1402.006
 07  8 29 13 41  5.0010000  0  6G20G28G17G11G 4G23
 112308685.13737  21371630.253          43.000       -2518.650
                  21894175.605          45.000       -3172.531
                  21391256.512          39.000         368.815
                  23250976.911          35.000       -3568.856
 122528795.31137  23316454.517          42.000         855.776
                  24335339.414          39.000        1393.063
 07  8 29 13 41  6.0010000  0  6G20G28G17G11G 4G23
 112311206.04537  21372109.087          44.000       -2516.721
                  21894780.181          44.000       -3181.934
 112411442.60637  21391186.341          45.000         360.420
                  23251657.539          35.000       -3569.713
 122527942.37928  23316291.967          49.000         851.249
 127881679.03936  24335074.445          36.000        1381.141
 07  8 29 13 41  7.0010000  0  6G20G28G17G11G 4G23
                  21372588.514          38.000       -2517.825
 115061028.33338  21895385.826          50.000       -3183.432
 112411077.68036  21391117.453          39.000         372.576
                  23252334.067          44.000       -3568.983
 122527090.54438  23316130.221          48.000         853.333
 127880290.17137  24334807.913          45.000        1389.128
 07  8 29 13 41  8.0010000  0  7G20G28G17G11G 4G23G 1
 112316231.53738  21373068.374          50.000       -2527.163
 115064208.27228  21895991.246          51.000       -3175.572
 112410717.36138  21391048.831          50.000         352.627
 122195396.14628  23253010.888          49.000       -3578.031
 122526237.76128  23315969.383          48.000         854.156
 127878898.88428  24334542.497          48.000        1393.212
                  25967189.375          33.000       -2264.082
 07  8 29 13 41  9.0010000  0  7G20G28G17G11G 4G23G 1
 112318763.72428  21373551.445          50.000       -2536.018
 115067377.60728  21896595.151          50.000       -3162.723
 112410368.60528  21390982.797          51.000         347.093
 122198980.61828  23253693.064          49.000       -3590.626
 122525380.34628  23315806.925          48.000         862.455
 127877504.57927  24334277.603          43.000        1394.173
                  25967622.147          26.000       -2292.026
 07  8 29 13 41 10.0010000  0  7G20G28G17G11G 4G23G 1
 112321306.97228  21374036.817          50.000       -2550.785
 115070534.22328  21897196.541          48.000       -3154.074
 112410024.32128  21390918.020          50.000         343.042
 122202581.86828  23254379.356          49.000       -3612.471
                  23315642.722          45.000         871.910
                  24334012.780          35.000        1397.912
                  25968061.343          26.000       -2315.061
 07  8 29 13 41 11.0010000  0  7G20G28G17G11G 4G23G 1
 112323860.92828  21374523.222          50.000       -2556.990
 115073681.13427  21897795.768          47.000       -3144.421
 112409682.35128  21390854.309          51.000         342.063
 122206199.39737  23255068.636          44.000       -3622.038
 122523650.65136  23315475.676          39.000         886.068
 127874708.94137  24333748.124          44.000        1380.993
                  25968503.884          26.000       -2305.288
 07  8 29 13 41 12.0010000  0  7G20G28G17G11G 4G23G 1
 112326420.27728  21375010.449          50.000       -2560.356
 115076823.78628  21898393.997          50.000       -3142.554
 112409341.12928  21390789.795          51.000         340.628
 122209825.43037  23255758.666          46.000       -3630.895
                  23315308.676          41.000         882.460
                  24333484.784          37.000        1385.801
                  25968943.868          29.000       -2322.673
 07  8 29 13 41 13.0010000  0  7G20G28G17G11G 4G23G 1
 112328981.51628  21375498.008          50.000       -2560.474
 115079967.11128  21898992.243          50.000       -3142.991
 112409001.57228  21390725.368          52.000         339.129
 122213452.70838  23256448.807          48.000       -3626.715
                  23315139.496          40.000         880.811
                  24333221.319          33.000        1381.727
                  25969389.973          27.000       -2346.330
 07  8 29 13 41 14.0010000  0  7G20G28G17G11G 4G23G 1
 112331544.67137  21375986.105          47.000       -2566.247
                  21899590.192          48.000       -3141.823
 112408663.10528  21390661.291          51.000         337.728
                  23257139.800          42.000       -3626.570
                  23314970.789          38.000         884.662
                  24332959.669          35.000        1377.549
                  25969838.932          25.000       -2348.501
 07  8 29 13 41 15.0010000  0  7G20G28G17G11G 4G23G 1
 112334108.21838  21376473.926          48.000       -2567.853
 115086267.26428  21900188.522          50.000       -3150.397
 112408326.13128  21390597.282          50.000         335.667
                  23257829.871          41.000       -3622.146
                  23314803.370          38.000         880.864
                  24332699.589          39.000        1371.056
                  25970287.042          27.000       -2332.452
 07  8 29 13 41 16.0010000  0  7G20G28G17G11G 4G23G 1
 112336671.42328  21376961.521          49.000       -2563.244
 115089415.49138  21900787.954          49.000       -3151.290
 112407991.29928  21390533.658          51.000         333.629
                  23258518.893          42.000       -3621.905
                  23314636.525          37.000         872.375
                  24332440.190          34.000        1367.011
                  25970729.496          28.000       -2321.740
 07  8 29 13 41 17.0010000  0  7G20G28G17G11G 4G23G 1
 112339232.02238  21377448.489          49.000       -2559.116
 115092568.87428  21901387.856          50.000       -3156.732
 112407658.24728  21390470.313          51.000         331.880
 122227965.75836  23259208.699          41.000       -3625.528
                  23314469.716          37.000         866.088
                  24332177.921          36.000        1388.044
                  25971170.936          28.000       -2316.797
 07  8 29 13 41 18.0010000  0  7G20G28G17G11G 4G23G 1
 112341789.90628  21377935.437          49.000       -2558.374
                  21901989.223          44.000       -3161.276
 112407327.11828  21390406.916          50.000         330.748
                  23259897.394          37.000       -3612.965
                  23314306.065          33.000         859.898
                  24331912.731          36.000        1390.547
                  25971611.257          29.000       -2317.687
 07  8 29 13 41 19.0010000  0  7G20G28G17G11G 4G23G 1
 112344344.39128  21378421.759          49.000       -2555.242
                  21902592.156          42.000       -3178.732
 112406996.412 8  21390343.781          49.000         330.162
                  23260585.876          38.000       -3609.742
 122516648.89036  23314143.182          39.000         852.403
 127863658.25727  24331645.254          47.000        1390.597
                  25972050.571          33.000       -2306.105
