     2.11           OBSERVATION DATA    M (MIXED)           RINEX VERSION / TYPE
teqc  2007Jun25                         20070903 18:34:45UTCPGM / RUN BY / DATE
MSXP|IAx86-PII|bcc32 5.0|MSWin95->XP|486/DX+                COMMENT
-Unknown-                                                   MARKER NAME
-Unknown-           -Unknown-                               OBSERVER / AGENCY
-Unknown-           U-BLOX              -Unknown-           REC # / TYPE / VERS
-Unknown-           -Unknown-                               ANT # / TYPE
        0.0000        0.0000        0.0000                  APPROX POSITION XYZ
        0.0000        0.0000        0.0000                  ANTENNA: DELTA H/E/N
     1     0                                                WAVELENGTH FACT L1/2
     4    L1    C1    S1    D1                              # / TYPES OF OBSERV
 SNR is mapped to RINEX snr flag value [0-9]                COMMENT
  L1 & L2: min(max(int(snr_dBHz/6), 0), 9)                  COMMENT
  2007     8    29     9    28   16.0020000     GPS         TIME OF FIRST OBS
    14                                                      LEAP SECONDS
                                                            END OF HEADER
 07  8 29  9 28 16.0020000  0  9G19G25G 3G27G11G 8G16S29S37
 107807714.939 8  21114711.258          48.000       -2557.280
 112603754.439 8  22027370.665          50.000       -2508.825
 111599668.232 7  21836296.201          44.000       -3945.778
 116640373.846 8  22795513.855          50.000        -867.521
 114408277.161 8  22370753.449          51.000         882.921
 124681471.83925  23726087.617          33.000         684.655
 123848684.958 7  24167215.987          42.000       -4710.847
 197891446.194 7  37657493.770          44.000       -2048.135
 198224232.260 6  37720822.493          41.000       -2052.010
 07  8 29  9 28 17.0020000  0 10G19G25G 3G27G11G 8G16G22S29S37
 107810270.784 8  21115197.702          48.000       -2553.765
 112606261.591 8  22027847.633          50.000       -2505.227
 111603612.734 7  21837046.772          44.000       -3941.957
 116641240.237 8  22795679.005          50.000        -864.145
 114407392.842 8  22370585.160          51.000         886.769
 124680785.97325  23725956.409          33.000         687.377
 123853393.837 7  24168112.039          43.000       -4706.810
                  24844062.985          26.000       -1425.916
 197893493.172 7  37657883.173          44.000       -2045.208
 198226281.238 6  37721212.316          40.000       -2046.628
 07  8 29  9 28 18.0020000  0  9G19G25G 3G27G11G 8G16S29S37
 107812822.747 8  21115683.255          48.000       -2550.139
 112608765.189 8  22028324.287          50.000       -2501.650
 111607553.249 7  21837796.591          44.000       -3938.423
 116642103.041 8  22795843.265          50.000        -861.113
 114406504.739 8  22370416.313          51.000         890.341
 124680096.52625  23725825.203          34.000         691.284
 123858098.778 7  24169007.272          43.000       -4702.689
 197895536.442 7  37658272.070          44.000       -2040.734
 198228326.326 6  37721601.370          41.000       -2043.013
 07  8 29  9 28 19.0020000  0  9G19G25G 3G27G11G 8G16S29S37
 107815370.980 8  21116168.146          48.000       -2545.877
 112611265.383 8  22028800.033          50.000       -2498.139
 111611489.957 7  21838545.975          44.000       -3934.295
 116642962.397 8  22796006.845          50.000        -857.205
 114405612.995 8  22370246.716          51.000         893.715
 124679403.531 5  23725693.491          33.000         697.564
 123862799.950 7  24169901.580          43.000       -4699.004
 197897575.818 7  37658660.095          45.000       -2036.767
 198230367.470 6  37721989.831          40.000       -2038.558
 07  8 29  9 28 20.0020000  0  9G19G25G 3G27G11G 8G16S29S37
 107817915.588 8  21116652.216          48.000       -2542.877
 112613762.289 8  22029275.221          50.000       -2495.271
 111615422.936 7  21839294.678          44.000       -3930.737
 116643818.421 8  22796169.447          50.000        -854.486
 114404717.732 8  22370076.403          51.000         897.110
 124678707.072 5  23725560.904          33.000         696.836
 123867497.449 7  24170795.277          42.000       -4695.145
 197899611.162 7  37659047.439          44.000       -2032.568
 198232404.698 6  37722377.507          40.000       -2033.177
 07  8 29  9 28 21.0020000  0  9G19G25G 3G27G11G 8G16S29S37
 107820456.391 8  21117135.676          48.000       -2538.495
 112616255.696 8  22029750.183          50.000       -2491.507
 111619352.021 7  21840042.491          44.000       -3926.785
 116644670.941 8  22796331.578          50.000        -850.894
 114403818.761 8  22369905.270          51.000         900.922
 124678007.076 5  23725427.761          33.000         702.849
 123872191.108 7  24171687.944          42.000       -4691.813
 197901642.677 7  37659434.207          45.000       -2028.826
 198234437.673 6  37722764.414          40.000       -2030.089
 07  8 29  9 28 22.0020000  0 10G19G25G 3G27G11G 8G16G22S29S37
 107822993.535 8  21117618.263          48.000       -2535.308
 112618745.772 8  22030224.202          50.000       -2488.287
 111623277.348 7  21840789.711          44.000       -3923.682
 116645520.090 8  22796493.378          50.000        -847.552
 114402916.231 8  22369733.596          51.000         904.653
 124677303.610 5  23725293.727          34.000         706.948
 123876881.054 7  24172580.367          42.000       -4688.258
                  24845461.523          28.000       -1407.902
 197903669.814 7  37659820.068          43.000       -2023.749
 198236466.534 6  37723150.553          39.000       -2029.227
 07  8 29  9 28 23.0020000  0 10G19G25G 3G27G11G 8G16G22S29S37
 107825526.824 8  21118100.187          48.000       -2531.563
 112621232.327 8  22030697.261          50.000       -2484.566
 111627198.710 7  21841536.460          44.000       -3919.052
 116646365.664 8  22796654.445          50.000        -843.851
 114402009.940 8  22369561.102          51.000         908.273
 124676596.486 5  23725159.100          33.000         710.941
 123881567.090 7  24173472.180          42.000       -4682.923
                  24845734.341          29.000       -1404.065
 197905693.083 7  37660204.934          44.000       -2021.078
 198238491.488 6  37723535.943          40.000       -2025.756
 07  8 29  9 28 24.0020000  0 10G19G25G 3G27G11G 8G16G22S29S37
 107828056.428 8  21118581.535          48.000       -2528.125
 112623715.533 8  22031169.762          50.000       -2480.889
 111631116.315 7  21842282.440          44.000       -3915.031
 116647207.856 8  22796814.447          50.000        -840.257
 114401100.073 8  22369388.015          51.000         911.704
 124675885.903 5  23725023.897          33.000         714.364
 123886249.413 7  24174363.189          42.000       -4680.567
                  24846005.866          30.000       -1403.547
 197907712.474 7  37660589.137          43.000       -2015.612
 198240512.428 6  37723920.653          40.000       -2016.894
 07  8 29  9 28 25.0020000  0 10G19G25G 3G27G11G 8G16G22S29S37
 107830582.374 8  21119062.221          48.000       -2523.438
 112626195.396 8  22031641.896          50.000       -2477.594
 111635030.163 7  21843027.444          44.000       -3911.133
 116648046.682 8  22796974.223          50.000        -836.713
 114400186.637 8  22369214.247          51.000         915.514
 124675171.861 5  23724888.101          34.000         716.920
 123890928.017 7  24175253.762          43.000       -4677.034
                  24846275.894          30.000       -1395.127
 197909727.624 7  37660972.537          44.000       -2011.915
 198242529.368 6  37724304.716          40.000       -2016.100
 07  8 29  9 28 26.0020000  0 10G19G25G 3G27G11G 8G16G22S29S37
 107833104.480 8  21119542.243          48.000       -2520.081
 112628671.755 8  22032112.635          50.000       -2474.447
 111638940.079 7  21843771.383          44.000       -3907.714
 116648881.950 8  22797132.916          50.000        -833.402
 114399269.466 8  22369039.694          51.000         919.115
 124674454.150 5  23724751.780          34.000         717.703
 123895602.733 7  24176143.376          42.000       -4672.562
                  24846544.104          29.000       -1394.345
 197911738.538 7  37661355.012          44.000       -2008.454
 198244542.276 6  37724687.645          40.000       -2011.125
 07  8 29  9 28 27.0020000  0 10G19G25G 3G27G11G 8G16G22S29S37
 107835622.863 8  21120021.636          48.000       -2516.536
 112631144.710 8  22032583.268          50.000       -2471.302
 111642846.176 7  21844514.607          44.000       -3903.906
 116649713.792 8  22797291.453          50.000        -830.503
 114398348.676 8  22368864.373          51.000         922.635
 124673732.947 5  23724614.710          34.000         722.061
 123900273.692 7  24177031.959          42.000       -4668.876
                  24846806.660          29.000       -1394.497
 197913745.597 7  37661736.911          45.000       -2005.662
 198246551.328 6  37725069.876          40.000       -2006.673
 07  8 29  9 28 28.0020000  0 10G19G25G 3G27G11G 8G16G22S29S37
 107838137.770 8  21120500.175          48.000       -2513.025
 112633614.514 8  22033053.099          50.000       -2468.011
 111646748.688 7  21845256.801          44.000       -3900.278
 116650542.455 8  22797449.065          49.000        -826.676
 114397424.515 8  22368688.616          51.000         926.097
 124673008.505 5  23724477.153          33.000         729.119
 123904941.147 7  24177920.264          42.000       -4664.954
                  24847065.502          26.000       -1388.193
 197915748.859 7  37662118.009          43.000       -2000.932
 198248556.464 6  37725451.287          39.000       -2002.543
 07  8 29  9 28 29.0020000  0 10G19G25G 3G27G11G 8G16G22S29S37
 107840649.135 7  21120978.103          47.000       -2509.149
 112636081.085 8  22033522.476          50.000       -2464.877
 111650647.554 7  21845998.803          44.000       -3896.991
 116651367.857 8  22797606.065          49.000        -823.638
 114396496.900 8  22368512.003          51.000         929.562
 124672280.670 5  23724338.581          33.000         730.039
 123909604.984 7  24178807.330          42.000       -4661.918
                  24847326.908          26.000       -1383.501
 197917748.624 7  37662498.669          44.000       -1996.729
 198250557.843 6  37725832.139          40.000       -2000.971
 07  8 29  9 28 30.0020000  0 10G19G25G 3G27G11G 8G16G22S29S37
 107843156.926 8  21121454.984          48.000       -2505.795
 112638544.427 8  22033991.417          50.000       -2461.752
 111654542.778 7  21846739.880          44.000       -3893.294
 116652189.993 8  22797762.490          49.000        -820.431
 114395565.826 8  22368334.850          51.000         932.679
 124671549.524 5  23724199.294          33.000         731.867
 123914265.234 7  24179693.889          42.000       -4658.541
                  24847582.644          25.000       -1375.203
 197919744.302 7  37662878.405          43.000       -1992.703
 198252555.768 6  37726212.328          40.000       -1997.363
 07  8 29  9 28 31.0020000  0 10G19G25G 3G27G11G 8G16G22S29S37
 107845661.097 8  21121931.725          48.000       -2501.983
 112641004.465 8  22034459.294          50.000       -2458.251
 111658434.290 7  21847480.382          44.000       -3889.033
 116653008.791 8  22797918.252          49.000        -817.251
 114394631.221 8  22368157.016          51.000         936.319
 124670814.968 5  23724060.008          33.000         736.013
 123918921.794 7  24180580.065          42.000       -4654.407
                  24847806.738          23.000       -1378.571
 197921736.873 7  37663257.669          44.000       -1990.330
 198254549.738 6  37726591.820          40.000       -1991.210
 07  8 29  9 28 32.0020000  0 10G19G25G 3G27G11G 8G16G22S29S37
 107848161.688 7  21122407.577          47.000       -2498.680
 112643461.264 8  22034926.734          50.000       -2455.209
 111662322.155 7  21848220.359          44.000       -3886.039
 116653824.322 8  22798073.648          49.000        -813.528
 114393693.130 8  22367978.188          51.000         939.931
 124670077.009 5  23723920.042          34.000         740.967
 123923574.741 7  24181465.212          42.000       -4651.001
                  24848013.437          25.000       -1375.345
 197923725.120 7  37663635.956          44.000       -1986.777
 198256539.747 6  37726970.509          40.000       -1986.406
 07  8 29  9 28 33.0020000  0 10G19G25G 3G27G11G 8G16G22S29S37
 107850658.929 7  21122883.026          47.000       -2495.496
 112645915.028 8  22035393.703          50.000       -2452.015
 111666206.538 7  21848959.412          44.000       -3882.817
 116654636.768 8  22798228.240          49.000        -810.955
 114392751.799 8  22367799.115          51.000         943.092
 124669335.937 5  23723778.975          34.000         743.942
 123928224.283 7  24182350.497          42.000       -4647.412
                  24848268.005          24.000       -1365.575
 197925710.150 7  37664013.703          44.000       -1981.922
 198258525.973 6  37727348.394          40.000       -1984.927
 07  8 29  9 28 34.0020000  0 10G19G25G 3G27G11G 8G16G22S29S37
 107853152.613 8  21123357.342          48.000       -2491.836
 112648365.569 8  22035860.236          50.000       -2448.828
 111670087.286 7  21849697.628          44.000       -3878.572
 116655445.970 8  22798382.327          49.000        -807.437
 114391807.014 8  22367619.553          51.000         946.672
 124668591.499 5  23723637.473          34.000         748.990
 123932870.239 7  24183234.945          43.000       -4644.626
                  24848529.304          26.000       -1366.320
 197927690.635 7  37664390.664          43.000       -1977.449
 198260508.232 6  37727725.687          39.000       -1980.071
 07  8 29  9 28 35.0020000  0 10G19G25G 3G27G11G 8G16G22S29S37
 107855642.836 7  21123831.082          47.000       -2488.424
 112650812.965 8  22036326.228          50.000       -2445.440
 111673964.459 7  21850435.267          44.000       -3875.203
 116656251.988 8  22798535.908          49.000        -804.358
 114390858.859 8  22367439.067          51.000         950.127
 124667843.789 5  23723495.307          34.000         749.446
 123937512.675 7  24184118.451          42.000       -4640.683
                  24848793.083          27.000       -1363.106
 197929667.243 7  37664766.857          43.000       -1974.035
 198262486.701 6  37728102.334          40.000       -1976.612
 07  8 29  9 28 36.0020000  0 10G19G25G 3G27G11G 8G16G22S29S37
 107858129.667 8  21124304.316          48.000       -2484.951
 112653257.287 8  22036791.399          50.000       -2442.424
 111677838.140 7  21851172.453          44.000       -3871.498
 116657054.911 8  22798688.493          49.000        -801.172
 114389907.409 8  22367257.988          51.000         953.528
 124667092.923 5  23723352.373          34.000         751.270
 123942151.674 7  24185001.626          42.000       -4637.059
                  24849055.117          26.000       -1359.385
 197931640.204 7  37665142.352          43.000       -1971.874
 198264461.287 6  37728478.039          40.000       -1973.190
 07  8 29  9 28 37.0020000  0 10G19G25G 3G27G11G 8G16G22S29S37
 107860613.176 8  21124777.218          48.000       -2481.689
 112655698.618 8  22037256.047          50.000       -2440.076
 111681708.395 7  21851908.714          44.000       -3868.032
 116657854.798 8  22798840.765          49.000        -798.568
 114388952.731 8  22367076.262          51.000         956.226
 124666338.917 5  23723209.178          34.000         754.974
 123946787.302 7  24185883.805          42.000       -4634.110
                  24849316.820          28.000       -1353.716
 197933609.843 7  37665517.079          43.000       -1968.367
 198266432.392 6  37728853.027          39.000       -1971.016
 07  8 29  9 28 38.0020000  0 10G19G25G 3G27G11G 8G16G22S29S37
 107863093.397 8  21125249.160          48.000       -2478.757
 112658137.008 8  22037720.486          50.000       -2436.762
 111685575.273 7  21852644.783          43.000       -3864.922
 116658651.710 8  22798992.601          49.000        -795.018
 114387994.892 8  22366894.310          51.000         959.762
 124665581.876 5  23723065.406          34.000         758.192
 123951419.620 7  24186764.903          42.000       -4629.783
                  24849579.881          29.000       -1356.966
 197935575.891 7  37665890.986          45.000       -1964.175
 198268399.872 6  37729227.686          41.000       -1963.961
 07  8 29  9 28 39.0020000  0 10G19G25G 3G27G11G 8G16G22S29S37
 107865570.290 8  21125720.632          48.000       -2474.845
 112660572.384 8  22038184.157          50.000       -2433.442
 111689438.713 7  21853380.101          43.000       -3861.189
 116659445.571 8  22799143.616          49.000        -792.129
 114387033.808 8  22366711.660          51.000         962.948
 124664821.685 5  23722920.781          35.000         762.207
 123956048.566 7  24187645.285          42.000       -4626.263
                  24849843.747          29.000       -1351.458
 197937538.017 7  37666264.388          44.000       -1959.728
 198270363.474 6  37729601.278          40.000       -1962.726
 07  8 29  9 28 40.0020000  0 10G19G25G 3G27G11G 8G16G22S29S37
 107868043.923 8  21126191.562          48.000       -2471.938
 112663004.819 8  22038647.287          50.000       -2430.506
 111693298.794 7  21854114.408          43.000       -3857.891
 116660236.463 8  22799294.003          49.000        -789.184
 114386069.562 8  22366527.893          51.000         965.755
 124664058.408 5  23722775.334          34.000         765.746
 123960674.179 7  24188525.196          42.000       -4624.061
                  24850107.665          31.000       -1350.220
 197939496.793 7  37666637.300          44.000       -1956.555
 198272323.859 6  37729974.104          40.000       -1958.250
 07  8 29  9 28 41.0020000  0 10G19G25G 3G27G11G 8G16G22S29S37
 107870514.080 8  21126661.532          48.000       -2468.470
 112665434.098 8  22039109.684          50.000       -2427.897
 111697155.300 7  21854848.103          43.000       -3855.487
 116661024.177 8  22799443.919          49.000        -786.254
 114385101.945 8  22366344.056          51.000         968.737
 124663291.931 5  23722629.747          35.000         766.138
 123965296.295 7  24189404.462          42.000       -4620.088
                  24850370.415          33.000       -1344.453
 197941452.116 7  37667009.445          44.000       -1953.495
 198274280.521 6  37730346.528          40.000       -1954.751
 07  8 29  9 28 42.0020000  0 10G19G25G 3G27G11G 8G16G22S29S37
 107872980.981 8  21127131.049          48.000       -2465.163
 112667860.446 8  22039571.418          50.000       -2424.892
 111701008.456 7  21855581.101          43.000       -3851.411
 116661808.927 8  22799593.573          49.000        -782.860
 114384131.172 8  22366159.329          51.000         972.653
 124662522.364 5  23722483.272          35.000         771.162
 123969915.106 7  24190283.361          42.000       -4616.547
 130590965.15325  24850634.490          34.000       -1342.974
 197943403.991 7  37667380.822          43.000       -1949.344
 198276233.828 6  37730718.480          40.000       -1952.313
 07  8 29  9 28 43.0020000  0 10G19G25G 3G27G11G 8G16G22S29S37
 107875444.682 8  21127600.112          48.000       -2462.285
 112670283.930 8  22040032.820          51.000       -2421.837
 111704858.313 7  21856313.418          43.000       -3847.657
 116662590.780 8  22799742.233          50.000        -780.249
 114383157.308 8  22365973.974          51.000         975.722
 124661749.867 5  23722336.290          35.000         774.242
 123974530.678 7  24191161.614          42.000       -4613.292
 130592310.31135  24850915.631          34.000       -1339.847
 197945352.296 7  37667751.483          45.000       -1946.388
 198278184.232 6  37731089.543          40.000       -1949.003
 07  8 29  9 28 44.0020000  0 10G19G25G 3G27G11G 8G16G22S29S37
 107877905.127 8  21128067.989          48.000       -2458.731
 112672704.467 8  22040493.629          51.000       -2418.798
 111708704.810 7  21857045.229          43.000       -3845.209
 116663369.658 8  22799890.369          49.000        -777.086
 114382180.283 8  22365787.869          51.000         978.873
 124660974.213 5  23722188.418          34.000         776.722
 123979142.944 7  24192039.483          42.000       -4609.735
 130593648.22825  24851169.656          34.000       -1335.678
 197947297.027 7  37668121.587          44.000       -1941.526
 198280131.072 6  37731460.065          40.000       -1944.488
 07  8 29  9 28 45.0020000  0 10G19G25G 3G27G11G 8G16G22S29S37
 107880362.306 8  21128535.830          48.000       -2455.782
 112675122.090 8  22040953.461          51.000       -2416.437
 111712547.968 7  21857776.430          43.000       -3841.318
 116664145.572 8  22800037.824          49.000        -774.187
 114381200.090 8  22365601.501          51.000         981.713
 124660195.606 5  23722040.092          34.000         779.620
 123983751.878 7  24192916.742          42.000       -4607.442
 130594983.24225  24851430.991          33.000       -1333.096
 197949237.851 7  37668491.009          45.000       -1939.318
 198282074.414 6  37731830.010          40.000       -1942.284
 07  8 29  9 28 46.0020000  0 10G19G25G 3G27G11G 8G16G22S29S37
 107882816.450 8  21129002.764          48.000       -2452.324
 112677536.991 8  22041413.135          51.000       -2413.436
 111716387.987 7  21858506.915          43.000       -3837.320
 116664918.738 8  22800185.297          49.000        -771.037
 114380216.956 8  22365414.175          50.000         985.148
 124659414.135 5  23721891.191          34.000         783.161
 123988357.750 7  24193793.459          42.000       -4603.907
 130596315.39125  24851688.260          34.000       -1331.479
 197951175.773 7  37668859.785          44.000       -1935.544
 198284014.115 6  37732198.998          40.000       -1935.949
 07  8 29  9 28 47.0020000  0 10G19G25G 3G27G11G 8G16G22S29S37
 107885267.426 8  21129469.123          48.000       -2449.476
 112679949.034 8  22041872.356          50.000       -2410.686
 111720224.728 7  21859236.562          43.000       -3834.751
 116665689.040 8  22800331.915          49.000        -769.071
 114379230.770 8  22365226.638          50.000         987.781
 124658629.707 5  23721742.010          33.000         787.149
 123992960.393 7  24194669.426          43.000       -4601.200
 130597644.54525  24851942.285          33.000       -1328.200
 197953109.950 7  37669227.794          44.000       -1932.658
 198285950.092 6  37732567.442          40.000       -1934.988
 07  8 29  9 28 48.0020000  0 10G19G25G 3G27G11G 8G16G22S29S37
 107887715.362 8  21129934.818          48.000       -2446.348
 112682358.373 8  22042331.281          51.000       -2408.093
 111724058.346 7  21859966.069          43.000       -3831.680
 116666456.598 8  22800478.236          50.000        -766.061
 114378241.626 8  22365037.898          50.000         990.967
 124657842.430 5  23721592.236          33.000         788.464
 123997559.952 7  24195544.643          43.000       -4597.788
 130598970.96525  24852195.122          33.000       -1325.510
 197955040.655 7  37669595.261          43.000       -1931.166
 198287882.732 6  37732935.364          40.000       -1930.760
 07  8 29  9 28 49.0020000  0 10G19G25G 3G27G11G 8G16G22S29S37
 107890160.180 8  21130400.181          48.000       -2443.543
 112684764.934 8  22042788.791          51.000       -2405.270
 111727888.770 7  21860694.774          43.000       -3828.138
 116667221.320 8  22800623.667          50.000        -763.241
 114377249.480 8  22364849.053          50.000         993.739
 124657052.355 5  23721441.153          33.000         790.976
 124002156.376 7  24196419.546          43.000       -4594.739
 130600294.46125  24852447.331          33.000       -1321.172
 197956968.304 7  37669962.206          43.000       -1926.515
 198289812.110 6  37733302.815          40.000       -1926.715
 07  8 29  9 28 50.0020000  0 10G19G25G 3G27G11G 8G16G22S29S37
 107892601.781 8  21130864.917          48.000       -2439.789
 112687168.588 8  22043246.093          51.000       -2402.047
 111731715.855 7  21861422.868          44.000       -3824.879
 116667983.122 8  22800768.540          50.000        -760.659
 114376254.211 8  22364659.771          50.000         997.217
 124656259.168 5  23721290.053          33.000         795.210
 124006749.518 7  24197293.559          43.000       -4590.670
                  24852698.789          31.000       -1322.201
 197958892.609 7  37670328.471          45.000       -1921.923
 198291738.001 6  37733669.044          40.000       -1922.193
 07  8 29  9 28 51.0020000  0 10G19G25G 3G27G11G 8G16G22S29S37
 107895040.319 8  21131328.745          48.000       -2437.206
 112689569.515 8  22043703.429          51.000       -2399.759
 111735539.806 7  21862150.823          44.000       -3822.247
 116668742.158 8  22800913.012          50.000        -757.378
 114375255.989 8  22364470.036          50.000         999.582
 124655463.149 5  23721138.585          33.000         795.656
 124011339.575 7  24198166.891          43.000       -4588.555
                  24852949.027          30.000       -1317.413
 197960813.455 7  37670693.932          44.000       -1917.962
 198293660.588 6  37734034.854          41.000       -1920.765
 07  8 29  9 28 52.0020000  0 10G19G25G 3G27G11G 8G16G22S29S37
 107897475.740 8  21131792.241          48.000       -2433.803
 112691967.643 8  22044159.963          51.000       -2396.847
 111739360.512 7  21862877.747          43.000       -3819.042
 116669498.364 8  22801057.186          50.000        -754.290
 114374254.727 8  22364279.429          50.000        1002.638
 124654664.20635  23720985.688          32.000         799.461
 124015926.458 7  24199039.717          43.000       -4584.947
                  24853198.863          31.000       -1314.096
 197962731.073 7  37671059.009          43.000       -1915.890
 198295579.886 6  37734400.367          40.000       -1917.198
 07  8 29  9 28 53.0020000  0 10G19G25G 3G27G11G 8G16G22S29S37
 107899908.065 8  21132255.144          48.000       -2430.710
 112694363.007 8  22044615.467          51.000       -2393.714
 111743178.045 7  21863604.202          44.000       -3814.584
 116670251.754 8  22801200.663          50.000        -751.775
 114373250.485 8  22364088.420          50.000        1006.564
 124653862.43635  23720832.407          31.000         803.767
 124020510.197 7  24199912.020          43.000       -4582.351
                  24853444.092          29.000       -1310.980
 197964645.077 7  37671423.161          44.000       -1912.503
 198297495.868 6  37734765.147          40.000       -1914.906
 07  8 29  9 28 54.0020000  0 10G19G25G 3G27G11G 8G16G22S29S37
 107902337.360 8  21132717.663          49.000       -2427.531
 112696755.660 8  22045070.745          51.000       -2390.793
 111746992.417 7  21864330.062          43.000       -3812.416
 116671002.429 8  22801343.494          50.000        -748.995
 114372243.317 8  22363896.643          50.000        1009.155
 124653057.79225  23720679.071          31.000         801.986
 124025090.900 7  24200783.904          43.000       -4578.205
                  24853692.795          29.000       -1304.285
 197966556.283 7  37671787.052          44.000       -1910.308
 198299408.699 6  37735129.300          41.000       -1911.775
 07  8 29  9 28 55.0020000  0 10G19G25G 3G27G11G 8G16G22S29S37
 107904763.680 8  21133179.624          49.000       -2424.754
 112699145.658 8  22045525.376          51.000       -2388.694
 111750803.781 7  21865055.486          44.000       -3809.235
 116671750.416 8  22801485.627          50.000        -746.812
 114371233.285 8  22363704.552          50.000        1011.878
 124652250.39825  23720525.826          32.000         808.952
 124029668.552 7  24201655.456          44.000       -4575.607
                  24853939.959          29.000       -1307.275
 197968463.732 7  37672150.123          43.000       -1906.017
 198301318.087 6  37735492.702          40.000       -1907.274
 07  8 29  9 28 56.0020000  0 10G19G25G 3G27G11G 8G16G22S29S37
 107907186.966 8  21133640.887          48.000       -2421.937
 112701532.963 8  22045979.990          51.000       -2385.558
 111754611.994 7  21865780.090          44.000       -3805.369
 116672495.676 8  22801627.411          50.000        -743.865
 114370220.329 8  22363511.589          50.000        1015.190
 124651440.25025  23720371.479          33.000         811.089
 124034243.147 7  24202526.188          43.000       -4572.793
                  24854186.811          25.000       -1304.091
 197970367.976 7  37672512.373          45.000       -1902.278
 198303224.467 6  37735855.528          41.000       -1905.937
 07  8 29  9 28 57.0020000  0 10G19G25G 3G27G11G 8G16G22S29S37
 107909607.327 8  21134101.068          48.000       -2418.677
 112703917.656 8  22046433.679          51.000       -2383.701
 111758417.139 7  21866504.589          44.000       -3803.483
 116673238.276 8  22801768.497          50.000        -740.839
 114369204.519 8  22363318.712          50.000        1017.522
 124650627.31625  23720216.436          33.000         816.176
 124038814.728 7  24203396.013          43.000       -4570.421
                  24854435.899          24.000       -1294.229
 197972269.101 7  37672874.012          43.000       -1899.178
 198305127.896 6  37736217.638          40.000       -1903.095
 07  8 29  9 28 58.0020000  0 10G19G25G 3G27G11G 8G16G22S29S37
 107912024.779 8  21134560.882          48.000       -2415.993
 112706299.750 8  22046887.368          51.000       -2380.701
 111762219.332 7  21867228.111          44.000       -3801.252
 116673978.276 8  22801908.816          49.000        -738.236
 114368185.949 8  22363125.086          50.000        1020.432
 124649811.73125  23720061.393          33.000         820.557
 124043383.385 7  24204264.738          43.000       -4568.352
                  24854682.241          25.000       -1300.648
 197974167.043 7  37673235.286          43.000       -1895.840
 198307027.815 6  37736579.210          39.000       -1895.990
 07  8 29  9 28 59.0020000  0  9G19G25G 3G27G11G 8G16S29S37
 107914439.350 7  21135020.190          47.000       -2413.203
 112708679.315 8  22047339.784          50.000       -2378.033
 111766018.539 7  21867951.023          43.000       -3797.340
 116674715.697 8  22802048.977          49.000        -735.885
 114367164.564 8  22362930.918          50.000        1022.876
 124648993.37025  23719905.526          32.000         817.534
 124047949.116 7  24205133.481          42.000       -4564.062
 197976061.867 7  37673595.861          43.000       -1892.734
 198308924.556 6  37736940.255          39.000       -1894.130
 07  8 29  9 29  0.0020000  0  9G19G25G 3G27G11G 8G16S29S37
 107916850.974 8  21135479.307          48.000       -2410.337
 112711056.253 8  22047792.408          50.000       -2375.435
 111769814.705 7  21868673.707          43.000       -3794.667
 116675450.458 8  22802188.457          49.000        -733.519
 114366140.354 8  22362736.210          50.000        1026.054
 124648172.41025  23719749.575          32.000         820.206
 124052511.868 7  24206001.438          42.000       -4561.288
 197977953.601 7  37673955.720          43.000       -1890.888
 198310817.947 6  37737300.429          40.000       -1891.802
 07  8 29  9 29  1.0020000  0  9G19G25G 3G27G11G 8G16S29S37
 107919259.772 8  21135937.725          48.000       -2406.995
 112713430.678 8  22048244.073          50.000       -2372.949
 111773607.963 7  21869395.693          44.000       -3791.591
 116676182.691 8  22802327.798          49.000        -730.627
 114365113.416 8  22362541.187          50.000        1028.674
 124647348.83835  23719592.716          32.000         824.468
 124057071.749 7  24206869.431          43.000       -4557.845
 197979841.870 7  37674315.109          44.000       -1886.234
 198312708.199 6  37737660.044          40.000       -1889.182
 07  8 29  9 29  2.0020000  0  9G19G25G 3G27G11G 8G16S29S37
 107921665.574 8  21136395.637          48.000       -2403.951
 112715802.449 8  22048695.529          50.000       -2370.777
 111777398.119 7  21870116.965          43.000       -3788.181
 116676912.219 8  22802466.581          49.000        -728.368
 114364083.576 8  22362345.222          50.000        1031.246
 124646522.38525  23719435.194          30.000         826.191
 124061628.574 7  24207736.830          42.000       -4555.427
 197981726.823 7  37674673.869          44.000       -1883.304
 198314595.433 6  37738019.415          39.000       -1885.301
 07  8 29  9 29  3.0020000  0 10G19G25G 3G27G11G 8G16G22S29S37
 107924068.468 8  21136853.427          48.000       -2401.446
 112718171.636 8  22049146.391          50.000       -2367.916
 111781185.257 7  21870837.555          43.000       -3785.526
 116677639.142 8  22802604.805          49.000        -725.619
 114363050.932 8  22362148.612          49.000        1034.160
                  23719271.756          31.000         828.423
 124066182.462 7  24208603.828          43.000       -4552.372
                  24856015.601          25.000       -1282.709
 197983608.867 7  37675032.088          43.000       -1881.479
 198316479.152 6  37738377.704          40.000       -1882.067
 07  8 29  9 29  4.0020000  0 10G19G25G 3G27G11G 8G16G22S29S37
 107926468.629 8  21137310.101          48.000       -2398.794
 112720538.417 8  22049596.695          50.000       -2365.578
 111784969.592 7  21871557.744          43.000       -3782.438
 116678363.619 8  22802742.889          49.000        -723.351
 114362015.661 8  22361951.862          50.000        1036.901
                  23719107.376          29.000         832.698
 124070733.563 7  24209470.110          43.000       -4549.551
                  24856272.085          23.000       -1282.841
 197985487.926 7  37675389.539          43.000       -1877.410
 198318359.478 6  37738735.609          40.000       -1880.573
 07  8 29  9 29  5.0020000  0 10G19G25G 3G27G11G 8G16G22S29S37
 107928866.074 8  21137766.320          49.000       -2395.803
 112722902.795 8  22050046.493          51.000       -2363.007
 111788751.089 7  21872277.654          44.000       -3779.320
 116679085.678 8  22802879.997          49.000        -720.937
 114360977.773 8  22361754.501          50.000        1039.382
                  23718943.311          30.000         835.939
 124075281.910 7  24210336.148          43.000       -4547.083
                  24856519.338          25.000       -1278.843
 197987364.197 7  37675746.537          44.000       -1873.823
 198320237.027 6  37739092.660          40.000       -1875.237
 07  8 29  9 29  6.0020000  0  9G19G25G 3G27G11G 8G16S29S37
 107931260.600 8  21138221.999          48.000       -2392.725
 112725264.585 8  22050495.942          51.000       -2360.128
 111792529.595 7  21872996.866          44.000       -3776.281
 116679805.109 8  22803016.703          49.000        -717.772
 114359937.070 8  22361556.459          50.000        1042.319
                  23718778.686          30.000         837.695
 124079827.294 7  24211201.401          43.000       -4543.455
 197989237.340 7  37676103.186          43.000       -1870.621
 198322111.398 6  37739449.535          40.000       -1873.168
 07  8 29  9 29  7.0020000  0  9G19G25G 3G27G11G 8G16S29S37
 107933652.482 8  21138677.119          48.000       -2390.206
 112727624.038 8  22050944.849          51.000       -2358.417
 111796305.347 7  21873715.729          44.000       -3773.719
 116680522.177 8  22803152.990          49.000        -715.688
 114358893.812 8  22361358.348          50.000        1044.774
                  23718613.259          30.000         840.830
 124084369.983 7  24212065.397          43.000       -4540.970
 197991107.277 7  37676459.137          44.000       -1866.865
 198323982.960 6  37739805.782          39.000       -1868.988
 07  8 29  9 29  8.0020000  0  9G19G25G 3G27G11G 8G16S29S37
 107936041.588 8  21139131.663          49.000       -2387.349
 112729981.063 8  22051393.146          50.000       -2355.642
 111800078.218 7  21874433.911          44.000       -3770.295
 116681236.777 8  22803289.347          49.000        -713.118
 114357847.898 8  22361159.766          50.000        1047.593
                  23718446.907          30.000         842.021
 124088909.853 7  24212929.097          43.000       -4537.792
 197992974.267 7  37676814.425          43.000       -1862.693
 198325851.586 6  37740161.436          40.000       -1868.530
 07  8 29  9 29  9.0020000  0  9G19G25G 3G27G11G 8G16S29S37
 107938427.973 8  21139586.033          49.000       -2384.572
 112732335.675 8  22051841.356          50.000       -2353.346
 111803848.253 7  21875151.692          44.000       -3768.394
 116681948.937 8  22803424.831          49.000        -710.570
 114356799.346 8  22360960.101          50.000        1050.295
                  23718283.505          30.000         847.912
 124093446.941 7  24213792.377          43.000       -4535.329
 197994838.216 7  37677169.188          43.000       -1863.100
 198327717.100 6  37740516.445          40.000       -1862.385
 07  8 29  9 29 10.0020000  0 10G19G25G 3G27G11G 8G16G22S29S37
 107940811.587 8  21140039.740          49.000       -2382.092
 112734687.941 8  22052288.484          50.000       -2351.254
 111807615.329 7  21875868.984          43.000       -3765.236
 116682658.828 8  22803559.879          49.000        -708.821
 114355748.122 8  22360759.686          49.000        1052.898
 124639582.56935  23718124.063          34.000         848.612
 124097980.949 7  24214655.501          44.000       -4531.734
                  24857574.995          29.000       -1265.227
 197996698.734 7  37677523.255          43.000       -1858.117
 198329579.391 6  37740870.999          40.000       -1860.879
 07  8 29  9 29 11.0020000  0 10G19G25G 3G27G11G 8G16G22S29S37
 107943193.206 7  21140492.661          47.000       -2380.756
 112737038.824 8  22052735.279          50.000       -2350.453
 111811379.497 7  21876584.339          43.000       -3762.426
 116683367.848 8  22803695.624          50.000        -708.986
 114354694.293 8  22360559.935          51.000        1054.923
                  23717988.805          36.000         845.616
 124102510.463 7  24215517.945          45.000       -4526.710
                  24857821.426          26.000       -1265.913
 197998555.759 7  37677876.693          43.000       -1853.941
 198331437.50836  37741224.543          40.000       -1853.654
 07  8 29  9 29 12.0020000  0 10G19G25G 3G27G11G 8G16G22S29S37
 107945572.865 8  21140945.355          48.000       -2378.385
 112739388.109 8  22053182.617          49.000       -2347.748
 111815140.878 7  21877300.026          44.000       -3760.618
 116684075.965 8  22803830.445          49.000        -707.286
 114353637.318 8  22360357.147          50.000        1059.293
 124638101.61136  23717842.259          38.000         847.286
 124107035.410 7  24216379.447          44.000       -4521.621
                  24858068.348          28.000       -1261.770
 198000408.361 6  37678229.224          41.000       -1849.284
 198333292.119 6  37741577.248          39.000       -1852.546
 07  8 29  9 29 13.0020000  0 10G19G25G 3G27G11G 8G16G22S29S37
 107947950.486 7  21141397.892          47.000       -2377.152
 112741734.783 8  22053629.553          50.000       -2344.426
 111818900.347 7  21878015.415          43.000       -3758.990
 116684782.215 8  22803965.075          48.000        -704.674
 114352576.802 7  22360154.865          47.000        1061.855
 124637252.44126  23717682.242          41.000         851.421
 124111557.046 7  24217240.126          44.000       -4522.759
                  24858311.850          29.000       -1257.704
 198002256.870 6  37678580.759          41.000       -1848.103
 198335142.182 7  37741929.238          42.000       -1848.112
 07  8 29  9 29 14.0020000  0 10G19G25G 3G27G11G 8G16G22S29S37
 107950326.526 8  21141850.272          49.000       -2375.036
 112744078.720 8  22054075.180          51.000       -2341.448
 111822657.57937  21878730.578          42.000       -3756.935
 116685486.228 8  22804099.861          50.000        -702.055
 114351512.10636  22359952.341          41.000        1070.560
 124636401.70227  23717519.624          46.000         852.678
 124116076.617 6  24218100.354          41.000       -4519.114
 130632579.14935  24858553.380          34.000       -1253.945
 198004102.052 6  37678931.652          40.000       -1838.247
 198336988.741 6  37742280.651          40.000       -1846.377
 07  8 29  9 29 15.0020000  0 10G19G25G 3G27G11G 8G16G22S29S37
 107952700.550 8  21142303.002          49.000       -2372.586
 112746419.093 8  22054520.109          49.000       -2338.972
 111826414.96627  21879444.991          47.000       -3756.431
 116686186.952 8  22804232.973          50.000        -699.016
                  22359749.970          40.000        1066.409
 124635548.35227  23717358.053          47.000         855.753
 124120593.60137  24218958.486          44.000       -4517.890
 130633832.81335  24858794.627          32.000       -1259.026
 198005943.803 6  37679282.068          40.000       -1843.858
 198338832.00236  37742631.385          39.000       -1841.182
 07  8 29  9 29 16.0020000  0 10G19G25G 3G27G11G 8G16G22S29S37
 107955071.791 8  21142754.161          48.000       -2369.587
 112748755.780 8  22054964.934          50.000       -2335.402
 111830171.00928  21880159.386          49.000       -3754.264
 116686883.799 8  22804365.823          49.000        -694.683
 117500203.49238  22359545.298          48.000        1072.334
 124634690.95328  23717194.354          50.000         859.396
 124125111.30427  24219818.154          45.000       -4517.677
 130635084.30136  24859035.407          37.000       -1255.444
 198007782.738 6  37679631.685          39.000       -1837.357
 198340673.872 6  37742981.558          40.000       -1840.991
 07  8 29  9 29 17.0020000  0 10G19G25G 3G27G11G 8G16G22S29S37
 107957439.635 8  21143204.221          49.000       -2365.202
 112751090.154 8  22055409.515          50.000       -2331.624
 111833923.54928  21880872.665          51.000       -3750.213
 116687577.407 8  22804497.067          48.000        -691.956
 117499130.57627  22359340.921          46.000        1072.173
 124633829.55527  23717031.213          47.000         863.420
 124129627.76336  24220678.172          39.000       -4511.953
 130636338.87037  24859273.238          43.000       -1251.095
 198009620.07736  37679981.300          36.000       -1839.110
 198342513.959 6  37743331.593          40.000       -1838.079
 07  8 29  9 29 18.0020000  0 10G19G25G 3G27G11G 8G16G22S29S37
 107959804.481 8  21143654.734          49.000       -2363.668
 112753422.413 8  22055853.676          51.000       -2331.226
 111837673.00928  21881586.118          51.000       -3748.079
 116688268.503 7  22804628.730          47.000        -688.511
 117498056.16227  22359136.458          46.000        1073.592
 124632965.04528  23716869.311          48.000         865.577
 124134141.50025  24221538.190          35.000       -4508.607
 130637591.23037  24859510.666          45.000       -1248.387
 198011457.051 6  37680330.847          39.000       -1834.465
 198344352.019 6  37743681.418          41.000       -1836.851
 07  8 29  9 29 19.0020000  0 10G19G25G 3G27G11G 8G16G22S29S37
 107962167.048 8  21144103.781          49.000       -2361.750
 112755752.072 8  22056297.122          49.000       -2328.491
 111841420.44828  21882299.065          50.000       -3746.979
 116688957.010 7  22804759.502          46.000        -688.751
 117496978.78437  22358930.565          46.000        1079.933
 124632098.265 7  23716705.455          46.000         868.986
 124138649.69635  24222396.619          35.000       -4508.657
 130638841.88327  24859746.453          46.000       -1249.200
 198013290.147 6  37680679.625          40.000       -1831.601
 198346186.955 7  37744030.511          42.000       -1834.267
 07  8 29  9 29 20.0020000  0 10G19G25G 3G27G11G 8G16G22S29S37
 107964527.229 8  21144552.811          48.000       -2358.666
 112758079.186 7  22056739.625          47.000       -2325.288
 111845165.61228  21883011.803          51.000       -3743.408
 116689643.175 7  22804889.385          45.000        -685.965
 117495898.43237  22358725.001          47.000        1080.108
 124631228.984 6  23716537.776          41.000         870.211
 124143158.99836  24223255.135          37.000       -4507.837
 130640090.60727  24859984.649          46.000       -1248.175
 198015120.071 7  37681027.497          43.000       -1827.580
 198348019.000 7  37744379.289          42.000       -1831.450
 07  8 29  9 29 21.0020000  0 10G19G25G 3G27G11G 8G16G22S29S37
 107966884.336 8  21145001.580          49.000       -2355.532
 112760404.378 8  22057182.146          48.000       -2323.190
 111848907.34428  21883723.721          50.000       -3739.452
 116690327.457 8  22805019.198          48.000        -683.381
 117494815.99227  22358518.985          46.000        1082.070
 124630357.583 7  23716371.860          42.000         871.594
 124147665.37727  24224111.157          43.000       -4504.072
 130641335.83937  24860223.020          43.000       -1245.097
 198016947.009 7  37681375.297          42.000       -1827.078
 198349847.932 7  37744727.144          43.000       -1826.663
 07  8 29  9 29 22.0020000  0 10G19G25G 3G27G11G 8G16G22S29S37
 107969239.163 7  21145449.039          46.000       -2353.977
 112762728.115 8  22057624.318          50.000       -2322.152
 111852646.12928  21884435.289          48.000       -3737.246
 116691010.004 7  22805148.906          47.000        -681.131
 117493731.65728  22358313.475          48.000        1084.693
 124629484.590 7  23716206.224          45.000         874.168
 124152168.66526  24224968.906          41.000       -4499.460
 130642578.42827  24860458.705          45.000       -1239.834
 198018771.458 6  37681722.472          40.000       -1820.041
 198351674.198 7  37745074.509          42.000       -1823.726
 07  8 29  9 29 23.0020000  0 10G19G25G 3G27G11G 8G16G22S29S37
 107971590.888 8  21145896.953          48.000       -2349.660
 112765050.481 8  22058065.965          49.000       -2321.919
 111856380.88728  21885146.318          49.000       -3731.806
 116691690.717 8  22805278.632          48.000        -679.607
 117492646.34228  22358106.934          49.000        1084.960
 124628608.776 7  23716039.192          45.000         877.795
 124156669.07227  24225825.974          42.000       -4499.438
 130643817.13827  24860694.529          46.000       -1235.857
 198020593.989 6  37682069.469          38.000       -1822.046
 198353498.376 6  37745421.558          41.000       -1825.496
 07  8 29  9 29 24.0020000  0 10G19G25G 3G27G11G 8G16G22S29S37
 107973939.166 8  21146342.562          48.000       -2347.148
 112767371.789 8  22058507.631          49.000       -2320.058
 111860111.42128  21885856.735          49.000       -3728.992
 116692369.182 7  22805407.468          47.000        -677.410
 117491561.17028  22357900.691          49.000        1086.725
 124627729.558 7  23715871.164          45.000         880.699
 124161167.39727  24226682.973          42.000       -4496.413
 130645051.68927  24860930.457          46.000       -1233.392
 198022416.063 6  37682416.048          41.000       -1820.638
 198355321.707 6  37745768.366          39.000       -1821.277
 07  8 29  9 29 25.0020000  0 10G19G25G 3G27G11G 8G16G22S29S37
 107976284.909 8  21146788.504          48.000       -2344.522
 112769690.954 8  22058949.018          50.000       -2318.199
 111863839.772 8  21886566.261          49.000       -3726.831
 116693045.438 7  22805536.042          47.000        -675.293
 117490473.65628  22357693.906          48.000        1088.539
 124626848.000 7  23715702.823          45.000         882.525
 124165663.13827  24227539.029          42.000       -4493.543
 130646283.92127  24861165.390          46.000       -1231.154
 198024235.361 7  37682762.384          42.000       -1816.666
 198357142.387 6  37746114.684          40.000       -1818.192
 07  8 29  9 29 26.0020000  0 10G19G25G 3G27G11G 8G16G22S29S37
 107978628.460 8  21147234.846          48.000       -2342.666
 112772008.010 8  22059389.218          50.000       -2315.629
 111867565.496 8  21887275.840          49.000       -3725.009
 116693719.595 7  22805664.232          45.000        -672.977
 117489383.44928  22357485.395          48.000        1091.315
 124625964.584 7  23715534.132          45.000         884.421
 124170156.37426  24228393.654          38.000       -4491.438
 130647514.36927  24861398.892          44.000       -1229.932
 198026051.409 6  37683107.673          40.000       -1814.373
 198358960.225 7  37746460.548          42.000       -1815.904
 07  8 29  9 29 27.0020000  0 10G19G25G 3G27G11G 8G16G22S29S37
 107980969.962 8  21147681.956          50.000       -2340.433
 112774322.427 8  22059829.313          49.000       -2313.151
 111871289.315 7  21887984.180          47.000       -3723.128
 116694391.737 8  22805792.981          48.000        -670.035
 117488290.04828  22357278.192          49.000        1095.570
 124625079.478 8  23715366.454          48.000         886.097
 124174646.92627  24229248.279          44.000       -4489.643
 130648743.21427  24861634.784          43.000       -1228.288
 198027863.420 6  37683452.753          41.000       -1808.721
 198360774.599 6  37746805.837          41.000       -1812.437
 07  8 29  9 29 28.0020000  0 10G19G25G 3G27G11G 8G16G22S29S37
 107983309.476 8  21148127.531          48.000       -2338.273
 112776634.431 8  22060269.182          49.000       -2310.798
 111875011.195 8  21888691.979          48.000       -3721.023
 116695061.934 8  22805921.606          49.000        -669.590
 117487193.10428  22357068.948          49.000        1098.931
 124624192.973 7  23715197.449          47.000         887.895
 124179134.36627  24230101.858          47.000       -4485.818
 130649970.36736  24861870.886          40.000       -1228.790
 198029671.464 6  37683796.925          40.000       -1804.921
 198362585.023 6  37747150.392          41.000       -1810.355
 07  8 29  9 29 29.0020000  0 11G19G25G 3G27G11G 8G16G22G18S29S37
 107985647.122 8  21148572.931          49.000       -2335.908
 112778944.612 8  22060708.754          50.000       -2308.661
 111878730.843 8  21889399.447          49.000       -3717.187
 116695730.869 8  22806048.994          50.000        -668.340
 117486093.32927  22356858.918          42.000        1101.003
 124623305.432 8  23715029.177          48.000         889.379
 124183618.38027  24230955.176          45.000       -4481.250
 130651195.62637  24862103.551          42.000       -1224.976
                  26349806.432          25.000       -2615.750
 198031476.363 6  37684140.416          39.000       -1803.134
 198364391.927 6  37747494.250          41.000       -1806.303
 07  8 29  9 29 30.0020000  0 11G19G25G 3G27G11G 8G16G22G18S29S37
 107987982.521 8  21149017.476          49.000       -2334.620
 112781253.168 8  22061147.836          49.000       -2307.991
 111882447.644 8  21890106.933          49.000       -3714.507
 116696398.494 8  22806175.944          49.000        -668.123
 117484995.92936  22356650.266          38.000        1102.548
 124622416.613 7  23714859.945          45.000         889.986
 124188098.57727  24231807.689          42.000       -4479.207
 130652417.25437  24862334.001          44.000       -1217.605
                  26350300.064          23.000       -2615.636
 198033277.902 6  37684483.156          41.000       -1800.508
 198366194.87236  37747837.235          39.000       -1803.421
 07  8 29  9 29 31.0020000  0 11G19G25G 3G27G11G 8G16G22G18S29S37
 107990316.261 8  21149461.131          49.000       -2332.873
 112783560.810 8  22061587.966          51.000       -2306.440
 111886161.801 8  21890813.388          49.000       -3713.059
 116697065.655 8  22806303.662          49.000        -668.688
 117483890.05936  22356440.376          41.000        1105.409
 124621527.772 8  23714690.502          49.000         886.316
 124192575.335 7  24232659.350          45.000       -4472.307
 130653635.29236  24862564.450          40.000       -1214.702
                  26350799.634          24.000       -2602.268
 198035076.174 6  37684825.443          41.000       -1798.187
 198367995.02827  37748179.785          42.000       -1797.297
 07  8 29  9 29 32.0020000  0 11G19G25G 3G27G11G 8G16G22G18S29S37
 107992649.501 8  21149904.419          48.000       -2333.222
 112785868.617 8  22062027.240          51.000       -2308.805
 111889873.143 8  21891519.721          50.000       -3710.162
 116697734.828 8  22806430.489          48.000        -670.445
 117482782.58337  22356227.346          46.000        1109.645
 124620642.137 7  23714521.182          47.000         883.591
 124197043.854 7  24233509.563          46.000       -4462.461
                  24862797.396          36.000       -1206.194
                  26351296.943          28.000       -2613.795
 198036869.026 6  37685166.667          41.000       -1791.715
 198369789.570 7  37748521.009          42.000       -1792.491
 07  8 29  9 29 33.0020000  0 11G19G25G 3G27G11G 8G16G22G18S29S37
 107994981.903 7  21150347.847          47.000       -2331.581
 112788176.551 8  22062466.584          50.000       -2307.105
 111893581.500 8  21892225.671          52.000       -3706.723
 116698405.840 8  22806557.666          48.000        -671.157
 117481672.23727  22356016.077          47.000        1113.551
 124619759.184 7  23714353.468          46.000         884.183
 124201505.218 7  24234358.919          45.000       -4457.311
 130656075.24437  24863024.475          44.000       -1206.676
                  26351788.012          28.000       -2608.594
 198038656.447 6  37685506.948          39.000       -1787.223
 198371577.673 7  37748861.238          42.000       -1785.891
 07  8 29  9 29 34.0020000  0 11G19G25G 3G27G11G 8G16G22G18S29S37
 107997312.950 8  21150791.222          48.000       -2331.177
 112790483.592 8  22062905.841          50.000       -2307.480
 111897287.075 8  21892930.766          51.000       -3704.428
 116699077.100 8  22806685.227          48.000        -671.634
 117480558.74627  22355804.407          46.000        1114.811
 124618877.377 7  23714185.718          47.000         881.954
 124205960.616 7  24235206.653          45.000       -4452.237
 130657280.09937  24863252.708          42.000       -1203.332
                  26352274.716          29.000       -2609.125
 198040438.959 6  37685846.322          40.000       -1781.989
 198373360.754 6  37749200.734          41.000       -1781.824
 07  8 29  9 29 35.0020000  0 11G19G25G 3G27G11G 8G16G22G18S29S37
 107999642.085 7  21151233.953          47.000       -2328.219
 112792789.289 8  22063344.227          50.000       -2303.928
 111900990.248 8  21893635.232          51.000       -3702.380
 116699747.247 8  22806812.824          48.000        -669.662
                  22355592.283          41.000        1116.944
 124617994.447 7  23714017.743          46.000         884.483
 124210413.050 7  24236053.983          45.000       -4451.916
 130658482.55337  24863481.201          43.000       -1203.366
                  26352770.252          27.000       -2602.680
 198042218.812 6  37686184.822          40.000       -1780.486
 198375140.788 6  37749539.461          41.000       -1779.602
 07  8 29  9 29 36.0020000  0 11G19G25G 3G27G11G 8G16G22G18S29S37
 108001968.714 7  21151676.544          47.000       -2325.677
 112795092.844 8  22063782.647          50.000       -2302.333
 111904690.975 8  21894339.645          51.000       -3700.256
 116700414.971 8  22806939.845          48.000        -666.150
                  22355380.577          37.000        1118.440
 124617108.862 7  23713849.280          46.000         887.427
 124214863.771 7  24236900.774          44.000       -4448.707
 130659680.55736  24863710.569          37.000       -1199.014
 138487335.17735  26353263.820          34.000       -2587.497
 198043996.780 6  37686523.166          39.000       -1776.285
 198376918.976 6  37749877.838          40.000       -1780.135
 07  8 29  9 29 37.0020000  0 11G19G25G 3G27G11G 8G16G22G18S29S37
 108004292.088 7  21152118.681          47.000       -2321.373
 112797393.528 8  22064220.456          49.000       -2299.753
 111908389.147 8  21895043.222          51.000       -3697.029
 116701078.987 8  22807066.134          48.000        -661.573
 117477206.00435  22355169.025          35.000        1111.332
 124616218.935 7  23713679.945          46.000         893.128
 124219313.958 7  24237747.423          44.000       -4448.942
 130660879.18736  24863938.051          41.000       -1196.361
                  26353755.508          29.000       -2605.370
 198045773.189 6  37686861.212          39.000       -1775.399
 198378696.201 6  37750215.989          40.000       -1777.082
 07  8 29  9 29 38.0020000  0 11G19G25G 3G27G11G 8G16G22G18S29S37
 108006611.788 7  21152559.981          47.000       -2318.293
 112799690.996 8  22064657.446          49.000       -2295.763
 111912084.674 8  21895746.764          51.000       -3693.344
 116701738.415 8  22807191.516          48.000        -656.066
 117476083.69635  22354955.438          33.000        1120.419
 124615323.297 7  23713509.546          46.000         899.263
 124223764.932 7  24238594.142          45.000       -4449.909
 130662075.21237  24864165.779          43.000       -1188.277
                  26354245.408          28.000       -2597.386
 198047549.511 6  37687199.169          41.000       -1778.106
 198380472.957 6  37750554.000          40.000       -1777.201
 07  8 29  9 29 39.0020000  0 11G19G25G 3G27G11G 8G16G22G18S29S37
 108008927.890 8  21153000.776          48.000       -2313.306
 112801985.280 8  22065094.505          49.000       -2292.470
 111915777.750 8  21896449.345          51.000       -3691.859
 116702393.189 8  22807316.356          48.000        -652.519
                  22354742.982          33.000        1120.004
 124614421.880 7  23713337.803          46.000         904.026
 124228217.014 7  24239441.104          44.000       -4454.580
                  24864396.500          41.000       -1203.300
                  26354738.310          27.000       -2589.719
 198049325.810 6  37687537.233          40.000       -1775.252
 198382249.884 6  37750892.029          40.000       -1773.580
 07  8 29  9 29 40.0020000  0 11G19G25G 3G27G11G 8G16G22G18S29S37
 108011240.484 7  21153441.063          47.000       -2311.009
 112804276.407 8  22065530.745          50.000       -2289.432
 111919468.634 8  21897151.595          50.000       -3689.413
 116703043.285 8  22807440.028          49.000        -647.747
 117473852.88435  22354531.085          33.000        1122.918
 124613514.663 7  23713165.066          46.000         910.392
 124232670.682 7  24240288.313          43.000       -4453.088
 130664470.58336  24864622.099          41.000       -1196.683
                  26355228.365          27.000       -2589.534
 198051101.602 6  37687875.156          40.000       -1776.959
 198384027.071 6  37751230.475          40.000       -1777.250
 07  8 29  9 29 41.0020000  0 11G19G25G 3G27G11G 8G16G22G18S29S37
 108013549.784 8  21153880.513          48.000       -2307.253
 112806564.461 8  22065965.692          50.000       -2286.500
 111923157.144 8  21897854.264          51.000       -3687.216
 116703689.251 8  22807562.617          48.000        -643.596
                  22354318.438          31.000        1127.840
 124612602.461 7  23712991.368          45.000         914.425
 124237124.714 7  24241136.044          43.000       -4453.825
 130665667.14827  24864849.057          43.000       -1195.239
                  26355720.932          30.000       -2588.088
 198052876.409 7  37688213.116          42.000       -1772.961
 198385803.678 6  37751568.677          39.000       -1779.809
 07  8 29  9 29 42.0020000  0 11G19G25G 3G27G11G 8G16G22G18S29S37
 108015855.960 8  21154320.068          48.000       -2304.638
 112808849.705 8  22066400.518          50.000       -2283.584
 111926843.384 8  21898555.362          51.000       -3685.201
 116704331.553 8  22807684.944          49.000        -640.815
                  22354102.335          30.000        1128.761
 124611685.924 7  23712816.658          45.000         918.622
 124241578.569 7  24241983.671          43.000       -4453.336
 130666862.65127  24865077.987          43.000       -1194.141
                  26356211.859          28.000       -2587.795
 198054650.042 6  37688550.534          41.000       -1770.705
 198387579.091 6  37751906.410          39.000       -1773.804
 07  8 29  9 29 43.0020000  0 11G19G25G 3G27G11G 8G16G22G18S29S37
 108018159.636 7  21154757.929          47.000       -2302.773
 112811132.680 8  22066834.645          50.000       -2281.561
 111930527.399 8  21899256.879          51.000       -3682.466
 116704971.167 8  22807806.451          49.000        -638.608
                  22353884.434          29.000        1127.339
 124610766.362 7  23712642.419          46.000         921.504
 124246031.246 7  24242829.851          42.000       -4450.385
 130668056.56626  24865303.130          40.000       -1193.431
                  26356710.204          27.000       -2584.907
 198056421.786 6  37688887.673          41.000       -1769.731
 198389352.685 6  37752243.880          38.000       -1774.132
 07  8 29  9 29 44.0020000  0 11G19G25G 3G27G11G 8G16G22G18S29S37
 108020460.982 7  21155195.948          47.000       -2300.215
 112813413.645 8  22067268.790          49.000       -2279.824
 111934209.045 8  21899957.541          51.000       -3680.833
 116705608.660 8  22807927.766          49.000        -636.777
                  22353667.145          30.000        1130.867
 124609844.553 7  23712467.673          46.000         923.127
 124250481.791 7  24243676.397          42.000       -4449.141
 130669248.58727  24865529.826          42.000       -1191.494
                  26357208.391          25.000       -2581.459
 198058191.133 6  37689224.481          41.000       -1765.788
 198391124.054 6  37752580.915          38.000       -1771.341
 07  8 29  9 29 45.0020000  0 11G19G25G 3G27G11G 8G16G22G18S29S37
 108022760.383 7  21155633.129          47.000       -2298.588
 112815693.006 8  22067702.655          50.000       -2278.220
 111937888.394 8  21900657.610          51.000       -3678.068
 116706244.744 8  22808049.045          48.000        -635.445
                  22353449.977          31.000        1130.933
 124608921.428 7  23712291.897          46.000         923.493
 124254929.510 7  24244523.553          43.000       -4446.373
 130670438.49827  24865757.815          44.000       -1188.220
                  26357702.496          23.000       -2577.014
 198059957.826 6  37689560.677          41.000       -1765.232
 198392892.614 6  37752917.409          38.000       -1766.338
 07  8 29  9 29 46.0020000  0 10G19G25G 3G27G11G 8G16G22S29S37
 108025058.120 7  21156070.031          47.000       -2296.655
 112817971.128 8  22068136.224          50.000       -2276.999
 111941565.567 8  21901357.225          51.000       -3675.437
 116706879.957 8  22808170.081          48.000        -633.823
 117467050.07435  22353236.459          32.000        1137.804
 124607997.658 7  23712115.441          45.000         924.378
 124259374.067 7  24245369.611          43.000       -4443.038
 130671625.93127  24865984.319          43.000       -1187.203
 198061721.682 6  37689896.403          41.000       -1762.083
 198394657.946 6  37753253.396          40.000       -1764.677
 07  8 29  9 29 47.0020000  0 11G19G25G 3G27G11G 8G16G22G18S29S37
 108027353.891 8  21156507.421          48.000       -2294.950
 112820247.670 8  22068569.601          50.000       -2275.612
 111945240.444 8  21902056.212          50.000       -3672.956
 116707513.770 8  22808290.801          48.000        -633.583
 117465913.86125  22353021.140          34.000        1135.819
 124607072.572 7  23711939.438          46.000         925.557
 124263815.815 7  24246214.918          44.000       -4440.948
 130672811.12727  24866210.301          44.000       -1182.871
                  26358651.124          29.000       -2577.994
 198063482.364 6  37690231.397          41.000       -1757.646
 198396420.524 6  37753588.703          39.000       -1762.713
 07  8 29  9 29 48.0020000  0 11G19G25G 3G27G11G 8G16G22G18S29S37
 108029648.032 8  21156944.218          48.000       -2293.501
 112822522.916 8  22069002.105          49.000       -2274.100
 111948913.155 8  21902754.867          50.000       -3671.148
 116708146.642 8  22808410.824          49.000        -632.346
 117464775.40635  22352805.248          34.000        1141.728
 124606146.659 7  23711763.366          47.000         926.179
 124268254.539 7  24247059.824          45.000       -4437.179
                  24866435.323          40.000       -1180.146
 138518263.77435  26359149.172          32.000       -2574.576
 198065240.172 6  37690566.110          41.000       -1755.515
 198398180.204 6  37753923.628          38.000       -1754.770
 07  8 29  9 29 49.0020000  0 11G19G25G 3G27G11G 8G16G22G18S29S37
 108031940.393 8  21157380.300          48.000       -2291.331
 112824796.830 8  22069434.818          48.000       -2272.742
 111952583.487 8  21903453.400          51.000       -3669.068
 116708778.622 8  22808530.935          48.000        -631.137
                  22352589.075          30.000        1143.271
 124605220.107 7  23711586.700          46.000         926.864
 124272689.776 7  24247903.997          44.000       -4434.319
 130675172.95937  24866658.704          43.000       -1177.812
                  26359642.558          30.000       -2579.636
 198066995.087 6  37690900.144          41.000       -1750.310
 198399936.723 6  37754257.904          39.000       -1756.402
 07  8 29  9 29 50.0020000  0 11G19G25G 3G27G11G 8G16G22G18S29S37
 108034230.667 8  21157816.382          48.000       -2289.256
 112827069.041 8  22069867.322          48.000       -2271.943
 111956251.560 8  21904151.689          51.000       -3667.130
 116709408.927 8  22808651.115          48.000        -629.848
 117462506.69935  22352371.890          31.000        1143.453
 124604291.848 7  23711410.174          45.000         929.294
 124277122.562 7  24248747.175          44.000       -4430.726
 130676351.15427  24866883.026          43.000       -1177.565
 138523438.90535  26360133.959          34.000       -2571.750
 198068747.287 6  37691233.460          41.000       -1752.192
 198401690.592 6  37754591.639          38.000       -1757.063
 07  8 29  9 29 51.0020000  0 11G19G25G 3G27G11G 8G16G22G18S29S37
 108036518.721 8  21158251.800          48.000       -2287.100
 112829339.303 8  22070299.391          49.000       -2269.247
 111959917.574 8  21904848.895          51.000       -3664.803
 116710036.979 8  22808770.702          48.000        -627.005
 117461362.15725  22352155.526          33.000        1148.353
 124603361.132 7  23711233.510          46.000         932.473
 124281554.003 7  24249590.387          44.000       -4431.360
 130677528.21926  24867108.203          38.000       -1179.014
                  26360623.753          29.000       -2569.156
 198070497.813 6  37691566.620          41.000       -1750.248
 198403442.753 6  37754924.801          38.000       -1751.622
 07  8 29  9 29 52.0020000  0 11G19G25G 3G27G11G 8G16G22G18S29S37
 108038804.444 8  21158686.922          48.000       -2284.646
 112831607.477 8  22070731.337          49.000       -2266.704
 111963581.428 8  21905547.079          52.000       -3662.651
 116710662.728 8  22808889.469          48.000        -624.394
                  22351937.868          33.000        1142.878
 124602427.788 7  23711055.832          46.000         934.928
 124285984.035 7  24250433.408          44.000       -4428.942
 130678703.04936  24867330.469          38.000       -1174.566
 138528590.98436  26361114.384          36.000       -2567.565
 198072246.619 6  37691899.398          40.000       -1745.930
 198405193.009 6  37755257.542          39.000       -1750.734
 07  8 29  9 29 53.0020000  0 11G19G25G 3G27G11G 8G16G22G18S29S37
 108041087.860 7  21159121.591          47.000       -2282.487
 112833873.635 8  22071162.655          50.000       -2265.177
 111967243.315 8  21906243.378          49.000       -3661.694
 116711286.048 8  22809007.975          48.000        -622.487
                  22351719.672          31.000        1147.168
 124601491.729 7  23710877.265          45.000         936.748
 124290413.020 7  24251276.201          44.000       -4428.122
                  24867553.568          35.000       -1178.400
 138531157.28525  26361603.950          33.000       -2565.391
 198073993.856 6  37692231.806          41.000       -1746.905
 198406941.397 6  37755590.370          40.000       -1749.781
 07  8 29  9 29 54.0020000  0 11G19G25G 3G27G11G 8G16G22G18S29S37
 108043369.012 8  21159555.526          48.000       -2279.763
 112836137.727 8  22071593.309          51.000       -2263.018
 111970903.186 8  21906940.097          48.000       -3657.964
 116711906.983 8  22809126.323          49.000        -620.163
                  22351499.939          32.000        1146.638
 124600552.938 7  23710698.349          46.000         940.086
 124294840.876 6  24252119.239          41.000       -4427.129
                  24867779.603          30.000       -1172.289
 138533723.09536  26362089.992          37.000       -2563.415
 198075739.016 7  37692564.024          42.000       -1745.948
 198408687.890 6  37755922.554          39.000       -1744.276
 07  8 29  9 29 55.0020000  0 11G19G25G 3G27G11G 8G16G22G18S29S37
 108045647.933 8  21159989.200          48.000       -2277.781
 112838399.924 8  22072024.156          51.000       -2261.616
 111974561.047 8  21907634.320          49.000       -3656.362
 116712525.644 8  22809243.624          48.000        -617.487
 117456812.13936  22351288.199          36.000        1149.083
 124599611.657 7  23710518.211          44.000         942.062
 124299267.536 7  24252961.178          43.000       -4425.448
 130682230.79736  24868001.692          40.000       -1172.343
 138536286.88925  26362576.836          35.000       -2562.602
 198077482.149 6  37692895.615          41.000       -1740.525
 198410433.011 6  37756254.685          40.000       -1742.394
 07  8 29  9 29 56.0020000  0 11G19G25G 3G27G11G 8G16G22G18S29S37
 108047924.727 7  21160421.792          47.000       -2275.714
 112840660.276 8  22072453.711          50.000       -2259.538
 111978216.942 8  21908329.764          49.000       -3654.316
 116713142.232 8  22809361.222          48.000        -615.036
 117455658.96525  22351070.457          35.000        1153.903
 124598668.045 7  23710338.877          45.000         945.142
 124303692.808 7  24253803.396          45.000       -4424.071
 130683400.76326  24868221.479          39.000       -1168.655
 138538849.08635  26363061.988          31.000       -2559.807
 198079223.674 6  37693226.994          41.000       -1742.835
 198412176.497 6  37756586.379          38.000       -1741.008
 07  8 29  9 29 57.0020000  0 11G19G25G 3G27G11G 8G16G22G18S29S37
 108050199.798 7  21160854.156          47.000       -2274.727
 112842919.240 8  22072883.353          50.000       -2258.389
 111981870.732 8  21909025.226          50.000       -3652.510
 116713757.687 8  22809478.714          49.000        -615.238
                  22350849.711          30.000        1153.109
 124597723.338 7  23710159.384          46.000         944.797
 124308115.453 7  24254644.881          44.000       -4420.263
 130684568.78326  24868444.353          40.000       -1167.972
 138541409.21225  26363549.304          31.000       -2557.051
 198080962.521 7  37693557.939          42.000       -1738.390
 198413917.102 6  37756917.551          39.000       -1736.821
 07  8 29  9 29 58.0020000  0 11G19G25G 3G27G11G 8G16G22G18S29S37
 108052474.157 8  21161287.654          48.000       -2274.528
 112845178.066 8  22073313.466          50.000       -2259.031
 111985522.539 8  21909720.443          50.000       -3650.426
 116714374.006 8  22809596.223          49.000        -617.194
 117453351.93735  22350629.904          32.000        1141.161
 124596780.195 7  23709980.396          46.000         941.754
 124312533.371 7  24255485.566          45.000       -4413.479
 130685733.86236  24868666.897          41.000       -1164.164
                  26364035.834          30.000       -2555.238
 198082697.915 6  37693888.203          41.000       -1734.002
 198415653.861 6  37757248.287          38.000       -1732.968
 07  8 29  9 29 59.0020000  0 11G19G25G 3G27G11G 8G16G22G18S29S37
 108054747.834 7  21161720.403          47.000       -2272.396
 112847436.826 8  22073743.126          50.000       -2258.185
 111989171.884 8  21910415.312          50.000       -3647.689
 116714991.762 8  22809713.768          49.000        -616.989
                  22350411.173          30.000        1161.500
 124595839.426 7  23709801.513          46.000         941.876
 124316945.154 7  24256325.132          44.000       -4408.713
 130686895.04127  24868888.045          43.000       -1161.662
                  26364519.623          33.000       -2557.359
 198084428.709 6  37694217.683          41.000       -1729.676
 198417385.531 6  37757577.626          38.000       -1729.425
 07  8 29  9 30  0.0020000  0 11G19G25G 3G27G11G 8G16G22G18S29S37
 108057019.710 8  21162152.698          48.000       -2270.762
 112849694.225 8  22074173.204          49.000       -2256.536
 111992819.069 8  21911109.744          50.000       -3645.718
 116715608.247 8  22809831.052          49.000        -615.156
                  22350191.247          29.000        1159.416
 124594897.379 7  23709622.091          47.000         942.844
 124321354.484 7  24257164.471          44.000       -4408.574
 130688054.10027  24869108.304          42.000       -1154.880
                  26365004.984          30.000       -2555.861
 198086157.063 6  37694546.671          41.000       -1729.945
 198419114.706 6  37757906.389          39.000       -1727.719
 07  8 29  9 30  1.0020000  0 11G19G25G 3G27G11G 8G16G22G18S29S37
 108059289.415 8  21162584.801          48.000       -2268.541
 112851949.757 8  22074602.202          48.000       -2253.564
 111996464.360 8  21911803.199          50.000       -3643.948
 116716222.500 8  22809948.091          49.000        -612.472
                  22349973.820          29.000        1165.589
 124593952.947 7  23709442.425          45.000         946.598
 124325762.587 7  24258002.779          42.000       -4407.908
 130689212.00727  24869328.944          43.000       -1157.480
                  26365492.002          27.000       -2557.502
 198087883.296 6  37694874.877          41.000       -1725.019
 198420841.997 6  37758235.169          38.000       -1726.841
 07  8 29  9 30  2.0020000  0 11G19G25G 3G27G11G 8G16G22G18S29S37
 108061556.614 8  21163016.625          48.000       -2266.022
 112854202.926 8  22075030.937          48.000       -2251.779
 112000107.788 8  21912496.706          50.000       -3642.627
 116716833.729 8  22810064.258          49.000        -610.129
                  22349752.692          31.000        1168.939
 124593004.803 7  23709262.218          46.000         949.924
 124330170.717 7  24258841.402          44.000       -4408.462
 130690369.14926  24869548.172          40.000       -1155.059
                  26365976.078          26.000       -2538.983
 198089608.819 6  37695203.133          41.000       -1723.978
 198422568.539 6  37758563.774          38.000       -1725.355
 07  8 29  9 30  3.0020000  0 11G19G25G 3G27G11G 8G16G22G18S29S37
 108063821.824 8  21163447.646          48.000       -2264.154
 112856454.305 8  22075459.096          49.000       -2250.014
 112003749.598 8  21913189.568          50.000       -3640.152
 116717442.739 8  22810180.268          49.000        -607.641
                  22349531.405          29.000        1168.786
 124592054.185 7  23709081.452          46.000         952.036
 124334578.175 7  24259680.286          44.000       -4406.934
 130691525.51927  24869769.005          44.000       -1154.374
                  26366459.602          23.000       -2549.359
 198091332.882 7  37695531.267          43.000       -1724.199
 198424293.896 6  37758891.996          39.000       -1723.938
 07  8 29  9 30  4.0020000  0 11G19G25G 3G27G11G 8G16G22G18S29S37
 108066084.908 7  21163877.813          47.000       -2261.768
 112858703.816 8  22075887.116          50.000       -2248.135
 112007389.540 8  21913882.290          50.000       -3639.025
 116718049.556 8  22810295.650          50.000        -605.344
 117446405.99635  22349307.955          34.000        1168.605
 124591101.011 7  23708900.145          46.000         954.517
 124338984.614 7  24260519.118          43.000       -4406.811
 130692680.58427  24869989.017          45.000       -1154.951
                  26366947.684          28.000       -2550.524
 198093055.579 6  37695859.210          41.000       -1721.440
 198426017.942 6  37759220.305          39.000       -1722.192
 07  8 29  9 30  5.0020000  0 10G19G25G 3G27G11G 8G16G22S29S37
 108068345.701 8  21164308.258          48.000       -2259.821
 112860951.289 8  22076315.240          50.000       -2245.902
 112011027.719 8  21914574.506          50.000       -3636.972
 116718653.800 8  22810410.090          49.000        -602.881
 117445236.70526  22349078.189          40.000        1170.692
 124590144.917 7  23708718.716          47.000         958.192
 124343390.766 7  24261357.828          43.000       -4406.415
 130693834.88327  24870208.663          44.000       -1154.110
 198094777.300 6  37696186.822          41.000       -1719.279
 198427741.201 6  37759548.091          39.000       -1720.467
 07  8 29  9 30  6.0020000  0 10G19G25G 3G27G11G 8G16G22S29S37
 108070604.229 7  21164737.900          47.000       -2257.957
 112863196.675 8  22076742.980          50.000       -2244.586
 112014664.053 8  21915266.041          50.000       -3635.236
 116719255.434 8  22810524.738          49.000        -601.014
 117444060.47736  22348830.658          40.000        1172.430
 124589185.761 7  23708536.833          46.000         960.123
 124347796.330 7  24262196.085          43.000       -4404.733
 130694988.21827  24870427.803          44.000       -1153.173
 198096497.298 6  37696513.996          41.000       -1719.286
 198429463.226 6  37759875.892          38.000       -1722.955
 07  8 29  9 30  7.0020000  0 10G19G25G 3G27G11G 8G16G22S29S37
 108072860.973 7  21165167.124          47.000       -2256.101
 112865440.595 8  22077169.778          50.000       -2243.400
 112018298.629 8  21915957.943          50.000       -3633.848
 116719855.481 8  22810639.212          49.000        -599.707
 117442888.16227  22348623.437          43.000        1172.387
 124588224.903 7  23708353.292          45.000         961.200
 124352200.422 7  24263034.045          43.000       -4403.118
 130696140.286 7  24870646.717          45.000       -1151.298
 198098216.089 6  37696841.083          41.000       -1717.388
 198431183.444 6  37760203.609          38.000       -1716.709
 07  8 29  9 30  8.0020000  0 10G19G25G 3G27G11G 8G16G22S29S37
 108075116.615 8  21165596.505          48.000       -2254.806
 112867683.805 8  22077596.174          50.000       -2242.817
 112021931.509 8  21916648.990          50.000       -3631.371
 116720455.225 8  22810753.476          49.000        -599.310
 117441714.26027  22348397.022          46.000        1176.074
 124587263.897 7  23708170.170          45.000         961.033
 124356601.793 7  24263871.343          43.000       -4399.658
 130697290.421 7  24870865.526          43.000       -1149.054
 198099932.148 7  37697167.648          42.000       -1714.260
 198432900.676 6  37760530.522          38.000       -1716.562
 07  8 29  9 30  9.0020000  0 11G19G25G 3G27G11G 8G16G22G18S29S37
 108077371.530 8  21166025.448          48.000       -2255.208
 112869926.777 8  22078022.937          50.000       -2243.438
 112025562.610 8  21917340.525          50.000       -3629.235
 116721055.548 8  22810867.408          48.000        -601.537
 117440538.50228  22348172.577          49.000        1176.968
 124586304.024 7  23707987.482          45.000         958.330
 124360999.226 7  24264708.310          43.000       -4394.532
 130698438.165 7  24871083.428          42.000       -1145.765
                  26369339.816          30.000       -2541.160
 198101644.253 7  37697493.584          42.000       -1711.036
 198434614.449 6  37760856.529          39.000       -1710.091
 07  8 29  9 30 10.0020000  0 11G19G25G 3G27G11G 8G16G22G18S29S37
 108079626.148 8  21166454.689          48.000       -2253.952
 112872170.114 8  22078449.979          51.000       -2242.709
 112029191.453 8  21918031.223          51.000       -3627.414
 116721657.997 8  22810982.283          49.000        -602.005
 117439360.18828  22347948.081          49.000        1179.384
 124585347.331 7  23707804.900          45.000         956.105
 124365390.236 7  24265544.072          43.000       -4390.072
 130699581.894 7  24871301.331          42.000       -1141.512
                  26369838.702          25.000       -2536.812
 198103351.928 6  37697818.614          40.000       -1704.991
 198436323.055 6  37761181.610          39.000       -1707.587
 07  8 29  9 30 11.0020000  0 11G19G25G 3G27G11G 8G16G22G18S29S37
 108081878.281 8  21166883.146          48.000       -2250.202
 112874411.192 8  22078876.708          50.000       -2238.403
 112032818.395 8  21918721.187          50.000       -3626.566
 116722257.427 8  22811096.200          49.000        -595.979
 117438180.39728  22347724.632          49.000        1180.166
 124584387.145 7  23707622.042          46.000         964.832
 124369780.909 7  24266379.867          46.000       -4391.954
 130700724.928 7  24871519.108          42.000       -1143.908
                  26370328.144          24.000       -2540.787
 198105058.364 6  37698143.258          41.000       -1705.722
 198438030.764 6  37761506.322          39.000       -1711.410
 07  8 29  9 30 12.0020000  0 11G19G25G 3G27G11G 8G16G22G18S29S37
 108084127.170 8  21167311.271          48.000       -2247.338
 112876648.959 8  22079301.883          50.000       -2236.004
 112036444.119 8  21919411.589          50.000       -3624.679
 116722851.663 8  22811209.401          48.000        -592.010
 117437000.20528  22347500.763          50.000        1180.817
 124583420.453 7  23707438.450          45.000         969.506
 124374175.219 7  24267216.272          46.000       -4395.218
 130701869.141 6  24871736.643          41.000       -1144.050
                  26370819.738          24.000       -2528.726
 198106766.359 7  37698468.180          42.000       -1707.165
 198439740.406 6  37761831.630          38.000       -1708.808
 07  8 29  9 30 13.0020000  0 11G19G25G 3G27G11G 8G16G22G18S29S37
 108086373.949 8  21167738.993          48.000       -2245.835
 112878884.826 8  22079726.797          50.000       -2235.283
 112040068.417 8  21920101.588          50.000       -3623.145
 116723443.298 8  22811321.467          48.000        -591.316
 117435819.433 8  22347275.987          50.000        1182.153
 124582450.512 7  23707254.787          46.000         970.440
 124378569.886 7  24268052.260          45.000       -4393.779
 130703013.096 6  24871953.375          41.000       -1143.555
                  26371312.898          24.000       -2531.681
 198108473.632 7  37698793.086          42.000       -1707.704
 198441449.684 6  37762156.868          39.000       -1707.738
 07  8 29  9 30 14.0020000  0 11G19G25G 3G27G11G 8G16G22G18S29S37
 108088619.643 7  21168166.070          47.000       -2244.958
 112881119.988 8  22080152.704          50.000       -2234.583
 112043691.206 7  21920790.505          47.000       -3623.099
 116724034.493 8  22811433.741          48.000        -592.106
 117434636.789 8  22347051.229          49.000        1183.208
 124581480.333 7  23707070.128          46.000         969.083
 124382962.279 7  24268887.743          45.000       -4389.826
 130704155.337 6  24872170.893          39.000       -1139.890
                  26371796.998          22.000       -2540.869
 198110178.834 6  37699117.452          41.000       -1702.592
 198443156.632 6  37762481.688          39.000       -1704.163
 07  8 29  9 30 15.0020000  0 10G19G25G 3G27G11G 8G16G22S29S37
 108090866.048 8  21168593.443          48.000       -2247.679
 112883356.626 8  22080578.645          50.000       -2237.976
 112047312.083 7  21921479.704          42.000       -3617.826
 116724629.396 8  22811546.973          48.000        -597.547
 117433451.683 8  22346825.703          52.000        1185.391
 124580515.201 7  23706885.851          45.000         961.998
 124387346.91736  24269722.216          36.000       -4380.570
                  24872394.258          32.000       -1134.591
 198111878.439 6  37699440.981          39.000       -1697.122
 198444857.741 6  37762805.288          38.000       -1695.571
 07  8 29  9 30 16.0020000  0 10G19G25G 3G27G11G 8G16G22S29S37
 108093113.020 8  21169020.956          48.000       -2246.393
 112885594.608 7  22081004.744          45.000       -2239.194
 112050930.542 8  21922168.045          51.000       -3618.302
 116725228.132 8  22811661.306          49.000        -599.964
 117432263.448 8  22346599.654          49.000        1188.960
 124579555.786 7  23706703.059          46.000         957.161
 124391722.60236  24270554.943          41.000       -4373.953
 130706427.76736  24872606.349          41.000       -1130.657
 198113571.457 6  37699762.993          41.000       -1690.934
 198446551.888 6  37763127.437          38.000       -1692.806
 07  8 29  9 30 17.0020000  0 11G19G25G 3G27G11G 8G16G22G18S29S37
 108095359.303 8  21169448.434          48.000       -2246.500
 112887831.84336  22081430.583          41.000       -2236.444
 112054547.465 8  21922856.421          50.000       -3617.515
 116725827.336 8  22811775.292          49.000        -598.520
 117431073.236 8  22346373.203          49.000        1189.926
 124578597.335 7  23706520.792          46.000         958.823
 124396094.99927  24271386.936          43.000       -4370.584
 130707558.90827  24872819.417          43.000       -1128.581
                  26373452.400          24.000       -2529.552
 198115261.334 6  37700084.671          40.000       -1688.818
 198448242.05336  37763449.237          39.000       -1691.985
 07  8 29  9 30 18.0020000  0 11G19G25G 3G27G11G 8G16G22G18S29S37
 108097605.019 7  21169875.633          47.000       -2245.566
 112890068.09528  22081856.107          49.000       -2236.066
 112058163.770 8  21923544.536          51.000       -3615.847
 116726426.094 8  22811889.608          49.000        -598.127
 117429881.096 7  22346146.161          47.000        1195.803
 124577638.922 7  23706338.262          46.000         958.643
 124400465.31927  24272218.631          44.000       -4369.458
 130708689.41727  24873034.159          43.000       -1130.508
                  26373930.557          32.000       -2519.902
 198116948.937 6  37700405.703          40.000       -1688.256
 198449930.734 7  37763770.306          42.000       -1686.848
 07  8 29  9 30 19.0020000  0 11G19G25G 3G27G11G 8G16G22G18S29S37
 108099850.675 7  21170303.128          47.000       -2245.706
 112892302.65128  22082281.527          50.000       -2231.530
 112061780.808 8  21924232.545          51.000       -3618.583
 116727023.977 8  22812003.576          50.000        -595.941
 117428685.540 7  22345918.539          46.000        1194.161
 124576680.587 8  23706155.855          48.000         958.177
 124404834.42827  24273050.117          47.000       -4369.560
 130709820.93327  24873249.179          45.000       -1133.194
                  26374408.393          29.000       -2528.515
 198118633.796 6  37700726.124          41.000       -1686.103
 198451615.836 7  37764091.006          42.000       -1685.833
 07  8 29  9 30 20.0020000  0 11G19G25G 3G27G11G 8G16G22G18S29S37
 108102096.314 8  21170731.374          50.000       -2245.834
 112894533.30728  22082705.830          50.000       -2228.922
 112065400.132 8  21924921.322          50.000       -3620.628
 116727618.918 8  22812117.057          48.000        -590.358
 117427486.42837  22345690.138          42.000        1204.988
 124575720.880 7  23705973.064          47.000         959.126
 124409204.35727  24273881.723          43.000       -4371.900
 130710956.95536  24873465.838          38.000       -1141.288
                  26374889.182          28.000       -2526.507
 198120314.976 7  37701046.112          43.000       -1677.383
 198453298.018 6  37764410.957          41.000       -1682.997
 07  8 29  9 30 21.0020000  0 11G19G25G 3G27G11G 8G16G22G18S29S37
 108104341.727 8  21171159.463          50.000       -2244.774
 112896759.44628  22083129.227          50.000       -2223.655
 112069022.348 8  21925610.378          51.000       -3622.998
 116728210.206 7  22812229.543          44.000        -586.945
                  22345458.347          35.000        1207.717
 124574758.662 8  23705790.589          48.000         963.222
 124413576.44527  24274713.976          45.000       -4373.500
 130712097.03737  24873682.079          44.000       -1146.616
 138603514.22235  26375371.937          31.000       -2540.514
 198121993.380 6  37701365.452          40.000       -1676.114
 198454977.58036  37764730.611          40.000       -1681.039
 07  8 29  9 30 22.0020000  0 11G19G25G 3G27G11G 8G16G22G18S29S37
 108106586.319 8  21171586.436          49.000       -2243.394
 112898980.08828  22083551.961          50.000       -2217.031
 112072647.681 8  21926300.602          50.000       -3627.015
 116728796.113 8  22812341.138          48.000        -582.754
 117424956.59638  22345226.453          48.000        1212.397
 124573791.821 7  23705606.806          46.000         969.487
 124417953.10027  24275546.855          46.000       -4378.963
 130713246.20235  24873901.406          32.000       -1159.112
                  26375852.223          29.000       -2533.052
 198123669.73036  37701684.651          41.000       -1677.752
 198456657.59617  37765050.212          42.000       -1678.662
 07  8 29  9 30 23.0020000  0 11G19G25G 3G27G11G 8G16G22G18S29S37
 108108829.815 8  21172013.094          49.000       -2242.529
 112901195.03428  22083973.403          51.000       -2212.744
 112076276.419 8  21926990.512          51.000       -3631.213
 116729375.879 8  22812450.798          48.000        -575.925
 117423742.17427  22344997.106          47.000        1216.087
                  23705422.307          39.000         975.233
 124422335.57727  24276381.356          46.000       -4387.325
                  24874124.388          34.000       -1152.264
                  26376329.632          25.000       -2516.555
 198125346.639 7  37702003.937          42.000       -1677.736
 198458337.548 6  37765370.005          40.000       -1680.176
 07  8 29  9 30 24.0020000  0 11G19G25G 3G27G11G 8G16G22G18S29S37
 108111071.813 8  21172439.770          49.000       -2240.275
 112903404.59827  22084394.043          47.000       -2206.197
 112079907.955 8  21927681.436          50.000       -3632.859
 116729949.270 7  22812559.131          44.000        -569.669
 117422524.34827  22344765.980          47.000        1219.793
                  23705238.606          27.000         969.076
 124426724.16337  24277216.365          46.000       -4391.430
                  24874340.684          41.000       -1151.297
                  26376801.269          30.000       -2489.659
 198127022.795 7  37702322.771          44.000       -1676.667
 198460018.375 7  37765689.675          44.000       -1680.676
 07  8 29  9 30 25.0020000  0 11G19G25G 3G27G11G 8G16G22G18S29S37
 108113312.191 8  21172866.097          50.000       -2239.554
 112905609.458 7  22084813.442          45.000       -2203.899
 112083541.259 8  21928372.167          49.000       -3633.948
 116730517.446 7  22812667.097          43.000        -567.685
 117421303.20628  22344534.644          49.000        1223.824
 124570888.40636  23705051.984          38.000         990.941
 124431117.00827  24278052.003          46.000       -4393.285
 130716685.08737  24874558.265          45.000       -1164.601
                  26377275.217          27.000       -2490.644
 198128698.698 7  37702641.621          43.000       -1676.568
 198461699.323 7  37766009.537          45.000       -1681.409
 07  8 29  9 30 26.0020000  0 11G19G25G 3G27G11G 8G16G22G18S29S37
 108115552.311 8  21173292.318          50.000       -2239.847
 112907811.145 7  22085232.371          45.000       -2201.561
 112087176.381 8  21929063.649          49.000       -3635.026
 116731082.977 7  22812774.521          43.000        -564.488
 117420078.47828  22344302.487          49.000        1226.223
 124569902.68827  23704861.479          42.000         988.411
 124435511.20127  24278888.269          46.000       -4394.396
 130717852.81627  24874779.759          47.000       -1169.794
                  26377747.729          27.000       -2503.190
 198130372.794 7  37702960.316          44.000       -1671.761
 198463378.223 7  37766328.965          44.000       -1678.087
 07  8 29  9 30 27.0020000  0 11G19G25G 3G27G11G 8G16G22G18S29S37
 108117792.243 8  21173718.313          50.000       -2239.632
 112910009.863 7  22085650.689          45.000       -2196.803
 112090813.139 8  21929755.497          49.000       -3637.538
 116731646.217 7  22812881.510          43.000        -561.313
 117418850.13628  22344068.673          49.000        1229.793
 124568915.48927  23704672.736          42.000         984.750
 124439906.18327  24279724.798          46.000       -4394.141
 130719023.58027  24875002.475          46.000       -1172.438
                  26378220.654          28.000       -2484.772
 198132043.916 7  37703278.382          43.000       -1670.199
 198465054.819 7  37766647.956          45.000       -1673.526
 07  8 29  9 30 28.0020000  0 11G19G25G 3G27G11G 8G16G22G18S29S37
 108120032.015 8  21174144.447          50.000       -2239.397
 112912206.147 7  22086068.657          45.000       -2195.375
 112094450.889 8  21930448.078          49.000       -3638.331
 116732208.014 7  22812988.410          44.000        -560.687
 117417618.18728  22343834.370          49.000        1234.225
 124567928.04127  23704484.606          42.000         986.777
 124444300.61327  24280560.769          47.000       -4393.173
 130720196.23827  24875226.030          46.000       -1172.831
                  26378683.979          25.000       -2475.266
 198133712.294 7  37703595.751          43.000       -1666.035
 198466728.601 7  37766966.510          45.000       -1673.159
 07  8 29  9 30 29.0020000  0 11G19G25G 3G27G11G 8G16G22G18S29S37
 108122272.273 8  21174570.808          50.000       -2240.245
 112914400.673 7  22086486.625          46.000       -2193.985
 112098089.883 8  21931140.310          49.000       -3639.773
 116732769.304 7  22813095.223          44.000        -560.380
 117416382.81128  22343599.055          49.000        1237.041
                  23704296.964          38.000         986.290
 124448693.67828  24281396.547          48.000       -4391.968
 130721370.35727  24875450.107          46.000       -1174.364
                  26379149.321          26.000       -2481.111
 198135377.152 7  37703912.525          43.000       -1665.180
 198468399.128 7  37767284.297          45.000       -1670.257
 07  8 29  9 30 30.0020000  0 11G19G25G 3G27G11G 8G16G22G18S29S37
 108124512.458 8  21174997.204          50.000       -2239.719
 112916592.621 7  22086903.878          47.000       -2191.626
 112101729.759 8  21931833.294          49.000       -3639.588
 116733329.354 7  22813201.966          44.000        -559.872
 117415143.03428  22343362.851          48.000        1243.079
 124565931.80537  23704108.833          44.000         985.874
 124453085.02428  24282232.047          48.000       -4389.365
 130722545.72637  24875673.958          45.000       -1176.794
                  26379622.388          25.000       -2503.270
 198137037.956 7  37704228.621          43.000       -1656.762
 198470065.677 7  37767601.282          44.000       -1665.239
 07  8 29  9 30 31.0020000  0 11G19G25G 3G27G11G 8G16G22G18S29S37
 108126753.051 8  21175423.513          49.000       -2241.255
 112918783.033 8  22087320.712          48.000       -2190.509
 112105370.208 8  21932526.486          49.000       -3640.602
 116733889.603 7  22813308.569          44.000        -561.165
 117413899.802 7  22343125.704          47.000        1245.547
 124564946.87527  23703921.697          43.000         986.194
 124457473.428 7  24283066.937          47.000       -4385.969
 130723721.64527  24875898.526          43.000       -1173.540
                  26380098.234          25.000       -2513.633
 198138694.811 7  37704544.052          43.000       -1654.588
 198471728.068 7  37767917.622          43.000       -1660.029
 07  8 29  9 30 32.0020000  0 11G19G25G 3G27G11G 8G16G22G18S29S37
 108128993.600 8  21175849.752          49.000       -2241.039
 112920972.508 8  22087737.494          48.000       -2188.890
 112109009.984 8  21933219.120          50.000       -3639.786
 116734450.397 7  22813414.858          45.000        -561.414
                  22342888.154          45.000        1245.979
 124563963.73027  23703734.647          44.000         982.606
 124461857.624 7  24283901.111          47.000       -4382.038
 130724896.06727  24876122.587          45.000       -1171.974
                  26380575.970          26.000       -2557.208
 198140347.308 7  37704858.384          44.000       -1651.306
 198473385.699 7  37768233.002          43.000       -1653.666
 07  8 29  9 30 33.0020000  0 11G19G25G 3G27G11G 8G16G22G18S29S37
 108131234.166 8  21176275.816          49.000       -2240.657
 112923161.647 8  22088153.873          48.000       -2190.196
 112112648.02238  21933911.772          49.000       -3638.894
 116735012.166 7  22813521.724          47.000        -560.655
 117411419.36537  22342650.310          46.000        1252.041
 124562982.57327  23703548.417          45.000         980.910
                  24284734.813          45.000       -4380.792
 130726069.22727  24876345.845          45.000       -1173.423
                  26381060.127          26.000       -2600.970
 198141996.418 6  37705172.263          39.000       -1646.925
 198475039.18935  37768547.821          35.000       -1653.931
 07  8 29  9 30 34.0020000  0  9G19G25G 3G27G11G 8G16G22S29
 108133474.583 8  21176701.968          49.000       -2240.291
 112925349.888 8  22088570.150          49.000       -2185.066
 112116286.66928  21934604.214          51.000       -3638.133
 116735574.062 7  22813628.711          45.000        -561.918
 117410167.36527  22342412.168          47.000        1254.247
 124562002.35327  23703362.222          46.000         977.910
                  24285569.927          27.000       -4384.218
 130727241.59437  24876569.086          42.000       -1171.366
 198143641.35936  37705485.513          41.000       -1643.710
 07  8 29  9 30 35.0020000  0  9G19G25G 3G27G11G 8G16G22S29
 108135714.493 8  21177128.330          49.000       -2240.080
 112927536.355 8  22088986.354          49.000       -2186.379
 112119925.11828  21935296.604          51.000       -3638.729
 116736134.928 8  22813735.925          48.000        -560.608
 117408912.44027  22342173.415          47.000        1256.313
 124561022.01227  23703175.768          46.000         980.541
                  24286408.727          24.000       -4377.126
                  24876792.394          31.000       -1178.621
 198145284.414 7  37705798.029          42.000       -1641.998
 07  8 29  9 30 36.0020000  0  8G19G25G 3G27G11G 8G16S29
 108137953.874 8  21177554.656          50.000       -2239.506
 112929721.148 8  22089402.054          49.000       -2184.023
 112123563.70528  21935989.116          51.000       -3638.590
 116736694.730 8  22813842.320          48.000        -559.435
 117407655.08027  22341933.806          46.000        1257.911
 124560041.05927  23702989.591          47.000         979.125
                  24287243.060          33.000       -4367.592
 198146924.440 7  37706110.233          42.000       -1638.297
 07  8 29  9 30 37.0020000  0  8G19G25G 3G27G11G 8G16S29
 108140192.595 8  21177980.668          49.000       -2239.000
 112931904.432 8  22089817.318          49.000       -2183.084
 112127202.04428  21936681.610          51.000       -3638.041
 116737253.376 7  22813948.609          47.000        -558.441
 117406395.66527  22341694.286          47.000        1261.261
 124559059.368 7  23702802.735          46.000         981.343
                  24288068.783          44.000       -4376.814
 198148562.451 7  37706421.912          43.000       -1636.705
 07  8 29  9 30 38.0020000  0  9G19G25G 3G27G11G 8G16G18S29
 108142430.660 8  21178406.402          49.000       -2237.765
 112934086.344 8  22090232.598          49.000       -2181.355
 112130840.24528  21937374.052          51.000       -3638.998
 116737810.849 7  22814054.707          47.000        -558.216
 117405134.47727  22341454.188          47.000        1260.764
 124558076.829 7  23702615.355          45.000         983.751
                  24288899.659          45.000       -4373.416
 138645967.24235  26383450.375          32.000       -2588.107
 198150198.996 7  37706733.015          42.000       -1635.004
 07  8 29  9 30 39.0020000  0  9G19G25G 3G27G11G 8G16G22S29
 108144667.865 8  21178832.240          50.000       -2236.215
 112936267.193 8  22090647.652          49.000       -2180.492
 112134477.78628  21938065.849          51.000       -3637.332
 116738367.390 8  22814160.717          48.000        -556.462
 117403871.98327  22341213.987          47.000        1262.804
 124557093.375 7  23702428.219          46.000         984.532
 127643394.69737  24289730.412          46.000       -4371.683
 130733097.73736  24877681.469          40.000       -1169.373
 198151834.367 7  37707044.274          43.000       -1636.487
 07  8 29  9 30 40.0020000  0  9G19G25G 3G27G11G 8G16G22S29
 108146904.107 8  21179257.624          49.000       -2236.289
 112938447.469 8  22091062.514          49.000       -2179.718
 112138114.22428  21938758.013          51.000       -3635.399
 116738923.271 8  22814266.449          48.000        -555.477
 117402608.75127  22340973.890          47.000        1264.867
 124556109.249 7  23702240.874          46.000         984.760
                  24290562.493          42.000       -4367.917
 130734270.61637  24877911.111          44.000       -1175.337
 198153468.153 7  37707355.255          42.000       -1633.338
 07  8 29  9 30 41.0020000  0  9G19G25G 3G27G11G 8G16G22S29
 108149139.384 8  21179682.869          49.000       -2234.595
 112940627.326 8  22091477.079          48.000       -2178.748
 112141749.42328  21939449.635          51.000       -3633.660
 116739478.700 8  22814372.633          48.000        -555.193
 117401344.94627  22340733.513          47.000        1264.854
                  23702053.857          39.000         977.956
 127652148.42837  24291396.176          46.000       -4369.735
 130735442.75737  24878133.935          42.000       -1168.698
 198155101.018 7  37707666.114          43.000       -1632.757
 07  8 29  9 30 42.0020000  0  9G19G25G 3G27G11G 8G16G22S29
 108151373.742 8  21180108.306          50.000       -2233.339
 112942806.682 8  22091891.592          49.000       -2178.046
 112145383.58128  21940141.118          51.000       -3633.681
 116740033.512 7  22814477.824          47.000        -554.090
 117400080.55827  22340492.857          47.000        1263.703
 124554141.49137  23701865.049          45.000         986.167
 127656519.17637  24292228.518          46.000       -4367.237
 130736612.72137  24878356.669          43.000       -1171.719
 198156732.479 7  37707976.850          42.000       -1630.819
 07  8 29  9 30 43.0020000  0  9G19G25G 3G27G11G 8G16G22S29
 108153607.356 8  21180533.550          49.000       -2232.757
 112944985.465 8  22092306.453          48.000       -2178.635
 112149017.501 8  21940832.496          50.000       -3631.579
 116740587.723 7  22814583.398          47.000        -552.894
 117398815.892 7  22340252.185          46.000        1266.433
 124553155.28427  23701676.500          44.000         987.470
                  24293059.775          29.000       -4370.818
                  24878579.280          41.000       -1175.041
 198158362.772 7  37708287.134          42.000       -1628.477
 07  8 29  9 30 44.0020000  0  9G19G25G 3G27G11G 8G16G22S29
 108155840.458 8  21180958.498          48.000       -2233.384
 112947163.356 7  22092720.373          47.000       -2177.224
 112152650.547 8  21941523.559          49.000       -3631.906
 116741141.412 7  22814688.308          45.000        -553.653
 117397549.355 7  22340011.110          45.000        1266.427
 124552168.87227  23701488.805          44.000         986.389
 127665262.36837  24293891.820          42.000       -4366.872
                  24878803.086          29.000       -1156.925
 198159991.115 6  37708597.381          41.000       -1628.437
 07  8 29  9 30 45.0020000  0  9G19G25G 3G27G11G 8G16G22S29
 108158073.135 8  21181383.289          49.000       -2232.218
 112949340.657 8  22093134.955          49.000       -2176.785
 112156283.091 8  21942215.059          50.000       -3632.843
 116741694.698 7  22814793.691          47.000        -552.737
 117396281.667 7  22339769.879          47.000        1268.988
 124551182.31127  23701302.001          45.000         987.033
                  24294720.724          30.000       -4362.658
                  24879025.658          35.000       -1171.948
 198161617.60337  37708906.948          43.000       -1628.443
 07  8 29  9 30 46.0020000  0  9G19G25G 3G27G11G 8G16G22S29
 108160305.124 8  21181808.237          50.000       -2231.309
 112951518.096 8  22093549.520          49.000       -2178.207
 112159914.687 8  21942906.490          51.000       -3630.712
 116742247.918 8  22814899.072          48.000        -552.764
 117395014.028 7  22339528.647          46.000        1267.852
 124550195.28337  23701114.934          46.000         986.976
                  24295550.430          39.000       -4363.543
                  24879248.112          31.000       -1174.331
 198163245.212 7  37709216.691          42.000       -1623.408
 07  8 29  9 30 47.0020000  0  8G19G25G 3G27G11G 8G16S29
 108162535.923 8  21182232.539          50.000       -2230.317
 112953695.613 8  22093963.893          49.000       -2177.632
 112163544.477 8  21943597.432          50.000       -3628.248
 116742800.835 8  22815004.350          48.000        -552.726
 117393746.781 7  22339287.502          47.000        1267.438
 124549207.46137  23700926.700          46.000         989.000
 127678334.64737  24296379.402          44.000       -4363.368
 198164871.748 7  37709526.100          43.000       -1625.083
 07  8 29  9 30 48.0020000  0  9G19G25G 3G27G11G 8G16G22S29
 108164765.814 8  21182656.894          50.000       -2229.706
 112955873.151 8  22094377.724          48.000       -2178.080
 112167173.066 8  21944287.937          50.000       -3627.550
 116743353.471 7  22815109.609          47.000        -553.172
 117392479.555 7  22339046.322          47.000        1267.287
 124548219.10527  23700738.603          46.000         988.223
 127682700.46637  24297210.992          45.000       -4364.198
 130743649.30536  24879689.362          40.000       -1164.147
 198166497.855 7  37709835.458          43.000       -1625.918
 07  8 29  9 30 49.0020000  0  9G19G25G 3G27G11G 8G16G22S29
 108166995.098 8  21183081.005          50.000       -2228.559
 112958050.397 8  22094792.028          49.000       -2176.815
 112170800.785 8  21944978.041          50.000       -3626.992
 116743905.821 8  22815214.887          48.000        -552.380
 117391211.894 7  22338805.318          47.000        1268.311
 124547230.25827  23700550.578          45.000         989.001
 127687064.61737  24298040.977          45.000       -4363.688
 130744816.49936  24879909.636          40.000       -1166.121
 198168123.223 7  37710144.763          43.000       -1625.549
 07  8 29  9 30 50.0020000  0  9G19G25G 3G27G11G 8G16G22S29
 108169223.903 8  21183505.098          50.000       -2227.631
 112960227.302 8  22095206.506          49.000       -2176.674
 112174428.080 8  21945668.477          51.000       -3625.703
 116744457.846 8  22815320.147          48.000        -550.524
 117389943.611 8  22338563.964          48.000        1268.304
 124546241.17527  23700362.517          46.000         989.727
 127691428.29927  24298871.502          45.000       -4366.278
 130745983.65536  24880132.650          41.000       -1165.073
 198169747.793 7  37710454.225          42.000       -1625.089
 07  8 29  9 30 51.0020000  0  9G19G25G 3G27G11G 8G16G22S29
 108171452.268 8  21183929.155          49.000       -2227.842
 112962403.772 8  22095620.774          49.000       -2175.167
 112178054.950 8  21946358.546          50.000       -3625.960
 116745009.501 7  22815425.005          47.000        -550.922
 117388674.672 7  22338322.541          47.000        1269.342
 124545251.73427  23700174.264          45.000         989.570
 127695792.89137  24299701.401          45.000       -4362.101
 130747150.96236  24880354.563          41.000       -1168.234
 198171371.564 7  37710763.166          42.000       -1619.670
 07  8 29  9 30 52.0020000  0  9G19G25G 3G27G11G 8G16G22S29
 108173680.153 8  21184353.266          49.000       -2227.164
 112964579.812 8  22096034.972          49.000       -2175.959
 112181681.440 8  21947048.388          51.000       -3626.445
 116745560.700 7  22815529.689          47.000        -551.020
 117387405.183 7  22338080.803          47.000        1270.259
 124544261.76927  23699985.872          45.000         990.342
 127700157.68137  24300530.321          43.000       -4362.447
                  24880577.036          40.000       -1166.810
 198172994.04017  37711072.139          42.000       -1620.487
 07  8 29  9 30 53.0020000  0  9G19G25G 3G27G11G 8G16G22S29
 108175907.763 8  21184777.079          49.000       -2227.637
 112966755.461 8  22096449.049          48.000       -2176.074
 112185307.727 8  21947738.334          50.000       -3626.179
 116746111.727 7  22815634.286          47.000        -551.271
 117386134.823 7  22337839.205          47.000        1269.735
 124543271.86027  23699797.653          45.000         988.429
 127704519.88137  24301361.004          45.000       -4362.057
                  24880799.074          43.000       -1164.371
 198174615.536 7  37711380.659          42.000       -1621.349
 07  8 29  9 30 54.0020000  0  9G19G25G 3G27G11G 8G16G22S29
 108178135.009 8  21185201.137          49.000       -2227.219
 112968930.685 8  22096863.091          49.000       -2174.399
 112188933.650 8  21948428.142          50.000       -3625.384
 116746662.425 7  22815739.075          47.000        -549.664
 117384863.681 7  22337597.066          47.000        1271.761
 124542281.62527  23699609.383          45.000         990.929
 127708881.41627  24302191.495          45.000       -4360.999
 130750648.08636  24881021.129          41.000       -1160.942
 198176236.013 6  37711689.144          41.000       -1619.251
 07  8 29  9 30 55.0020000  0  9G19G25G 3G27G11G 8G16G22S29
 108180362.112 8  21185625.055          49.000       -2226.332
 112971105.618 8  22097277.149          49.000       -2174.242
 112192559.529 8  21949118.402          50.000       -3626.017
 116747212.990 7  22815843.915          47.000        -550.718
 117383591.944 7  22337354.979          46.000        1271.289
 124541291.424 7  23699420.746          45.000         989.390
 127713241.83537  24303021.062          44.000       -4356.587
                  24881242.466          42.000       -1165.810
 198177854.93336  37711997.438          41.000       -1618.924
 07  8 29  9 30 56.0020000  0  9G19G25G 3G27G11G 8G16G22S29
 108182588.885 8  21186048.555          49.000       -2226.316
 112973280.006 8  22097690.702          48.000       -2174.396
 112196185.331 8  21949808.349          50.000       -3626.835
 116747763.015 7  22815948.286          47.000        -548.538
 117382319.474 7  22337112.736          46.000        1274.308
 124540300.715 7  23699232.127          45.000         991.706
 127717602.91836  24303850.802          40.000       -4359.884
 130752976.30937  24881464.222          43.000       -1170.547
 198179474.026 6  37712305.330          41.000       -1617.389
 07  8 29  9 30 57.0020000  0  9G19G25G 3G27G11G 8G16G22S29
 108184815.057 8  21186472.124          49.000       -2225.617
 112975453.346 8  22098104.465          48.000       -2172.057
 112199811.490 8  21950498.296          50.000       -3626.238
 116748311.525 7  22816052.639          45.000        -547.275
 117381046.746 7  22336870.125          46.000        1273.092
 124539308.151 7  23699043.282          44.000         993.833
                  24304681.394          42.000       -4367.406
 130754145.69627  24881687.026          44.000       -1171.095
 198181092.39437  37712613.464          43.000       -1620.943
 07  8 29  9 30 58.0020000  0  9G19G25G 3G27G11G 8G16G22S29
 108187040.039 8  21186895.327          49.000       -2224.339
 112977624.869 8  22098518.140          48.000       -2170.604
 112203438.025 8  21951188.329          49.000       -3627.357
 116748857.259 7  22816156.643          44.000        -543.388
 117379773.500 7  22336627.882          47.000        1273.040
 124538312.243 7  23698853.948          44.000         996.598
                  24305511.153          45.000       -4365.726
 130755317.16437  24881910.824          46.000       -1171.923
 198182712.617 7  37712921.356          44.000       -1620.985
 07  8 29  9 30 59.0020000  0  9G19G25G 3G27G11G 8G16G22S29
 108189263.479 8  21187318.810          49.000       -2222.132
 112979794.217 7  22098931.258          47.000       -2167.565
 112207065.027 8  21951878.224          49.000       -3626.330
 116749399.253 7  22816259.636          43.000        -539.956
 117378500.463 7  22336385.777          47.000        1273.686
 124537311.718 7  23698663.551          44.000        1002.216
 127730692.63427  24306342.810          47.000       -4372.621
 130756491.41037  24882134.588          46.000       -1174.048
 198184334.482 7  37713229.962          43.000       -1624.097
 07  8 29  9 31  0.0020000  0  9G19G25G 3G27G11G 8G16G22S29
 108191485.112 8  21187741.891          49.000       -2220.762
 112981961.757 7  22099343.467          45.000       -2167.122
 112210692.140 8  21952568.188          49.000       -3625.997
 116749937.28237  22816362.453          44.000        -538.592
 117377228.213 8  22336143.934          48.000        1271.978
 124536306.27537  23698471.166          42.000        1011.244
 127735067.52027  24307176.579          46.000       -4377.792
 130757668.28827  24882358.979          44.000       -1177.542
 198185958.407 7  37713539.057          42.000       -1625.668
 07  8 29  9 31  1.0020000  0 10G19G25G 3G27G11G 8G16G22G18S29
 108193704.944 8  21188164.274          50.000       -2218.271
 112984127.948 7  22099754.962          44.000       -2164.702
 112214319.115 8  21953258.536          49.000       -3626.422
 116750472.40126  22816464.190          41.000        -532.946
 117375957.286 8  22335902.999          49.000        1270.452
 124535296.09536  23698279.109          41.000        1012.779
 127739446.99627  24308010.646          43.000       -4380.608
 130758847.13827  24882583.509          44.000       -1182.020
 138705318.83835  26394744.684          33.000       -2576.253
 198187584.877 7  37713848.605          43.000       -1628.315
 07  8 29  9 31  2.0020000  0 10G19G25G 3G27G11G 8G16G22G18S29
 108195923.074 8  21188586.378          50.000       -2217.603
 112986293.026 7  22100166.717          47.000       -2164.765
 112217945.865 8  21953948.710          50.000       -3626.464
 116751004.43626  22816565.246          39.000        -529.109
 117374687.995 8  22335661.853          48.000        1267.888
 124534281.41927  23698085.902          43.000        1016.398
 127743830.94937  24308845.114          42.000       -4384.327
 130760027.94427  24882808.094          43.000       -1181.211
                  26395233.675          32.000       -2575.032
 198189214.438 7  37714158.729          44.000       -1631.812
 07  8 29  9 31  3.0020000  0 10G19G25G 3G27G11G 8G16G22G18S29
 108198139.612 8  21189008.237          50.000       -2216.154
 112988457.388 8  22100578.211          48.000       -2164.831
 112221572.035 8  21954638.971          50.000       -3625.749
 116751534.19026  22816667.085          38.000        -529.718
 117373420.290 8  22335420.987          48.000        1266.711
 124533263.01527  23697892.380          43.000        1019.573
 127748218.28535  24309680.281          35.000       -4387.051
 130761209.79627  24883032.835          44.000       -1182.431
                  26395722.667          32.000       -2569.708
 198190846.328 7  37714469.221          43.000       -1632.914
 07  8 29  9 31  4.0020000  0 10G19G25G 3G27G11G 8G16G22G18S29
 108200354.800 8  21189429.940          50.000       -2214.941
 112990621.921 8  22100990.629          49.000       -2164.652
 112225197.198 8  21955329.250          50.000       -3623.793
 116752062.63326  22816767.878          39.000        -528.062
 117372154.662 8  22335180.086          48.000        1264.096
 124532241.87827  23697698.946          43.000        1022.629
 127752608.15427  24310515.463          45.000       -4394.475
 130762391.96227  24883257.629          42.000       -1180.663
                  26396211.221          34.000       -2568.955
 198192480.697 7  37714780.113          44.000       -1635.217
 07  8 29  9 31  5.0020000  0 10G19G25G 3G27G11G 8G16G22G18S29
 108202569.074 8  21189851.311          51.000       -2213.803
 112992787.137 8  22101402.873          49.000       -2165.284
 112228821.210 8  21956018.778          50.000       -3623.573
 116752590.72426  22816868.880          40.000        -528.998
 117370890.786 8  22334939.517          48.000        1263.467
 124531219.41327  23697504.551          43.000        1023.421
 127756998.86737  24311351.207          46.000       -4390.970
 130763573.49526  24883482.004          41.000       -1180.609
 138715602.08135  26396701.534          35.000       -2575.944
 198194116.967 7  37715091.651          43.000       -1636.518
 07  8 29  9 31  6.0020000  0 10G19G25G 3G27G11G 8G16G22G18S29
 108204782.698 8  21190272.629          50.000       -2212.950
 112994953.108 8  22101814.977          49.000       -2165.026
 112232444.142 8  21956708.097          50.000       -3621.575
 116753118.94126  22816969.027          39.000        -527.819
 117369628.148 8  22334699.366          48.000        1261.205
 124530196.28327  23697310.312          44.000        1023.218
 127761389.78327  24312186.951          46.000       -4390.960
 130764754.40526  24883706.187          41.000       -1179.499
                  26397193.859          31.000       -2572.919
 198195753.396 7  37715402.980          43.000       -1637.639
 07  8 29  9 31  7.0020000  0 10G19G25G 3G27G11G 8G16G22G18S29
 108206996.014 8  21190693.528          50.000       -2213.259
 112997119.872 8  22102227.482          49.000       -2167.645
 112236066.154 8  21957397.538          50.000       -3621.335
 116753648.210 6  22817069.627          39.000        -529.125
 117368366.227 8  22334459.408          48.000        1261.757
 124529173.57027  23697115.794          43.000        1021.308
                  24313022.397          44.000       -4392.442
 130765934.341 6  24883930.650          41.000       -1178.441
                  26397686.410          27.000       -2567.780
 198197389.671 7  37715714.275          44.000       -1635.796
 07  8 29  9 31  8.0020000  0 10G19G25G 3G27G11G 8G16G22G18S29
 108209208.844 8  21191114.777          50.000       -2212.573
 112999287.236 8  22102639.901          49.000       -2167.173
 112239686.992 8  21958086.560          50.000       -3620.649
 116754177.655 6  22817170.385          39.000        -526.510
 117367104.626 8  22334219.590          48.000        1261.634
 124528151.10627  23696921.817          43.000        1020.071
 127770183.06537  24313857.548          45.000       -4388.269
 130767113.119 7  24884155.146          42.000       -1179.883
                  26398172.430          25.000       -2576.849
 198199025.555 7  37716025.499          43.000       -1637.344
 07  8 29  9 31  9.0020000  0  9G19G25G 3G27G11G 8G16G22S29
 108211421.626 8  21191535.589          50.000       -2212.772
 113001455.316 8  22103052.458          49.000       -2167.962
 112243307.187 8  21958775.460          50.000       -3619.568
 116754707.723 6  22817271.019          39.000        -530.034
 117365843.317 8  22333979.161          48.000        1260.682
 124527129.30327  23696727.596          42.000        1021.763
 127774571.11737  24314692.350          42.000       -4386.973
 130768291.121 6  24884379.556          41.000       -1180.096
 198200661.043 7  37716336.725          43.000       -1634.601
 07  8 29  9 31 10.0020000  0  9G19G25G 3G27G11G 8G16G22S29
 108213634.060 8  21191956.697          50.000       -2212.573
 113003623.810 8  22103464.807          49.000       -2169.224
 112246926.455 8  21959464.255          50.000       -3618.958
                  22817372.231          39.000        -529.567
 117364581.924 8  22333739.150          48.000        1261.058
 124526108.02836  23696533.236          41.000        1021.135
 127778957.95727  24315526.925          44.000       -4385.142
 130769468.258 7  24884603.374          42.000       -1175.201
 198202295.853 7  37716647.879          44.000       -1636.769
 07  8 29  9 31 11.0020000  0  9G19G25G 3G27G11G 8G16G22S29
 108215846.378 8  21192377.754          50.000       -2211.108
 113005793.239 8  22103877.626          49.000       -2169.828
 112250544.716 8  21960152.702          50.000       -3617.947
 119906636.39236  22817474.349          40.000        -532.268
 117363320.978 8  22333499.297          48.000        1260.767
 124525087.48727  23696339.311          42.000        1020.189
 127783343.24927  24316361.361          44.000       -4381.062
 130770644.090 7  24884827.400          43.000       -1175.204
 198203929.726 7  37716958.686          43.000       -1632.023
 07  8 29  9 31 12.0020000  0  9G19G25G 3G27G11G 8G16G22S29
 108218058.564 8  21192798.583          50.000       -2212.512
 113007963.446 8  22104290.620          49.000       -2170.984
 112254161.776 8  21960840.957          50.000       -3615.902
 119907169.25326  22817575.961          41.000        -533.050
 117362059.691 8  22333258.869          48.000        1263.307
 124524068.49327  23696145.455          43.000        1017.372
                  24317195.169          42.000       -4374.474
 130771818.175 7  24885050.537          42.000       -1173.134
 198205562.305 7  37717269.267          44.000       -1629.265
 07  8 29  9 31 13.0020000  0  9G19G25G 3G27G11G 8G16G22S29
 108220271.180 8  21193219.692          50.000       -2213.031
 113010134.909 8  22104703.701          49.000       -2171.532
 112257777.806 8  21961528.914          50.000       -3615.765
 119907704.45026  22817677.974          40.000        -536.007
 117360797.792 8  22333018.788          48.000        1261.424
 124523052.30227  23695951.687          43.000        1015.134
 127792096.16336  24318027.473          41.000       -4378.663
 130772990.283 7  24885273.831          44.000       -1170.828
 198207192.064 7  37717579.444          44.000       -1629.894
 07  8 29  9 31 14.0020000  0  9G19G25G 3G27G11G 8G16G22S29
 108222484.496 8  21193640.661          50.000       -2213.436
 113012307.864 7  22105117.183          47.000       -2173.974
 112261392.982 8  21962216.575          49.000       -3613.789
 119908242.08126  22817779.481          40.000        -537.210
 117359535.645 8  22332778.674          48.000        1263.038
 124522039.04826  23695758.181          41.000        1013.584
                  24318860.007          39.000       -4376.899
 130774160.480 7  24885496.706          45.000       -1168.835
 198208819.625 7  37717889.134          44.000       -1627.098
 07  8 29  9 31 15.0020000  0  9G19G25G 3G27G11G 8G16G22S29
 108224697.988 8  21194061.717          49.000       -2212.988
 113014482.439 7  22105530.631          46.000       -2174.523
 112265006.395 8  21962903.941          49.000       -3609.823
 119908782.21826  22817881.284          41.000        -542.366
 117358273.146 8  22332538.594          49.000        1263.008
 124521028.73036  23695565.146          41.000        1011.030
 127800839.10937  24319691.233          43.000       -4368.744
 130775327.795 7  24885719.145          44.000       -1165.469
 198210445.329 7  37718198.475          43.000       -1624.695
 07  8 29  9 31 16.0020000  0  9G19G25G 3G27G11G 8G16G22S29
 108226911.303 8  21194483.070          49.000       -2213.569
 113016658.936 7  22105945.021          46.000       -2176.266
 112268617.313 8  21963591.148          49.000       -3609.682
 119909324.99527  22817984.361          44.000        -545.618
 117357010.933 8  22332298.530          49.000        1261.309
 124520021.27627  23695372.598          43.000        1005.645
 127805209.45637  24320522.302          43.000       -4364.374
 130776491.370 7  24885940.362          42.000       -1164.636
 198212068.643 7  37718507.292          43.000       -1623.163
 07  8 29  9 31 17.0020000  0  9G19G25G 3G27G11G 8G16G22S29
 108229125.147 8  21194904.213          49.000       -2213.679
 113018837.917 7  22106360.055          47.000       -2179.972
 112272226.502 8  21964277.902          49.000       -3607.546
 119909870.80627  22818088.294          45.000        -545.730
 117355749.535 8  22332058.015          48.000        1262.792
 124519016.97827  23695181.535          44.000        1003.293
 127809572.11927  24321351.956          47.000       -4360.039
 130777651.27737  24886161.355          42.000       -1155.948
 198213690.480 7  37718815.848          43.000       -1620.096
 07  8 29  9 31 18.0020000  0  9G19G25G 3G27G11G 8G16G22S29
 108231338.254 8  21195325.305          49.000       -2212.007
 113021019.625 8  22106775.561          48.000       -2183.952
 112275832.181 8  21964964.099          49.000       -3602.949
 119910419.43227  22818192.767          44.000        -549.421
 117354489.889 7  22331817.479          47.000        1258.340
 124518014.88427  23694991.223          44.000        1002.546
 127813930.37627  24322181.908          47.000       -4355.878
 130778806.43627  24886381.578          45.000       -1152.036
 198215311.145 7  37719124.297          43.000       -1621.803
 07  8 29  9 31 19.0020000  0  9G19G25G 3G27G11G 8G16G22S29
 108233549.801 8  21195746.135          49.000       -2210.426
 113023205.531 8  22107191.573          48.000       -2188.242
 112279432.600 8  21965649.249          49.000       -3597.533
 119910971.791 7  22818297.345          45.000        -553.146
 117353234.584 7  22331578.095          46.000        1252.245
 124517014.52527  23694800.648          44.000        1000.436
 127818284.47427  24323011.491          45.000       -4355.122
 130779954.75827  24886600.389          46.000       -1144.388
 198216932.520 7  37719432.817          44.000       -1622.382
 07  8 29  9 31 20.0020000  0 10G19G25G 3G27G11G 8G16G22G18S29
 108235759.310 8  21196166.337          49.000       -2208.147
 113025396.097 8  22107608.090          48.000       -2193.106
 112283027.098 8  21966333.666          50.000       -3591.712
 119911526.708 7  22818402.621          46.000        -555.858
 117351984.743 7  22331339.845          45.000        1247.510
 124516014.95927  23694610.318          45.000         999.215
 127822634.79837  24323839.698          45.000       -4350.469
 130781095.66627  24886817.646          46.000       -1138.477
                  26404070.086          24.000       -2470.936
 198218556.087 7  37719741.754          43.000       -1625.932
 07  8 29  9 31 21.0020000  0 10G19G25G 3G27G11G 8G16G22G18S29
 108237966.302 8  21196586.557          49.000       -2205.640
 113027591.124 8  22108025.550          48.000       -2197.148
 112286615.387 8  21967016.286          50.000       -3585.095
 119912084.125 7  22818508.578          46.000        -558.470
 117350740.818 7  22331102.764          45.000        1241.384
 124515015.30627  23694420.512          45.000        1000.456
 127826981.78537  24324667.224          46.000       -4345.859
 130782229.07227  24887033.631          43.000       -1129.187
                  26404542.127          26.000       -2529.409
 198220182.210 7  37720051.443          42.000       -1627.443
 07  8 29  9 31 22.0020000  0 10G19G25G 3G27G11G 8G16G22G18S29
 108240170.683 8  21197005.974          49.000       -2203.126
 113029790.553 7  22108444.319          47.000       -2201.584
 112290197.579 8  21967698.295          51.000       -3579.374
 119912643.664 8  22818615.477          48.000        -560.877
 117349503.178 7  22330867.707          45.000        1234.507
 124514015.00727  23694230.149          45.000        1001.720
 127831326.73927  24325494.609          45.000       -4343.718
 130783355.51027  24887248.185          44.000       -1121.081
                  26405024.207          28.000       -2528.551
 198221811.704 7  37720361.427          42.000       -1632.245
 07  8 29  9 31 23.0020000  0 10G19G25G 3G27G11G 8G16G22G18S29
 108242372.282 8  21197424.832          49.000       -2200.453
 113031994.267 8  22108863.768          49.000       -2205.475
 112293773.744 8  21968378.664          51.000       -3572.990
 119913205.031 7  22818722.377          44.000        -561.950
 117348272.071 7  22330633.400          44.000        1227.608
 124513013.51927  23694039.296          45.000        1002.465
 127835670.19527  24326321.977          45.000       -4342.401
 130784475.08427  24887461.045          42.000       -1114.460
                  26405504.628          26.000       -2531.787
 198223444.966 7  37720672.161          42.000       -1635.028
 07  8 29  9 31 24.0020000  0 10G19G25G 3G27G11G 8G16G22G18S29
 108244571.584 8  21197843.255          49.000       -2198.613
 113034201.424 8  22109283.654          49.000       -2207.990
 112297345.112 8  21969058.142          51.000       -3570.014
 119913767.549 6  22818828.823          40.000        -563.077
 117347046.286 7  22330400.788          46.000        1224.511
 124512010.96227  23693848.548          43.000        1002.906
 127840012.77427  24327147.582          43.000       -4342.217
 130785589.50727  24887673.466          43.000       -1115.329
                  26405980.849          22.000       -2518.188
 198225081.203 7  37720983.438          42.000       -1636.683
 07  8 29  9 31 25.0020000  0  9G19G25G 3G27G11G 8G16G22S29
 108246770.203 8  21198261.362          49.000       -2197.969
 113036410.399 8  22109703.820          50.000       -2209.079
 112300914.700 8  21969737.253          51.000       -3568.705
 119914331.108 7  22818936.368          46.000        -563.784
 117345823.050 7  22330168.263          45.000        1222.735
 124511008.207 7  23693657.153          43.000        1002.493
 127844355.12827  24327973.902          45.000       -4341.508
 130786702.113 7  24887886.099          43.000       -1111.020
 198226719.136 6  37721295.168          41.000       -1638.867
 07  8 29  9 31 26.0020000  0  9G19G25G 3G27G11G 8G16G22S29
 108248968.337 8  21198679.714          49.000       -2197.741
 113038620.255 8  22110124.283          49.000       -2210.354
 112304483.242 8  21970416.066          51.000       -3568.215
 119914895.119 8  22819044.280          48.000        -564.180
 117344600.856 7  22329935.512          46.000        1222.044
 124510005.468 7  23693466.632          43.000        1002.783
 127848697.29527  24328801.566          46.000       -4342.135
 130787814.091 7  24888097.211          43.000       -1111.566
 198228357.372 7  37721606.829          43.000       -1638.834
 07  8 29  9 31 27.0020000  0  9G19G25G 3G27G11G 8G16G22S29
 108251166.201 8  21199098.135          49.000       -2197.699
 113040830.497 8  22110544.641          49.000       -2210.190
 112308051.293 8  21971094.897          51.000       -3567.794
 119915459.367 8  22819152.227          48.000        -563.912
 117343379.014 7  22329703.197          45.000        1222.402
 124509002.685 7  23693276.355          43.000        1001.712
 127853039.25227  24329628.392          45.000       -4341.638
 130788925.717 7  24888309.319          44.000       -1112.180
 198229995.305 7  37721918.560          43.000       -1638.099
 07  8 29  9 31 28.0020000  0  9G19G25G 3G27G11G 8G16G22S29
 108253363.922 8  21199516.260          49.000       -2197.363
 113043040.959 8  22110965.348          49.000       -2210.610
 112311619.124 8  21971773.501          50.000       -3567.659
 119916023.797 8  22819259.651          48.000        -564.252
 117342157.123 7  22329470.690          45.000        1221.639
 124508000.035 7  23693085.624          43.000        1003.421
 127857381.02827  24330454.922          45.000       -4341.961
 130790037.436 7  24888521.636          44.000       -1111.612
 198231633.194 7  37722230.273          42.000       -1637.933
 07  8 29  9 31 29.0020000  0  9G19G25G 3G27G11G 8G16G22S29
 108255561.621 8  21199934.454          49.000       -2197.655
 113045251.730 8  22111385.881          49.000       -2210.640
 112315186.840 8  21972452.524          50.000       -3567.223
 119916588.518 8  22819367.196          48.000        -564.136
 117340935.370 7  22329238.236          45.000        1222.834
 124506997.572 7  23692895.172          43.000        1002.853
 127861722.75927  24331281.155          45.000       -4340.386
 130791149.391 7  24888733.499          43.000       -1111.007
 198233270.968 7  37722541.899          42.000       -1637.261
 07  8 29  9 31 30.0020000  0  9G19G25G 3G27G11G 8G16G22S29
 108257759.370 8  21200352.998          49.000       -2197.727
 113047462.869 8  22111806.553          49.000       -2211.272
 112318754.506 8  21973131.547          50.000       -3567.640
 119917153.593 8  22819474.567          48.000        -565.272
 117339713.754 7  22329005.502          45.000        1221.574
 124505995.406 7  23692704.511          43.000        1002.574
 127866064.47427  24332107.475          45.000       -4341.292
 130792261.628 7  24888945.309          42.000       -1112.940
 198234908.438 7  37722853.717          42.000       -1636.376
 07  8 29  9 31 31.0020000  0  9G19G25G 3G27G11G 8G16G22S29
 108259957.075 8  21200771.087          49.000       -2197.810
 113049674.306 8  22112227.609          49.000       -2211.318
 112322322.034 8  21973810.396          50.000       -3567.367
 119917718.942 8  22819582.218          48.000        -565.394
 117338492.232 7  22328772.873          45.000        1222.024
 124504993.433 7  23692514.077          43.000        1001.877
 127870406.618 7  24332933.743          45.000       -4341.585
 130793374.058 7  24889156.893          43.000       -1112.774
 198236545.782 7  37723165.274          43.000       -1636.151
 07  8 29  9 31 32.0020000  0  9G19G25G 3G27G11G 8G16G22S29
 108262154.675 8  21201189.002          49.000       -2198.108
 113051885.947 8  22112648.037          49.000       -2211.867
 112325889.347 8  21974489.122          50.000       -3567.318
 119918284.474 8  22819689.868          48.000        -565.848
 117337270.715 7  22328540.454          45.000        1221.499
 124503991.592 7  23692323.328          43.000        1001.115
 127874748.118 7  24333759.889          45.000       -4341.151
 130794486.598 7  24889368.756          43.000       -1113.023
 198238182.856 7  37723476.986          43.000       -1637.250
 07  8 29  9 31 33.0020000  0  9G19G25G 3G27G11G 8G16G22S29
 108264352.131 8  21201607.215          49.000       -2197.246
 113054097.759 8  22113068.727          49.000       -2211.557
 112329456.429 8  21975168.040          50.000       -3566.464
 119918850.159 8  22819797.710          48.000        -565.904
 117336049.165 7  22328308.157          45.000        1221.668
 124502989.818 7  23692132.947          43.000        1001.895
 127879089.420 7  24334585.999          45.000       -4341.067
 130795599.209 7  24889580.410          43.000       -1111.652
 198239819.533 7  37723788.403          43.000       -1636.184
 07  8 29  9 31 34.0020000  0  9G19G25G 3G27G11G 8G16G22S29
 108266549.544 8  21202025.461          49.000       -2197.164
 113056309.874 8  22113489.783          49.000       -2212.286
 112333023.362 8  21975847.028          51.000       -3566.972
 119919416.142 8  22819905.326          49.000        -565.876
 117334827.698 7  22328075.720          44.000        1222.113
 124501988.258 7  23691942.408          43.000        1002.106
 127883430.639 7  24335412.005          45.000       -4341.011
 130796712.057 7  24889792.954          43.000       -1112.067
 198241455.340 7  37724099.872          42.000       -1636.682
 07  8 29  9 31 35.0020000  0  9G19G25G 3G27G11G 8G16G22S29
 108268747.045 8  21202443.813          50.000       -2197.704
 113058522.407 8  22113910.857          49.000       -2212.673
 112336590.312 8  21976525.685          51.000       -3566.948
 119919982.489 8  22820013.133          49.000        -566.631
 117333606.462 7  22327843.021          44.000        1221.049
 124500987.017 7  23691751.816          44.000        1000.498
 127887771.913 7  24336237.732          45.000       -4341.654
 130797825.209 7  24890004.642          43.000       -1113.042
 198243091.334 7  37724411.271          43.000       -1637.325
 07  8 29  9 31 36.0020000  0  9G19G25G 3G27G11G 8G16G22S29
 108270944.678 8  21202861.780          49.000       -2197.570
 113060735.392 8  22114332.157          49.000       -2213.332
 112340157.279 8  21977204.638          51.000       -3567.033
 119920549.298 8  22820120.783          49.000        -566.779
 117332385.447 7  22327610.915          44.000        1221.101
 124499986.141 7  23691561.591          44.000        1001.010
 127892113.270 7  24337063.826          46.000       -4341.169
 130798938.685 7  24890216.295          43.000       -1114.023
 198244727.108 7  37724722.601          43.000       -1637.207
 07  8 29  9 31 37.0020000  0 10G19G25G 3G27G11G 8G16G22S37S29
 108273142.267 8  21203280.132          49.000       -2197.460
 113062948.663 8  22114753.283          49.000       -2213.134
 112343724.118 8  21977883.329          51.000       -3566.736
 119921116.366 8  22820229.009          49.000        -567.217
 117331164.520 7  22327377.920          44.000        1220.847
 124498985.446 7  23691370.948          44.000        1001.199
 127896454.567 7  24337890.146          46.000       -4341.083
 130800052.387 7  24890427.443          42.000       -1114.106
 198579735.24327  37788467.252          43.000       -1635.655
 198246362.871 7  37725033.931          43.000       -1635.195
 07  8 29  9 31 38.0020000  0 10G19G25G 3G27G11G 8G16G22S37S29
 108275339.944 8  21203698.222          49.000       -2197.672
 113065162.359 8  22115174.444          49.000       -2213.701
 112347290.963 8  21978562.247          51.000       -3566.809
 119921683.837 8  22820336.904          49.000        -567.298
 117329943.818 7  22327145.588          44.000        1220.545
 124497985.087 7  23691180.757          44.000        1000.349
 127900795.907 7  24338716.204          46.000       -4341.395
 130801166.414 7  24890638.433          42.000       -1114.036
 198581372.20127  37788778.668          43.000       -1635.646
 198247998.017 7  37725345.033          43.000       -1634.874
 07  8 29  9 31 39.0020000  0 10G19G25G 3G27G11G 8G16G22S37S29
 108277537.527 8  21204116.329          49.000       -2197.778
 113067376.275 8  22115595.640          49.000       -2214.332
 112350857.599 8  21979240.939          51.000       -3566.365
 119922251.505 8  22820444.903          49.000        -567.909
 117328723.139 7  22326913.552          45.000        1220.699
 124496984.865 7  23690990.375          44.000         999.915
 127905137.088 7  24339542.210          46.000       -4341.189
 130802280.562 7  24890849.581          42.000       -1114.685
 198583009.318 7  37789090.137          43.000       -1635.380
 198249632.964 7  37725656.415          43.000       -1635.772
 07  8 29  9 31 40.0020000  0 10G19G25G 3G27G11G 8G16G22S37S29
 108279735.155 8  21204534.715          49.000       -2197.518
 113069590.565 8  22116016.940          48.000       -2214.161
 112354424.196 8  21979919.438          51.000       -3566.379
 119922819.532 8  22820553.321          49.000        -567.997
 117327502.603 7  22326681.482          44.000        1220.283
 124495984.919 7  23690800.395          44.000        1000.018
 127909478.290 7  24340368.199          45.000       -4341.153
 130803394.991 6  24891060.798          40.000       -1115.137
 198584645.477 7  37789401.589          43.000       -1636.498
 198251267.763 7  37725967.675          42.000       -1633.293
 07  8 29  9 31 41.0020000  0 10G19G25G 3G27G11G 8G16G22S37S29
 108281932.738 8  21204952.736          49.000       -2197.152
 113071805.131 8  22116438.555          48.000       -2214.146
 112357990.656 8  21980598.217          51.000       -3565.965
 119923387.801 8  22820661.582          49.000        -568.500
 117326282.160 7  22326449.411          45.000        1220.988
 124494985.188 7  23690609.908          44.000        1000.128
 127913819.405 7  24341194.310          45.000       -4340.639
 130804509.602 6  24891271.631          40.000       -1115.178
 198586281.433 7  37789713.023          43.000       -1636.106
 198252902.342 7  37726278.655          43.000       -1634.750
 07  8 29  9 31 42.0020000  0 10G19G25G 3G27G11G 8G16G22S37S29
 108284130.278 8  21205371.017          50.000       -2197.023
 113074019.983 8  22116859.995          48.000       -2214.649
 112361556.961 8  21981276.699          51.000       -3566.037
 119923956.346 8  22820769.529          49.000        -568.158
 117325061.784 7  22326217.306          45.000        1220.387
 124493985.628 7  23690419.928          44.000         999.881
 127918160.420 7  24342020.420          46.000       -4340.920
 130805624.401 6  24891482.657          40.000       -1114.968
 198587917.152 7  37790024.387          43.000       -1635.540
 198254536.259 7  37726589.687          42.000       -1634.774
 07  8 29  9 31 43.0020000  0 10G19G25G 3G27G11G 8G16G22S37S29
 108286327.652 8  21205789.299          49.000       -2197.123
 113076235.007 8  22117281.592          48.000       -2215.408
 112365123.030 8  21981955.722          51.000       -3565.735
 119924525.039 8  22820877.581          49.000        -568.707
 117323841.363 7  22325985.288          45.000        1220.755
 124492986.150 7  23690230.244          44.000         999.247
 127922501.249 7  24342846.461          46.000       -4340.632
 130806739.276 6  24891693.909          39.000       -1114.914
 198589552.518 7  37790335.787          43.000       -1633.962
 198256169.687 7  37726900.511          42.000       -1634.414
 07  8 29  9 31 44.0020000  0 10G19G25G 3G27G11G 8G16G22S37S29
 108288525.197 8  21206207.144          49.000       -2197.425
 113078450.525 8  22117703.067          48.000       -2215.369
 112368689.159 8  21982634.064          51.000       -3565.732
 119925094.200 8  22820985.876          49.000        -569.664
 117322621.246 7  22325753.200          44.000        1220.300
 124491987.069 7  23690040.403          44.000         999.029
 127926842.192 7  24343672.502          45.000       -4341.266
 130807854.531 6  24891904.621          39.000       -1115.274
 198591187.835 7  37790647.237          43.000       -1636.826
 198257802.811 7  37727211.282          42.000       -1633.617
 07  8 29  9 31 45.0020000  0 10G19G25G 3G27G11G 8G16G22S37S29
 108290722.653 8  21206625.356          49.000       -2197.168
 113080666.287 8  22118124.525          48.000       -2215.517
 112372255.101 8  21983312.685          51.000       -3565.685
 119925663.588 8  22821094.347          49.000        -569.445
 117321401.150 7  22325520.885          44.000        1220.360
 124490988.142 7  23689850.370          44.000         999.266
 127931183.015 7  24344498.648          46.000       -4341.183
 130808969.919 6  24892116.100          38.000       -1115.091
 198592822.711 7  37790958.376          43.000       -1633.844
 198259436.067 7  37727521.966          43.000       -1632.939
 07  8 29  9 31 46.0020000  0 10G19G25G 3G27G11G 8G16G22S37S29
 108292920.099 8  21207043.237          49.000       -2197.531
 113082882.362 8  22118546.140          48.000       -2215.825
 112375820.943 8  21983991.307          50.000       -3565.666
 119926233.267 8  22821202.695          49.000        -569.774
 117320181.170 7  22325288.884          44.000        1220.141
 124489989.453 7  23689660.407          44.000         999.014
 127935523.782 7  24345324.881          45.000       -4340.299
 130810085.566 6  24892327.893          38.000       -1114.468
 198594457.141 7  37791269.479          43.000       -1631.490
 198261069.032 7  37727832.632          42.000       -1633.487
 07  8 29  9 31 47.0020000  0 10G19G25G 3G27G11G 8G16G22S37S29
 108295117.958 8  21207461.762          49.000       -2198.345
 113085098.476 8  22118968.086          48.000       -2215.793
 112379387.425 8  21984669.928          50.000       -3567.141
 119926803.276 8  22821310.974          49.000        -570.106
 117318960.750 7  22325056.797          45.000        1221.367
 124488991.374 7  23689469.972          42.000         998.380
 127939864.748 7  24346150.503          45.000       -4340.629
 130811202.165 6  24892542.233          41.000       -1117.420
 198596091.075 7  37791580.651          42.000       -1633.497
 198262701.429 7  37728143.142          42.000       -1632.519
 07  8 29  9 31 48.0020000  0 10G19G25G 3G27G11G 8G16G22S37S29
 108297316.703 8  21207880.393          49.000       -2199.279
 113087313.934 8  22119390.277          48.000       -2214.353
 112382955.465 8  21985349.002          50.000       -3569.433
 119927373.325 7  22821419.375          47.000        -569.487
 117317738.704 7  22324824.256          45.000        1223.112
 124487993.907 7  23689279.398          44.000         996.269
 127944206.001 7  24346976.788          45.000       -4341.200
 130812321.051 7  24892756.958          42.000       -1118.948
 198597723.791 7  37791891.492          43.000       -1632.291
 198264332.697 6  37728453.634          41.000       -1630.950
 07  8 29  9 31 49.0020000  0 10G19G25G 3G27G11G 8G16G22S37S29
 108299517.416 8  21208299.110          49.000       -2202.097
 113089526.930 8  22119811.806          48.000       -2211.000
 112386527.532 8  21986028.791          50.000       -3573.521
 119927942.756 7  22821527.479          47.000        -569.273
 117316512.147 7  22324591.193          46.000        1228.590
 124486998.037 7  23689089.678          42.000         993.869
 127948547.881 7  24347802.794          44.000       -4342.786
 130813444.789 6  24892971.731          41.000       -1128.422
 198599353.451 7  37792201.689          43.000       -1626.164
 198265960.131 6  37728763.395          41.000       -1625.471
 07  8 29  9 31 50.0020000  0 10G19G25G 3G27G11G 8G16G22S37S29
 108301720.271 8  21208718.333          49.000       -2203.860
 113091737.188 8  22120232.427          48.000       -2208.431
 112390103.797 8  21986709.470          50.000       -3578.563
 119928511.444 7  22821635.462          47.000        -567.782
 117315280.633 7  22324357.048          46.000        1233.169
 124486003.56737  23688900.395          45.000         993.256
 127952890.334 7  24348629.044          45.000       -4342.474
 130814573.838 7  24893187.136          42.000       -1131.077
 198600980.218 7  37792511.327          43.000       -1624.175
 198267584.095 7  37729072.369          42.000       -1623.691
 07  8 29  9 31 51.0020000  0 10G19G25G 3G27G11G 8G16G22S37S29
 108303925.285 8  21209138.149          48.000       -2205.942
 113093944.968 8  22120652.611          49.000       -2206.113
 112393684.330 8  21987390.830          50.000       -3582.533
 119929079.619 7  22821743.409          47.000        -566.937
 117314044.442 7  22324121.734          46.000        1238.553
 124485010.81527  23688711.339          45.000         992.913
 127957233.420 7  24349455.015          44.000       -4342.427
 130815708.103 7  24893403.673          43.000       -1136.941
 198602603.686 7  37792820.476          44.000       -1621.203
 198269204.484 6  37729380.682          41.000       -1618.386
 07  8 29  9 31 52.0020000  0 10G19G25G 3G27G11G 8G16G22S37S29
 108306132.172 8  21209558.211          49.000       -2207.316
 113096150.544 8  22121072.743          50.000       -2205.111
 112397268.522 8  21988072.783          51.000       -3586.366
 119929647.271 8  22821851.146          48.000        -567.667
 117312804.312 7  22323885.669          45.000        1242.507
 124484019.27527  23688522.300          46.000         990.814
 127961576.69637  24350282.033          42.000       -4344.976
                  24893620.960          40.000       -1146.047
 198604224.516 7  37793128.945          43.000       -1617.557
 198270822.014 6  37729688.103          41.000       -1615.362
 07  8 29  9 31 53.0020000  0 10G19G25G 3G27G11G 8G16G22S37S29
 108308340.778 8  21209978.219          49.000       -2208.713
 113098354.682 8  22121491.409          49.000       -2203.516
 112400855.770 8  21988755.260          50.000       -3587.917
 119930214.885 7  22821959.146          47.000        -567.578
 117311560.977 7  22323648.626          46.000        1246.282
 124483029.25527  23688334.274          46.000         990.271
                  24351108.007          39.000       -4335.070
 130817996.92137  24893837.291          43.000       -1144.264
 198605842.971 7  37793437.099          43.000       -1615.628
 198272436.982 6  37729995.280          41.000       -1613.421
 07  8 29  9 31 54.0020000  0 10G19G25G 3G27G11G 8G16G22S37S29
 108310550.359 8  21210398.472          49.000       -2210.070
 113100557.124 7  22121910.494          47.000       -2202.902
 112404445.387 8  21989438.680          51.000       -3590.481
 119930781.870 7  22822067.110          47.000        -567.300
 117310314.909 7  22323411.251          46.000        1247.683
 124482039.78627  23688145.899          46.000         989.972
 127970273.09837  24351933.294          44.000       -4345.638
 130819142.76037  24894055.296          42.000       -1147.084
 198607459.548 7  37793744.764          43.000       -1615.591
 198274050.282 6  37730302.195          41.000       -1612.921
 07  8 29  9 31 55.0020000  0 10G19G25G 3G27G11G 8G16G22S37S29
 108312761.239 8  21210819.267          49.000       -2210.405
 113102758.651 8  22122329.597          49.000       -2201.269
 112408037.306 8  21990122.082          51.000       -3592.111
 119931348.24637  22822175.528          46.000        -568.108
 117309066.17137  22323173.667          46.000        1248.298
 124481051.04537  23687957.803          45.000         989.759
 127974618.42337  24352760.627          43.000       -4344.614
                  24894273.926          39.000       -1156.699
 198609074.605 7  37794052.359          43.000       -1614.794
 198275661.516 7  37730608.674          43.000       -1609.905
 07  8 29  9 31 56.0020000  0 10G19G25G 3G27G11G 8G16G22S37S29
 108314973.293 8  21211240.235          49.000       -2213.400
 113104959.391 8  22122748.559          50.000       -2200.194
 112411631.231 8  21990806.008          50.000       -3594.215
 119931915.22028  22822283.057          48.000        -567.788
 117307816.14827  22322935.612          45.000        1249.463
 124480063.57537  23687769.479          45.000         985.789
 127978964.26427  24353586.772          43.000       -4346.433
 130821436.48436  24894491.759          39.000       -1150.562
 198610688.329 7  37794359.378          43.000       -1614.380
 198277270.877 7  37730914.925          42.000       -1610.250
 07  8 29  9 31 57.0020000  0 10G19G25G 3G27G11G 8G16G22S37S29
 108317186.636 8  21211661.553          49.000       -2213.283
 113107159.398 8  22123167.313          49.000       -2199.093
 112415227.238 8  21991490.195          50.000       -3596.957
 119932482.49827  22822390.637          46.000        -567.031
 117306564.23127  22322697.348          44.000        1253.220
 124479077.27927  23687581.470          45.000         985.538
                  24354414.032          39.000       -4351.010
 130822590.47527  24894711.281          42.000       -1155.237
 198612300.675 7  37794666.155          43.000       -1609.214
 198278878.938 6  37731220.690          41.000       -1605.106
 07  8 29  9 31 58.0020000  0 10G19G25G 3G27G11G 8G16G22S37S29
 108319400.932 8  21212082.573          49.000       -2215.307
 113109358.645 8  22123585.786          49.000       -2198.386
 112418825.057 8  21992174.923          51.000       -3599.196
 119933049.73128  22822498.550          48.000        -566.656
 117305310.46827  22322459.205          45.000        1254.470
 124478091.88137  23687393.164          47.000         983.906
 127987661.65736  24355242.343          41.000       -4347.222
 130823750.12436  24894932.669          37.000       -1163.650
 198613911.617 7  37794972.807          43.000       -1610.764
 198280485.280 7  37731526.348          42.000       -1605.838
 07  8 29  9 31 59.0020000  0 10G19G25G 3G27G11G 8G16G22S37S29
 108321616.396 8  21212504.781          50.000       -2215.886
 113111557.270 8  22124004.225          48.000       -2198.106
 112422424.815 8  21992859.704          50.000       -3601.060
 119933617.18527  22822606.829          47.000        -565.859
 117304055.12427  22322219.824          46.000        1257.129
 124477107.48027  23687206.151          46.000         986.091
 127992008.58927  24356068.559          45.000       -4346.866
                  24895155.090          31.000       -1160.777
 198615521.656 7  37795279.147          43.000       -1607.492
 198282090.653 7  37731831.640          42.000       -1604.620
 07  8 29  9 32  0.0020000  0 10G19G25G 3G27G11G 8G16G22S37S29
 108323832.697 8  21212926.134          49.000       -2216.633
 113113754.859 8  22124422.385          49.000       -2197.876
 112426026.374 8  21993545.200          51.000       -3602.390
 119934184.29827  22822714.741          47.000        -566.676
 117302797.93427  22321980.617          45.000        1257.886
 124476123.54727  23687019.432          46.000         983.185
 127996356.08237  24356895.525          44.000       -4346.106
 130826068.42637  24895373.200          42.000       -1162.537
 198617130.477 7  37795585.207          43.000       -1606.908
 198283694.153 7  37732136.793          42.000       -1601.380
 07  8 29  9 32  1.0020000  0 10G19G25G 3G27G11G 8G16G22S37S29
 108326050.128 8  21213348.132          49.000       -2218.420
 113115951.979 8  22124840.789          49.000       -2197.420
 112429629.718 8  21994231.237          51.000       -3604.294
 119934751.74028  22822822.530          48.000        -566.919
 117301539.24127  22321741.165          45.000        1259.082
 124475140.79927  23686832.470          46.000         982.502
 128000703.86227  24357723.869          45.000       -4347.237
 130827232.25527  24895595.150          44.000       -1161.296
 198618737.981 7  37795891.284          44.000       -1604.634
 198285295.808 7  37732441.682          42.000       -1603.922
 07  8 29  9 32  2.0020000  0 10G19G25G 3G27G11G 8G16G22S37S29
 108328268.786 8  21213769.973          49.000       -2219.131
 113118148.720 8  22125258.356          49.000       -2195.857
 112433234.907 8  21994917.397          51.000       -3605.384
 119935319.64028  22822930.495          48.000        -566.724
 117300279.15527  22321501.680          46.000        1262.742
 124474159.33327  23686645.857          46.000         981.662
 128005049.98137  24358549.945          43.000       -4346.152
 130828398.43027  24895817.777          42.000       -1166.745
 198620343.999 7  37796197.012          44.000       -1603.821
 198286896.746 7  37732746.295          42.000       -1598.220
 07  8 29  9 32  3.0020000  0 10G19G25G 3G27G11G 8G16G22S37S29
 108330488.166 8  21214192.757          49.000       -2219.618
 113120344.921 8  22125676.603          49.000       -2195.776
 112436841.292 8  21995603.661          51.000       -3606.082
 119935887.65627  22823038.738          47.000        -569.609
 117299017.62527  22321261.809          45.000        1261.648
 124473178.54027  23686459.087          45.000         979.584
 128009397.99337  24359376.684          44.000       -4347.828
                  24896041.228          42.000       -1165.271
 198621948.936 7  37796502.460          44.000       -1606.849
 198288496.269 7  37733050.488          42.000       -1596.485
 07  8 29  9 32  4.0020000  0 10G19G25G 3G27G11G 8G16G22S37S29
 108332707.712 8  21214615.122          49.000       -2218.958
 113122541.485 8  22126094.518          49.000       -2196.403
 112440447.775 8  21996289.926          51.000       -3605.893
 119936456.04627  22823147.051          47.000        -568.844
 117297756.23327  22321021.798          45.000        1261.102
 124472198.22127  23686272.352          46.000         978.914
 128013745.99827  24360204.818          45.000       -4349.048
 130830744.51627  24896262.950          42.000       -1166.529
 198623553.720 7  37796807.910          43.000       -1604.088
 198290095.335 6  37733354.819          41.000       -1599.279
 07  8 29  9 32  5.0020000  0 10G19G25G 3G27G11G 8G16G22S37S29
 108334927.621 8  21215037.626          49.000       -2220.443
 113124738.694 8  22126512.660          49.000       -2196.927
 112444054.568 8  21996976.504          51.000       -3607.677
 119937025.04227  22823255.418          46.000        -567.750
 117296495.30927  22320781.876          45.000        1262.200
 124471218.44127  23686085.879          46.000         980.231
 128018094.45527  24361033.023          45.000       -4348.403
 130831913.46236  24896486.086          41.000       -1166.527
 198625158.575 7  37797113.358          43.000       -1603.465
 198291694.929 6  37733659.203          41.000       -1600.239
 07  8 29  9 32  6.0020000  0 10G19G25G 3G27G11G 8G16G22S37S29
 108337148.389 8  21215459.834          49.000       -2221.022
 113126935.826 8  22126930.593          49.000       -2195.894
 112447662.495 8  21997663.048          51.000       -3607.942
 119937594.52927  22823363.696          46.000        -569.626
 117295233.48127  22320541.918          45.000        1263.503
 124470239.59837  23685899.476          45.000         978.603
 128022442.90227  24361860.843          44.000       -4349.800
 130833083.74637  24896708.976          42.000       -1170.026
 198626762.125 7  37797418.737          43.000       -1602.798
 198293293.345 7  37733963.484          42.000       -1594.880
 07  8 29  9 32  7.0020000  0 10G19G25G 3G27G11G 8G16G22S37S29
 108339369.780 8  21215882.792          49.000       -2221.202
 113129132.456 8  22127348.438          49.000       -2195.889
 112451271.606 8  21998349.626          51.000       -3609.566
 119938164.747 7  22823472.131          47.000        -569.109
 117293970.805 7  22320301.891          45.000        1264.000
 124469261.80727  23685713.491          45.000         977.470
 128026791.40337  24362689.066          45.000       -4348.090
                  24896932.007          41.000       -1170.749
 198628364.606 7  37797723.715          43.000       -1602.211
 198294890.577 7  37734267.326          42.000       -1598.387
 07  8 29  9 32  8.0020000  0 10G19G25G 3G27G11G 8G16G22S37S29
 108341591.705 8  21216305.820          49.000       -2221.761
 113131328.574 8  22127766.423          48.000       -2195.612
 112454881.775 8  21999036.466          50.000       -3610.712
 119938734.349 7  22823580.759          47.000        -570.168
 117292706.543 7  22320060.921          45.000        1264.956
 124468284.35826  23685527.786          40.000         978.228
                  24363516.765          43.000       -4347.489
 130835435.79137  24897155.770          42.000       -1173.401
 198629966.101 7  37798028.605          43.000       -1602.107
 198296486.976 6  37734571.048          41.000       -1595.466
 07  8 29  9 32  9.0020000  0 10G19G25G 3G27G11G 8G16G22S37S29
 108343814.220 8  21216728.622          49.000       -2221.989
 113133524.263 8  22128184.112          48.000       -2194.471
 112458493.205 8  21999723.882          50.000       -3611.329
 119939303.929 7  22823689.387          47.000        -569.032
 117291441.366 7  22319820.126          46.000        1267.003
 124467307.41526  23685341.697          40.000         977.974
 128035495.71727  24364344.900          45.000       -4349.158
 130836611.59537  24897380.022          42.000       -1175.504
 198631566.912 7  37798333.287          43.000       -1600.067
 198298082.214 6  37734874.526          41.000       -1593.328
 07  8 29  9 32 10.0020000  0 11G19G25G 3G27G11G 8G16G22G18S37S29
 108346037.219 8  21217151.527          49.000       -2223.911
 113135719.533 8  22128601.766          49.000       -2194.885
 112462105.528 8  22000411.211          51.000       -3612.820
 119939873.536 7  22823797.525          47.000        -570.065
 117290175.160 7  22319579.104          45.000        1267.077
 124466331.00136  23685156.515          39.000         978.176
 128039845.34227  24365172.668          44.000       -4350.602
 130837788.90837  24897604.745          44.000       -1178.889
 138880611.73935  26428101.804          34.000       -2580.015
 198633167.025 7  37798637.932          43.000       -1602.157
 198299676.454 6  37735177.827          41.000       -1596.637
 07  8 29  9 32 11.0020000  0 11G19G25G 3G27G11G 8G16G22G18S37S29
 108348260.951 8  21217574.660          49.000       -2224.007
 113137914.671 8  22129019.384          49.000       -2195.217
 112465719.062 8  22001098.522          50.000       -3614.165
 119940443.364 7  22823905.542          47.000        -569.824
 117288908.397 7  22319337.732          45.000        1266.306
 124465354.96726  23684970.390          40.000         975.498
 128044195.74427  24366000.645          45.000       -4351.055
 130838967.93527  24897831.580          44.000       -1179.722
                  26428589.428          27.000       -2590.852
 198634767.021 7  37798942.351          44.000       -1601.867
 198301270.215 6  37735481.182          41.000       -1593.404
 07  8 29  9 32 12.0020000  0 11G19G25G 3G27G11G 8G16G22G18S37S29
 108350485.267 8  21217997.758          49.000       -2224.066
 113140109.808 8  22129437.335          48.000       -2193.826
 112469333.517 8  22001786.828          51.000       -3615.009
 119941013.440 7  22824014.188          47.000        -568.833
 117287641.210 7  22319096.623          46.000        1267.262
 124464379.51227  23684784.842          42.000         974.986
 128048546.51427  24366828.414          45.000       -4350.830
 130840148.39927  24898056.006          44.000       -1182.057
                  26429083.461          32.000       -2591.109
 198636366.297 7  37799246.720          43.000       -1597.601
 198302863.657 6  37735784.363          41.000       -1592.644
 07  8 29  9 32 13.0020000  0 11G19G25G 3G27G11G 8G16G22G18S37S29
 108352709.902 8  21218421.187          50.000       -2225.527
 113142305.205 8  22129855.127          49.000       -2196.219
 112472948.439 8  22002474.646          51.000       -3614.684
 119941583.830 8  22824122.902          48.000        -571.168
 117286374.028 7  22318855.199          45.000        1265.885
 124463404.53627  23684599.485          46.000         973.573
 128052897.62127  24367656.427          45.000       -4349.846
 130841329.78337  24898278.445          42.000       -1180.985
 138888368.36235  26429577.737          33.000       -2595.853
 198637965.351 7  37799551.226          42.000       -1596.182
                  37736087.699          40.000       -1593.958
 07  8 29  9 32 14.0020000  0 11G19G25G 3G27G11G 8G16G22G18S37S29
 108354934.873 8  21218844.582          49.000       -2224.059
 113144501.207 8  22130273.078          49.000       -2195.333
 112476563.489 8  22003162.655          51.000       -3616.329
 119942154.804 8  22824231.547          48.000        -570.908
 117285107.221 7  22318614.211          45.000        1266.839
 124462430.04427  23684413.972          45.000         975.080
 128057248.84427  24368484.544          44.000       -4351.839
 130842511.54737  24898504.285          44.000       -1181.379
 138890960.97135  26430071.456          35.000       -2595.168
 198639564.312 7  37799855.662          44.000       -1598.851
 198306070.364 6  37736390.636          41.000       -1591.465
 07  8 29  9 32 15.0020000  0 11G19G25G 3G27G11G 8G16G22G18S37S29
 108357159.856 8  21219267.959          49.000       -2225.126
 113146697.397 8  22130690.923          48.000       -2195.359
 112480178.544 8  22003850.281          51.000       -3616.229
 119942726.064 7  22824340.296          47.000        -572.981
 117283839.93637  22318373.032          45.000        1266.514
 124461455.83927  23684228.650          46.000         973.459
 128061600.16537  24369312.679          44.000       -4350.705
 130843693.71327  24898728.415          43.000       -1182.984
 138893550.25335  26430564.006          33.000       -2596.281
 198641162.899 7  37800160.011          43.000       -1597.859
 198307661.15237  37736692.960          42.000       -1594.746
 07  8 29  9 32 16.0020000  0 10G19G25G 3G27G11G 8G16G22S37S29
 108359385.163 8  21219691.301          49.000       -2225.627
 113148894.028 8  22131108.995          48.000       -2197.137
 112483794.072 8  22004538.361          51.000       -3615.974
 119943297.743 7  22824449.186          47.000        -570.708
 117282573.47127  22318131.905          45.000        1266.891
 124460482.07527  23684043.468          47.000         973.258
 128065951.91127  24370140.797          45.000       -4351.122
 130844876.87127  24898953.331          44.000       -1184.065
 198642761.728 7  37800464.500          43.000       -1598.708
 198309254.14727  37736995.582          42.000       -1592.794
 07  8 29  9 32 17.0020000  0 10G19G25G 3G27G11G 8G16G22S37S29
 108361610.696 8  21220115.044          49.000       -2225.489
 113151091.027 8  22131526.997          48.000       -2197.624
 112487409.838 8  22005226.301          51.000       -3615.731
 119943869.840 7  22824557.778          47.000        -571.629
 117281307.17127  22317891.109          46.000        1267.028
 124459508.69627  23683858.322          44.000         973.118
 128070304.07027  24370968.949          46.000       -4352.437
 130846060.78927  24899178.281          43.000       -1184.632
 198644360.094 7  37800768.798          43.000       -1596.149
 198310846.421 7  37737298.501          42.000       -1592.081
 07  8 29  9 32 18.0020000  0 11G19G25G 3G27G11G 8G16G22G18S37S29
 108363835.965 8  21220538.701          49.000       -2224.951
 113153288.319 8  22131945.244          48.000       -2198.260
 112491025.195 8  22005914.468          51.000       -3615.032
 119944442.235 7  22824666.772          47.000        -572.607
 117280041.03027  22317650.436          46.000        1266.338
 124458535.70927  23683672.703          45.000         972.046
 128074656.03137  24371796.997          44.000       -4351.078
 130847244.70137  24899403.302          42.000       -1184.893
 138901371.59835  26432052.284          34.000       -2591.082
 198645958.118 7  37801072.815          43.000       -1597.149
 198312438.618 6  37737601.629          41.000       -1592.100
 07  8 29  9 32 19.0020000  0 11G19G25G 3G27G11G 8G16G22G18S37S29
 108366061.118 8  21220962.061          49.000       -2223.966
 113155486.210 8  22132363.735          48.000       -2196.732
 112494640.030 8  22006602.373          51.000       -3613.802
 119945015.274 7  22824775.644          47.000        -573.226
 117278775.19827  22317409.291          47.000        1266.726
 124457563.805 7  23683487.731          45.000         971.662
 128079006.91737  24372624.992          44.000       -4351.749
 130848428.50937  24899628.515          43.000       -1182.849
 138903966.25835  26432546.909          32.000       -2596.369
 198647555.647 7  37801376.763          43.000       -1598.276
 198314030.303 7  37737904.565          42.000       -1591.358
 07  8 29  9 32 20.0020000  0 10G19G25G 3G27G11G 8G16G22S37S29
 108368286.398 8  21221385.420          49.000       -2225.577
 113157685.342 8  22132782.155          48.000       -2201.310
 112498254.385 8  22007290.436          50.000       -3613.693
 119945589.393 7  22824884.761          46.000        -570.850
 117277510.46827  22317168.477          46.000        1262.760
 124456592.161 7  23683303.178          44.000         972.883
 128083358.03527  24373453.006          45.000       -4349.317
 130849611.71727  24899853.152          42.000       -1182.367
 198649153.430 7  37801680.815          43.000       -1600.177
 198315622.163 6  37738207.431          41.000       -1591.706
 07  8 29  9 32 21.0020000  0 10G19G25G 3G27G11G 8G16G22S37S29
 108370511.909 8  21221808.902          49.000       -2225.000
 113159886.131 8  22133200.978          48.000       -2199.929
 112501868.135 8  22007977.730          50.000       -3612.376
 119946164.702 8  22824994.573          48.000        -575.235
 117276247.53427  22316928.659          47.000        1263.419
 124455620.73435  23683118.222          35.000         969.761
 128087709.03227  24374280.913          44.000       -4350.927
 130850794.24626  24900077.858          41.000       -1184.334
 198650752.115 7  37801985.078          43.000       -1597.455
 198317215.500 6  37738510.505          41.000       -1593.209
 07  8 29  9 32 22.0020000  0 10G19G25G 3G27G11G 8G16G22S37S29
 108372736.682 8  21222232.192          49.000       -2225.448
 113162087.240 7  22133619.730          46.000       -2201.858
 112505481.008 8  22008665.269          51.000       -3612.602
 119946740.022 7  22825104.458          47.000        -574.487
 117274985.22227  22316688.299          46.000        1262.092
 124454649.32727  23682934.000          46.000         971.099
 128092060.23827  24375108.647          44.000       -4351.033
 130851976.72737  24900303.245          43.000       -1182.083
 198652350.806 7  37802289.321          43.000       -1599.771
 198318808.815 6  37738813.406          41.000       -1594.766
 07  8 29  9 32 23.0020000  0 10G19G25G 3G27G11G 8G16G22S37S29
 108374961.791 8  21222655.639          49.000       -2224.530
 113164289.566 8  22134039.198          48.000       -2202.183
 112509093.871 8  22009352.912          50.000       -3612.119
 119947316.096 7  22825213.783          47.000        -576.241
 117273724.30927  22316448.218          46.000        1261.268
 124453678.13527  23682748.505          45.000         972.096
 128096412.05527  24375937.009          45.000       -4351.616
 130853159.21827  24900528.406          44.000       -1182.130
 198653950.395 7  37802593.688          43.000       -1600.697
 198320403.050 6  37739116.692          41.000       -1591.465
 07  8 29  9 32 24.0020000  0 10G19G25G 3G27G11G 8G16G22S37S29
 108377187.098 8  21223079.417          49.000       -2226.746
 113166492.449 8  22134458.334          48.000       -2204.506
 112512706.959 8  22010040.729          51.000       -3614.103
 119947892.474 7  22825323.666          47.000        -577.629
 117272464.18427  22316208.556          45.000        1258.627
 124452706.97127  23682563.497          45.000         970.799
 128100764.73827  24376765.421          45.000       -4355.689
 130854342.34327  24900753.338          44.000       -1184.775
 198655550.546 7  37802898.333          44.000       -1602.441
 198321997.522 7  37739419.975          42.000       -1595.614
 07  8 29  9 32 25.0020000  0 10G19G25G 3G27G11G 8G16G22S37S29
 108379412.951 8  21223502.934          49.000       -2225.256
 113168696.053 8  22134877.681          48.000       -2203.346
 112516321.281 8  22010728.216          50.000       -3613.967
 119948468.345 7  22825432.731          45.000        -574.695
 117271206.618 7  22315968.772          45.000        1257.958
 124451734.62837  23682378.667          44.000         977.447
 128105120.76337  24377594.149          46.000       -4357.568
 130855527.48927  24900978.881          46.000       -1186.344
 198657153.688 7  37803203.467          43.000       -1604.442
 198323595.018 7  37739724.061          43.000       -1599.348
 07  8 29  9 32 26.0020000  0 11G19G25G 3G27G11G 8G16G22G18S37S29
 108381637.674 8  21223926.015          49.000       -2224.013
 113170899.640 8  22135297.061          48.000       -2205.012
 112519935.008 8  22011415.859          50.000       -3612.313
 119949042.849 7  22825541.620          45.000        -574.610
 117269950.173 7  22315728.866          46.000        1255.620
 124450759.36527  23682192.804          45.000         976.188
 128109479.32927  24378422.912          47.000       -4358.321
 130856713.42837  24901204.688          46.000       -1183.863
 138922283.20935  26436031.546          32.000       -2587.626
 198658758.901 7  37803508.845          43.000       -1604.664
 198325194.491 7  37740028.532          43.000       -1600.415
 07  8 29  9 32 27.0020000  0 11G19G25G 3G27G11G 8G16G22G18S37S29
 108383861.313 8  21224349.253          49.000       -2222.931
 113173106.324 8  22135716.791          48.000       -2206.814
 112523545.805 8  22012102.615          50.000       -3606.867
 119949619.078 7  22825651.347          45.000        -576.214
 117268697.853 7  22315490.424          45.000        1250.588
 124449784.05327  23682007.099          43.000         976.086
 128113837.40927  24379252.130          46.000       -4355.200
 130857895.89227  24901429.325          46.000       -1182.177
                  26436515.635          30.000       -2581.391
 198660366.213 7  37803814.886          43.000       -1608.282
 198326796.10237  37740333.422          43.000       -1602.194
 07  8 29  9 32 28.0020000  0 10G19G25G 3G27G11G 8G16G22S37S29
 108386083.838 8  21224771.916          50.000       -2221.620
 113175316.824 8  22136136.903          48.000       -2211.941
 112527152.851 8  22012788.933          50.000       -3605.228
 119950197.813 7  22825761.386          47.000        -580.769
 117267450.133 7  22315252.943          45.000        1246.694
 124448809.61627  23681821.253          44.000         974.477
 128118193.87037  24380081.190          46.000       -4354.572
 130859073.93327  24901653.859          47.000       -1177.460
 198661975.315 7  37804121.172          43.000       -1608.516
 198328400.235 7  37740638.746          43.000       -1607.112
 07  8 29  9 32 29.0020000  0 10G19G25G 3G27G11G 8G16G22S37S29
 108388305.020 8  21225194.875          49.000       -2219.437
 113177531.263 8  22136558.690          49.000       -2216.153
 112530755.892 8  22013474.501          50.000       -3600.559
 119950779.060 7  22825872.177          46.000        -581.792
 117266207.414 7  22315016.507          45.000        1240.196
 124447835.78627  23681636.892          46.000         975.122
 128122548.88836  24380909.603          36.000       -4356.054
 130860247.29627  24901876.876          47.000       -1170.377
 198663586.599 7  37804427.841          43.000       -1612.120
 198330006.952 7  37740944.578          43.000       -1609.966
 07  8 29  9 32 30.0020000  0 10G19G25G 3G27G11G 8G16G22S37S29
 108390524.257 8  21225617.328          49.000       -2218.537
 113179750.005 8  22136981.699          49.000       -2221.276
 112534354.267 8  22014159.162          51.000       -3595.484
 119951362.499 7  22825983.753          47.000        -584.294
 117264970.606 7  22314780.944          46.000        1234.097
 124446861.68027  23681451.780          46.000         974.622
                  24381738.646          34.000       -4354.898
 130861415.38326  24902098.827          41.000       -1165.468
 198665201.231 7  37804735.102          44.000       -1616.881
 198331617.481 7  37741251.177          43.000       -1611.077
 07  8 29  9 32 31.0020000  0 11G19G25G 3G27G11G 8G16G22G18S37S29
 108392741.191 8  21226039.205          49.000       -2216.311
 113181972.27137  22137404.535          43.000       -2223.512
 112537948.699 8  22014843.387          50.000       -3591.692
 119951945.81837  22826094.754          42.000        -583.409
 117263740.155 7  22314546.795          47.000        1226.688
 124445885.04627  23681265.345          44.000         982.365
                  24382565.611          38.000       -4356.947
 130862579.91127  24902320.604          42.000       -1160.300
 138935024.54435  26438446.352          35.000       -2562.189
 198666820.783 7  37805043.429          44.000       -1619.726
 198333232.851 7  37741558.473          43.000       -1617.850
 07  8 29  9 32 32.0020000  0 11G19G25G 3G27G11G 8G16G22G18S37S29
 108394954.562 8  21226460.524          50.000       -2212.372
                  22137827.543          33.000       -2228.854
 112541538.293 8  22015526.303          49.000       -3586.082
 119952528.67937  22826205.773          42.000        -581.104
 117262517.547 8  22314315.524          49.000        1219.769
                  23681078.329          40.000         977.167
                  24383396.065          35.000       -4362.189
 130863740.56227  24902541.646          44.000       -1158.368
 138937579.64625  26438939.343          34.000       -2548.932
 198668446.967 7  37805353.115          44.000       -1628.870
 198334855.306 7  37741867.479          44.000       -1624.149
 07  8 29  9 32 33.0020000  0 10G19G 3G27G11G 8G16G22G18S37S29
 108397165.503 8  21226881.250          50.000       -2209.809
 112545123.267 8  22016208.922          50.000       -3583.644
 119953112.69137  22826317.400          42.000        -587.023
 117261301.952 8  22314085.196          50.000        1211.082
 124443919.03027  23680890.428          42.000         985.750
 128139959.32027  24384223.502          42.000       -4361.412
 130864896.69537  24902760.979          43.000       -1155.522
 138940125.50936  26439423.152          39.000       -2544.631
 198670078.036 7  37805663.482          45.000       -1635.525
 198336482.790 7  37742177.237          45.000       -1627.441
 07  8 29  9 32 34.0020000  0 10G19G 3G27G11G 8G16G22G18S37S29
 108399375.062 8  21227302.289          51.000       -2208.825
 112548703.106 8  22016889.884          49.000       -3577.007
 119953701.88636  22826429.029          37.000        -588.457
 117260092.896 8  22313856.020          50.000        1207.057
 124442936.89836  23680702.994          41.000         980.754
 128144318.00137  24385053.663          43.000       -4356.772
 130866046.33427  24902979.424          47.000       -1146.563
 138942665.81526  26439906.124          41.000       -2537.853
 198671711.706 7  37805974.166          44.000       -1633.599
 198338113.127 7  37742487.587          43.000       -1632.695
 07  8 29  9 32 35.0020000  0 10G19G 3G27G11G 8G16G22G18S37S29
 108401584.549 8  21227722.578          50.000       -2209.688
 112552279.977 8  22017570.617          50.000       -3576.370
 119954293.52227  22826539.365          44.000        -592.992
 117258887.678 7  22313627.142          47.000        1204.921
 124441957.31227  23680517.428          44.000         979.879
 128148673.64127  24385883.370          47.000       -4354.310
 130867191.68227  24903197.937          46.000       -1144.200
 138945202.49727  26440388.589          43.000       -2535.179
 198673345.971 7  37806285.269          44.000       -1632.796
 198339744.890 7  37742798.149          44.000       -1632.508
 07  8 29  9 32 36.0020000  0 10G19G 3G27G11G 8G16G22G18S37S29
 108403794.438 8  21228143.093          50.000       -2209.879
 112555855.266 8  22018251.072          49.000       -3574.677
 119954888.19328  22826652.615          49.000        -596.129
 117257684.852 7  22313398.125          47.000        1202.503
 124440980.35226  23680331.460          40.000         977.110
 128153027.27127  24386711.907          45.000       -4352.079
 130868334.51328  24903416.223          49.000       -1141.044
 138947737.35626  26440871.559          38.000       -2534.767
 198674980.263 7  37806596.197          43.000       -1633.620
 198341377.100 7  37743108.849          44.000       -1633.199
 07  8 29  9 32 37.0020000  0 10G19G 3G27G11G 8G16G22G18S37S29
 108406004.696 8  21228563.887          50.000       -2210.672
 112559429.537 8  22018931.369          48.000       -3574.530
 119955485.11128  22826767.245          48.000        -596.889
 117256483.463 7  22313169.038          47.000        1201.193
 124440005.49226  23680145.597          41.000         975.132
 128157379.28127  24387540.286          45.000       -4352.829
 130869475.94427  24903633.076          47.000       -1142.755
                  26441354.720          33.000       -2534.958
 198676614.158 7  37806907.176          42.000       -1635.651
 198343009.580 7  37743419.464          42.000       -1630.944
 07  8 29  9 32 38.0020000  0 10G19G 3G27G11G 8G16G22G18S37S29
 108408215.258 8  21228984.263          50.000       -2210.487
 112563005.184 8  22019612.136          48.000       -3576.327
 119956081.36827  22826881.336          46.000        -594.416
 117255281.837 8  22312940.336          50.000        1202.044
 124439029.82727  23679960.694          44.000         975.332
 128161733.46227  24388368.612          46.000       -4355.459
 130870619.86028  24903850.697          48.000       -1144.638
 138952792.89035  26441837.428          34.000       -2536.443
 198678248.494 7  37807218.245          42.000       -1633.395
 198344642.065 7  37743730.182          43.000       -1633.587
 07  8 29  9 32 39.0020000  0 10G19G 3G27G11G 8G16G22G18S37S29
 108410425.808 8  21229405.389          49.000       -2210.087
 112566582.694 8  22020293.304          50.000       -3578.559
 119956675.53827  22826995.077          45.000        -591.578
 117254079.826 8  22312711.564          52.000        1202.738
 124438051.86027  23679774.171          45.000         981.602
 128166091.31627  24389197.756          44.000       -4362.477
 130871767.21927  24904068.822          46.000       -1151.560
                  26442320.815          34.000       -2539.125
 198679884.312 7  37807529.624          42.000       -1638.292
 198346275.702 7  37744040.970          42.000       -1635.206
 07  8 29  9 32 40.0020000  0 10G19G 3G27G11G 8G16G22G18S37S29
 108412635.334 8  21229825.782          48.000       -2210.400
 112570162.908 8  22020974.438          49.000       -3581.034
 119957264.40327  22827106.866          43.000        -585.610
 117252877.605 8  22312483.331          50.000        1200.169
 124437067.61327  23679586.322          45.000         989.023
 128170457.09227  24390028.367          42.000       -4367.431
 130872920.83527  24904288.309          45.000       -1156.126
 138957880.52026  26442805.460          36.000       -2538.931
 198681523.738 7  37807841.650          42.000       -1642.439
 198347911.961 7  37744352.490          43.000       -1636.682
 07  8 29  9 32 41.0020000  0 10G19G 3G27G11G 8G16G22G18S37S29
 108414843.064 8  21230245.811          49.000       -2206.329
 112573744.207 8  22021656.043          50.000       -3581.795
 119957848.87227  22827217.118          45.000        -582.310
 117251677.048 8  22312254.716          48.000        1199.334
 124436077.00927  23679398.071          47.000         993.668
 128174830.27127  24390860.512          44.000       -4376.752
 130874078.54927  24904508.581          42.000       -1161.224
 138960420.44535  26443289.162          31.000       -2540.820
 198683168.017 6  37808154.496          38.000       -1647.760
 198349552.753 6  37744664.968          40.000       -1644.704
 07  8 29  9 32 42.0020000  0 10G19G 3G27G11G 8G16G22G18S37S29
 108417048.970 8  21230666.029          51.000       -2207.091
 112577326.399 8  22022338.119          50.000       -3582.534
 119958429.12827  22827327.334          46.000        -579.685
                  22312028.275          27.000        1182.640
 124435080.85327  23679208.563          47.000         997.667
 128179209.66427  24391694.003          45.000       -4381.874
 130875239.79427  24904729.972          43.000       -1162.344
                  26443771.400          30.000       -2538.562
 198684816.278 6  37808468.041          41.000       -1646.990
 198351197.015 7  37744978.007          44.000       -1645.589
 07  8 29  9 32 43.0020000  0 10G19G25G 3G27G 8G16G22G18S37S29
 108419253.918 8  21231084.468          48.000       -2205.068
 116359672.62138  22142509.488          49.000       -2232.775
 112580909.764 8  22023019.707          51.000       -3582.823
 119959006.584 7  22827437.534          46.000        -576.006
 124434080.230 7  23679018.078          47.000        1001.668
 128183595.114 7  24392528.505          46.000       -4387.886
 130876404.67037  24904952.146          42.000       -1167.127
                  26444257.142          28.000       -2543.277
 198686467.04237  37808782.387          42.000       -1654.907
 198352844.335 5  37745291.514          33.000       -1655.014
 07  8 29  9 32 44.0020000  0  7G19G25G 3G27G 8G16G22
 108421458.046 8  21231504.251          50.000       -2203.807
 116361904.23028  22142934.820          50.000       -2230.726
 112584494.643 8  22023702.167          51.000       -3584.472
 119959580.323 7  22827546.791          46.000        -571.899
 124433075.602 7  23678827.036          47.000        1007.570
 128187985.375 7  24393364.141          44.000       -4393.832
                  24905174.528          42.000       -1176.971
 07  8 29  9 32 45.0020000  0  7G19G25G 3G27G 8G16G22
 108423661.226 8  21231923.284          49.000       -2202.279
 116364134.79228  22143358.930          50.000       -2230.822
 112588080.333 8  22024384.208          51.000       -3586.560
 119960151.671 7  22827655.751          47.000        -570.228
 124432067.382 7  23678634.944          47.000        1009.407
 128192380.125 7  24394200.669          45.000       -4395.714
 130878746.70527  24905397.421          42.000       -1173.812
 07  8 29  9 32 46.0020000  0  8G19G25G 3G27G11G 8G16G22
 108425863.838 8  21232342.700          50.000       -2201.938
 116366364.50128  22143782.865          49.000       -2231.843
 112591666.953 8  22025066.930          50.000       -3586.571
 119960720.975 7  22827764.118          47.000        -567.865
 117245643.29836  22311104.189          41.000        1202.528
 124431056.398 7  23678442.661          47.000        1011.233
 128196778.918 7  24395037.911          45.000       -4400.845
 130879920.90636  24905621.517          41.000       -1173.268
 07  8 29  9 32 47.0020000  0  8G19G25G 3G27G11G 8G16G22
 108428066.556 8  21232762.186          50.000       -2202.513
 116368593.87928  22144208.198          50.000       -2228.495
 112595255.083 8  22025749.739          50.000       -3587.739
 119961289.024 7  22827872.519          46.000        -565.966
 117244447.37428  22310886.757          50.000        1195.455
 124430043.672 7  23678249.994          47.000        1013.631
 128201181.457 7  24395875.345          46.000       -4404.467
 130881098.12537  24905845.416          42.000       -1183.763
 07  8 29  9 32 48.0020000  0  8G19G25G 3G27G11G 8G16G22
 108430269.229 8  21233181.183          49.000       -2202.500
 116370822.42028  22144632.571          49.000       -2226.881
 112598844.579 8  22026432.810          50.000       -3589.917
 119961855.734 7  22827979.907          46.000        -567.027
 117243251.95038  22310659.014          50.000        1195.634
 124429029.162 7  23678056.856          47.000        1015.641
 128205587.263 7  24396713.827          45.000       -4407.403
 130882278.33127  24906069.792          42.000       -1183.152
 07  8 29  9 32 49.0020000  0  8G19G25G 3G27G11G 8G16G22
 108432472.310 8  21233600.215          50.000       -2203.206
 116373051.29128  22145057.360          49.000       -2229.034
 112602435.154 8  22027116.125          51.000       -3590.504
 119962422.334 7  22828087.488          46.000        -566.207
 117242057.41438  22310431.602          50.000        1194.157
 124428014.321 7  23677863.751          47.000        1014.704
 128209995.299 7  24397552.764          46.000       -4408.153
 130883460.28227  24906295.074          42.000       -1183.184
 07  8 29  9 32 50.0020000  0  8G19G25G 3G27G11G 8G16G22
 108434675.738 8  21234019.526          49.000       -2203.813
 116375280.67528  22145481.959          50.000       -2229.407
 112606026.380 8  22027799.911          51.000       -3592.288
 119962989.155 7  22828195.400          46.000        -566.525
 117240863.50538  22310204.034          50.000        1193.669
 124426999.514 7  23677670.455          47.000        1015.007
 128214404.718 7  24398391.473          47.000       -4410.422
 130884643.84737  24906520.322          42.000       -1180.451
 07  8 29  9 32 51.0020000  0  8G19G25G 3G27G11G 8G16G22
 108436879.865 8  21234438.942          49.000       -2204.253
 116377510.99528  22145906.732          50.000       -2230.630
 112609618.486 8  22028483.227          50.000       -3592.516
 119963556.680 7  22828303.347          46.000        -567.818
 117239670.55528  22309977.687          50.000        1193.473
 124425985.224 7  23677477.421          46.000        1014.581
 128218815.465 7  24399230.653          46.000       -4411.241
                  24906745.917          40.000       -1183.825
 07  8 29  9 32 52.0020000  0  8G19G25G 3G27G11G 8G16G22
 108439084.923 8  21234858.793          50.000       -2205.556
 116379742.75228  22146331.241          49.000       -2236.884
 112613211.127 8  22029167.153          50.000       -3592.383
 119964125.792 7  22828412.218          47.000        -569.315
 117238478.49228  22309752.107          50.000        1191.254
 124424972.548 7  23677284.508          46.000        1011.767
 128223226.426 7  24400069.992          46.000       -4410.057
 130887014.98036  24906970.938          40.000       -1183.789
 07  8 29  9 32 53.0020000  0  8G19G25G 3G27G11G 8G16G22
 108441291.056 8  21235278.453          49.000       -2206.585
 116381976.15128  22146756.521          50.000       -2234.436
 112616804.352 8  22029850.957          51.000       -3593.918
 119964696.843 7  22828520.810          46.000        -571.719
 117237287.70238  22309525.550          50.000        1190.421
 124423961.795 7  23677092.153          46.000        1010.686
 128227637.487 7  24400909.591          46.000       -4411.806
 130888200.90936  24907197.144          40.000       -1186.468
 07  8 29  9 32 54.0020000  0  8G19G25G 3G27G11G 8G16G22
 108443498.037 8  21235698.375          48.000       -2206.616
 116384209.92528  22147181.626          49.000       -2234.124
 112620399.065 8  22030535.075          51.000       -3595.457
 119965268.081 7  22828629.578          47.000        -570.299
 117236097.35128  22309298.925          49.000        1192.146
 124422951.388 7  23676899.782          44.000        1010.084
 128232050.547 7  24401749.696          45.000       -4414.493
 130889389.41527  24907423.332          42.000       -1191.277
 07  8 29  9 32 55.0020000  0  8G19G25G 3G27G11G 8G16G22
 108445705.519 8  21236118.158          48.000       -2207.113
 116386444.200 8  22147606.765          49.000       -2235.857
 112623994.983 8  22031219.420          50.000       -3596.278
 119965839.435 7  22828738.136          45.000        -569.311
                  22309072.872          46.000        1184.685
 124421940.635 7  23676707.324          43.000        1011.136
 128236465.926 7  24402590.010          45.000       -4417.229
                  24907649.851          40.000       -1197.045
 07  8 29  9 32 56.0020000  0  8G19G25G 3G27G11G 8G16G22
 108447913.656 8  21236538.166          49.000       -2208.921
 116388679.34036  22148032.305          41.000       -2237.168
 112627591.877 8  22031903.904          50.000       -3597.481
 119966411.185 7  22828847.164          46.000        -572.359
                  22308847.887          33.000        1184.823
 124420930.113 7  23676515.214          45.000        1010.794
 128240883.068 7  24403430.482          45.000       -4417.420
                  24907875.893          33.000       -1173.212
 07  8 29  9 32 57.0020000  0  8G19G25G 3G27G11G 8G16G22
 108450122.493 7  21236958.158          47.000       -2208.387
 116390915.51536  22148457.689          37.000       -2237.535
 112631189.492 8  22032588.075          50.000       -3597.559
 119966983.806 7  22828956.262          46.000        -573.219
                  22308622.849          29.000        1186.333
 124419920.219 7  23676322.808          46.000        1008.812
 128245301.432 7  24404271.408          45.000       -4418.779
 130892952.97436  24908100.784          39.000       -1192.749
 07  8 29  9 32 58.0020000  0  8G19G25G 3G27G11G 8G16G22
 108452332.206 8  21237378.917          49.000       -2209.491
 116393153.15636  22148884.261          39.000       -2234.530
 112634787.08335  22033273.171          35.000       -3595.705
 119967557.771 7  22829065.343          46.000        -574.710
                  22308399.927          27.000        1197.961
 124418911.437 7  23676130.576          44.000        1007.698
 128249720.601 7  24405112.473          45.000       -4419.234
                  24908329.119          37.000       -1194.962
 07  8 29  9 32 59.0020000  0  8G19G25G 3G27G11G 8G16G22
 108454543.225 8  21237800.287          49.000       -2212.082
 116395392.20137  22149311.702          42.000       -2239.289
                  22033957.709          34.000       -3593.247
 119968133.581 7  22829175.052          46.000        -575.307
                  22308175.460          33.000        1185.139
 124417904.600 7  23675938.971          45.000        1003.460
 128254140.211 7  24405953.347          46.000       -4419.218
 130895365.48635  24908559.966          34.000       -1199.652
 07  8 29  9 33  0.0020000  0  8G19G25G 3G27G11G 8G16G22
 108456755.554 8  21238221.412          50.000       -2213.441
 116397632.91036  22149737.330          38.000       -2238.946
 115792844.52936  22034645.855          38.000       -3601.246
 119968711.319 7  22829285.057          47.000        -578.913
                  22307953.718          29.000        1178.967
 124416899.994 7  23675747.856          45.000        1003.062
 128258560.074 7  24406794.325          46.000       -4420.011
                  24908790.208          31.000       -1191.552
 07  8 29  9 33  1.0020000  0  8G19G25G 3G27G11G 8G16G22
 108458969.101 8  21238642.538          50.000       -2215.380
 116399875.38726  22150163.934          38.000       -2242.805
 115796441.17238  22035329.747          49.000       -3601.135
 119969291.040 7  22829395.202          46.000        -580.445
                  22307733.247          27.000        1166.874
 124415897.405 7  23675557.368          47.000        1001.494
 128262979.733 7  24407635.304          45.000       -4418.678
                  24909021.103          29.000       -1205.853
 07  8 29  9 33  2.0020000  0  7G19G25G 3G27G11G 8G16
 108461184.256 8  21239063.908          49.000       -2216.620
 116402120.23326  22150590.573          37.000       -2246.614
 115800042.42828  22036011.596          51.000       -3602.142
 119969873.851 7  22829506.045          47.000        -583.667
                  22307513.656          26.000        1173.444
 124414898.329 8  23675367.683          48.000         997.585
 128267397.932 7  24408475.829          44.000       -4417.022
 07  8 29  9 33  3.0020000  0  8G19G25G 3G27G11G 8G16G22
 108463401.108 8  21239485.470          49.000       -2217.522
 116404367.91636  22151017.789          36.000       -2247.289
 115803643.81128  22036696.291          51.000       -3601.654
 119970460.430 7  22829617.602          46.000        -589.435
                  22307292.060          26.000        1183.904
 124413903.412 7  23675178.608          47.000         991.092
 128271813.978 7  24409316.197          44.000       -4415.112
 130900094.91237  24909459.964          42.000       -1193.565
 07  8 29  9 33  4.0020000  0  8G19G25G 3G27G11G 8G16G22
 108465619.651 8  21239907.886          50.000       -2219.694
 116406618.54026  22151445.912          37.000       -2250.285
 115807245.23228  22037384.022          52.000       -3600.800
 119971050.650 7  22829730.032          46.000        -594.022
                  22307065.676          26.000        1179.086
 124412912.456 7  23674990.075          47.000         989.267
 128276228.217 7  24410156.461          44.000       -4412.594
                  24909693.833          42.000       -1189.494
 07  8 29  9 33  5.0020000  0  8G19G25G 3G27G11G 8G16G22
 108467839.874 8  21240330.565          49.000       -2221.210
 116408871.80838  22151874.663          49.000       -2253.359
 115810846.94028  22038069.466          51.000       -3601.480
 119971644.363 7  22829842.865          47.000        -594.135
                  22306842.555          27.000        1171.715
 124411925.339 7  23674802.013          47.000         986.413
 128280640.765 7  24410996.201          45.000       -4411.031
 130902546.92437  24909926.547          44.000       -1193.929
 07  8 29  9 33  6.0020000  0  8G19G25G 3G27G11G 8G16G22
 108470061.843 8  21240753.714          50.000       -2223.630
 116411127.85728  22152304.006          51.000       -2256.646
 115814449.05028  22038754.596          51.000       -3601.677
 119972241.490 7  22829956.359          46.000        -599.139
                  22306620.169          27.000        1170.753
 124410942.101 7  23674614.735          47.000         981.535
 128285051.688 7  24411835.488          45.000       -4408.699
 130903741.03337  24910152.423          45.000       -1194.299
 07  8 29  9 33  7.0020000  0  8G19G25G 3G27G11G 8G16G22
 108472285.785 8  21241176.533          49.000       -2223.969
 116413386.99228  22152733.926          50.000       -2259.573
 115818051.57928  22039440.756          51.000       -3602.586
 119972842.386 7  22830070.691          47.000        -603.887
                  22306395.796          32.000        1176.699
 124409963.059 7  23674428.731          47.000         976.957
 128289460.787 7  24412674.669          46.000       -4408.544
 130904934.78337  24910378.142          42.000       -1192.797
 07  8 29  9 33  8.0020000  0  8G19G25G 3G27G11G 8G16G22
 108474511.400 8  21241599.909          49.000       -2227.029
 116415648.72728  22153164.021          50.000       -2262.880
 115821654.47128  22040126.427          52.000       -3603.269
 119973446.856 7  22830185.565          46.000        -605.215
                  22306169.956          32.000        1176.996
 124408987.901 8  23674243.078          48.000         974.665
 128293868.284 7  24413513.379          46.000       -4407.775
 130906127.98326  24910605.482          41.000       -1195.353
 07  8 29  9 33  9.0020000  0  8G19G25G 3G27G11G 8G16G22
 108476738.702 8  21242023.582          49.000       -2228.833
 116417913.24828  22153594.935          49.000       -2265.081
 115825257.43028  22040812.116          51.000       -3603.394
 119974054.819 7  22830301.136          46.000        -610.111
                  22305926.540          50.000        1169.832
 124408016.610 7  23674057.998          45.000         968.682
 128298273.753 7  24414351.846          46.000       -4403.856
 130907320.45626  24910831.184          40.000       -1193.972
 07  8 29  9 33 10.0020000  0  8G19G25G 3G27G11G 8G16G22
 108478968.091 8  21242448.110          49.000       -2230.576
 116420181.41728  22154026.373          49.000       -2269.568
 115828860.19028  22041497.456          51.000       -3603.194
 119974667.613 7  22830417.876          47.000        -616.546
 117217246.06728  22305700.281          50.000        1171.881
 124407050.927 7  23673874.158          42.000         963.287
 128302675.664 7  24415189.336          46.000       -4399.719
 130908511.34737  24911057.446          43.000       -1186.572
 07  8 29  9 33 11.0020000  0  8G19G25G 3G27G11G 8G16G22
 108481199.926 8  21242872.569          49.000       -2232.579
 116422453.59528  22154458.736          50.000       -2273.136
 115832462.84528  22042182.377          50.000       -3602.833
 119975285.871 7  22830535.420          47.000        -618.833
 117216075.62428  22305479.901          51.000        1169.037
 124406091.291 6  23673691.888          41.000         955.547
 128307073.857 7  24416026.476          45.000       -4395.756
 130909700.34936  24911284.491          40.000       -1187.813
 07  8 29  9 33 12.0020000  0  8G19G25G 3G27G11G 8G16G22
 108483434.184 8  21243297.899          49.000       -2234.844
 116424729.77327  22154892.285          46.000       -2275.208
 115836065.52828  22042868.118          51.000       -3602.125
 119975909.406 7  22830654.654          47.000        -625.750
 117214906.71928  22305255.753          49.000        1168.115
 124405137.666 6  23673510.387          41.000         952.760
 128311468.508 7  24416862.710          46.000       -4391.978
 130910887.91437  24911510.856          43.000       -1186.085
 07  8 29  9 33 13.0020000  0  8G19G25G 3G27G11G 8G16G22
 108485670.481 8  21243723.701          49.000       -2237.352
 116427009.27237  22155325.991          42.000       -2281.987
 115839668.288 8  22043553.668          51.000       -3601.888
 119976537.336 7  22830773.977          47.000        -629.893
 117213739.04128  22305033.332          49.000        1166.399
 124404189.180 7  23673329.827          43.000         947.122
 128315860.272 7  24417698.418          47.000       -4391.441
 130912074.29427  24911736.313          42.000       -1183.894
 07  8 29  9 33 14.0020000  0  8G19G25G 3G27G11G 8G16G22
 108487908.931 8  21244149.817          50.000       -2239.264
 116429292.51736  22155760.728          37.000       -2282.184
 115843271.186 8  22044239.409          51.000       -3602.099
 119977169.856 7  22830894.486          47.000        -635.366
 117212572.74728  22304812.394          50.000        1166.211
 124403245.789 7  23673150.385          44.000         941.435
 128320249.349 7  24418533.674          46.000       -4388.029
 130913259.62227  24911961.839          44.000       -1184.911
 07  8 29  9 33 15.0020000  0  8G19G25G 3G27G11G 8G16G22
 108490149.139 8  21244575.776          50.000       -2241.247
 116431578.24626  22156196.318          38.000       -2289.041
 115846874.403 8  22044925.429          51.000       -3603.449
 119977805.928 7  22831015.381          47.000        -637.858
 117211407.79028  22304591.701          49.000        1164.264
 124402306.320 7  23672971.833          44.000         938.298
 128324636.811 7  24419368.441          45.000       -4387.260
 130914444.34437  24912187.279          42.000       -1183.867
 07  8 29  9 33 16.0020000  0  8G19G25G 3G27G11G 8G16G22
 108492390.933 8  21245002.678          50.000       -2242.543
 116433866.39335  22156631.945          34.000       -2289.757
 115850478.403 8  22045611.257          51.000       -3603.854
 119978444.732 7  22831136.938          46.000        -640.507
 117210244.39327  22304371.252          47.000        1163.336
 124401369.693 7  23672793.735          44.000         936.311
 128329023.828 7  24420203.277          47.000       -4384.608
 130915629.71627  24912412.963          43.000       -1184.784
 07  8 29  9 33 17.0020000  0  8G19G25G 3G27G11G 8G16G22
 108494634.236 8  21245429.649          50.000       -2243.980
 116436156.87126  22157067.816          36.000       -2291.135
 115854083.179 8  22046297.068          51.000       -3604.408
 119979085.966 7  22831258.669          46.000        -643.495
 117209082.15327  22304150.471          43.000        1161.436
 124400435.689 7  23672615.794          43.000         933.430
 128333410.833 7  24421038.060          46.000       -4388.024
 130916815.58437  24912638.489          43.000       -1185.608
 07  8 29  9 33 18.0020000  0  8G19G25G 3G27G11G 8G16G22
 108496878.906 8  21245856.219          49.000       -2245.421
 116438448.97926  22157504.210          37.000       -2291.809
 115857688.649 8  22046982.879          51.000       -3605.232
 119979729.574 7  22831381.030          47.000        -644.445
 117207921.24527  22303930.284          47.000        1160.622
 124399504.135 7  23672438.377          44.000         932.067
 128337797.750 7  24421872.826          44.000       -4386.389
 130918002.05327  24912864.434          42.000       -1185.453
 07  8 29  9 33 19.0020000  0  8G19G25G 3G27G11G 8G16G22
 108499124.914 8  21246283.854          50.000       -2245.930
 116440743.11926  22157940.726          37.000       -2296.110
 115861294.929 8  22047669.946          51.000       -3606.417
 119980375.225 7  22831503.826          46.000        -646.495
 117206761.588 8  22303709.346          51.000        1158.995
 124398574.802 7  23672261.361          45.000         928.473
 128342184.871 7  24422707.592          44.000       -4386.842
 130919189.47426  24913090.623          41.000       -1186.973
 07  8 29  9 33 20.0020000  0  8G19G25G 3G27G11G 8G16G22
 108501372.299 8  21246711.838          50.000       -2248.134
 116443039.17126  22158377.330          36.000       -2297.310
 115864902.096 8  22048356.175          51.000       -3607.858
 119981023.096 7  22831627.076          46.000        -648.677
 117205603.242 8  22303488.443          48.000        1157.739
 124397647.711 7  23672084.694          45.000         926.082
 128346572.284 7  24423542.288          45.000       -4387.715
 130920377.64426  24913316.220          38.000       -1187.638
 07  8 29  9 33 21.0020000  0  8G19G25G 3G27G11G 8G16G22
 108503620.995 8  21247140.031          50.000       -2249.075
 116445337.05226  22158815.470          38.000       -2297.280
 115868510.138 8  22049042.143          51.000       -3608.338
 119981672.940 7  22831750.536          47.000        -650.639
 117204446.190 7  22303268.168          47.000        1156.006
 124396722.635 7  23671908.830          44.000         923.953
 128350960.088 7  24424377.403          45.000       -4388.213
 130921566.76225  24913539.808          35.000       -1190.425
 07  8 29  9 33 22.0020000  0  8G19G25G 3G27G11G 8G16G22
 108505870.881 8  21247567.857          50.000       -2250.182
 116447636.41526  22159253.242          37.000       -2301.023
 115872119.217 8  22049728.581          51.000       -3609.600
 119982324.353 7  22831874.292          47.000        -652.200
 117203290.444 7  22303048.016          47.000        1154.792
 124395799.075 7  23671732.669          44.000         922.260
 128355348.927 7  24425212.779          45.000       -4389.445
 130922757.25225  24913764.445          35.000       -1190.785
 07  8 29  9 33 23.0020000  0  8G19G25G 3G27G11G 8G16G22
 108508121.830 8  21247996.225          50.000       -2251.429
 116449937.19326  22159690.248          36.000       -2301.474
 115875729.264 8  22050415.823          51.000       -3610.571
 119982977.138 7  22831998.363          47.000        -653.468
 117202135.904 7  22302828.352          47.000        1153.761
 124394876.831 7  23671557.137          44.000         921.620
 128359738.780 7  24426047.685          45.000       -4390.013
 130923949.03625  24913990.809          35.000       -1191.951
 07  8 29  9 33 24.0020000  0  8G19G25G 3G27G11G 8G16G22
 108510373.985 8  21248424.767          50.000       -2252.539
 116452239.50826  22160127.672          36.000       -2302.423
 115879340.419 8  22051102.942          51.000       -3611.413
 119983631.443 7  22832122.905          47.000        -655.031
 117200982.698 7  22302608.776          47.000        1152.928
 124393956.046 7  23671381.623          44.000         920.072
 128364129.801 7  24426883.532          45.000       -4391.480
 130925142.24626  24914217.207          36.000       -1193.731
 07  8 29  9 33 25.0020000  0  8G19G25G 3G27G11G 8G16G22
 108512627.214 8  21248853.536          50.000       -2253.246
 116454543.211 6  22160565.044          36.000       -2303.707
 115882952.560 8  22051790.742          51.000       -3612.209
 119984287.147 7  22832247.743          47.000        -656.126
 117199830.692 7  22302389.426          47.000        1151.775
 124393036.584 7  23671206.893          44.000         919.442
 128368521.863 7  24427719.048          45.000       -4392.255
 130926337.290 5  24914444.758          35.000       -1193.630
 07  8 29  9 33 26.0020000  0  8G19G25G 3G27G11G 8G16G22
 108514881.518 8  21249282.601          50.000       -2254.723
 116456848.336 6  22161002.834          36.000       -2306.999
 115886565.665 8  22052478.420          51.000       -3613.280
 119984944.239 7  22832372.913          47.000        -658.237
 117198679.892 7  22302170.583          47.000        1150.341
 124392118.438 7  23671032.111          45.000         917.539
 128372914.955 7  24428554.704          45.000       -4394.187
 130927533.161 6  24914672.482          36.000       -1196.821
 07  8 29  9 33 27.0020000  0  8G19G25G 3G27G11G 8G16G22
 108517137.006 8  21249711.649          50.000       -2256.098
 116459154.969 5  22161441.253          35.000       -2306.596
 115890179.849 8  22053165.766          51.000       -3614.925
 119985602.836 7  22832498.222          47.000        -659.170
 117197530.409 7  22301951.372          46.000        1148.882
 124391201.736 7  23670857.399          44.000         915.602
 128377309.209 7  24429390.918          45.000       -4394.989
 130928730.470 6  24914900.730          36.000       -1198.168
 07  8 29  9 33 28.0020000  0  8G19G25G 3G27G11G 8G16G22
 108519393.656 8  21250141.186          50.000       -2256.781
 116461463.008 5  22161879.096          35.000       -2307.459
 115893795.323 8  22053853.531          51.000       -3616.171
 119986262.710 7  22832623.916          47.000        -659.495
 117196382.248 7  22301732.686          46.000        1147.752
 124390286.146 7  23670683.159          45.000         916.014
 128381705.089 7  24430227.515          45.000       -4397.859
 130929929.520 6  24915131.875          41.000       -1199.761
 07  8 29  9 33 29.0020000  0  8G19G25G 3G27G11G 8G16G22
 108521651.089 8  21250570.391          50.000       -2257.349
 116463771.63035  22162319.696          32.000       -2308.610
 115897412.427 8  22054542.204          51.000       -3617.327
 119986922.622 7  22832749.540          47.000        -659.323
 117195235.431 8  22301514.069          49.000        1146.016
 124389370.220 7  23670509.110          45.000         916.603
 128386104.141 7  24431064.950          45.000       -4400.579
 130931131.384 7  24915361.973          42.000       -1201.437
 07  8 29  9 33 30.0020000  0  8G19G25G 3G27G11G 8G16G22
 108523908.918 8  21251000.068          50.000       -2258.075
                  22162760.820          31.000       -2308.472
 115901031.541 8  22055231.067          51.000       -3619.665
 119987581.296 7  22832875.200          47.000        -657.043
 117194089.980 8  22301296.377          50.000        1145.029
 124388452.449 7  23670335.028          46.000         919.160
 128390507.842 7  24431903.030          46.000       -4405.234
 130932336.890 6  24915591.843          40.000       -1207.284
 07  8 29  9 33 31.0020000  0  8G19G25G 3G27G11G 8G16G22
 108526166.796 8  21251429.692          50.000       -2259.327
                  22163201.403          29.000       -2309.047
 115904652.777 8  22055919.948          50.000       -3623.615
 119988238.014 7  22833000.179          46.000        -656.075
 117192945.769 8  22301078.999          50.000        1143.870
 124387531.835 7  23670160.125          47.000         921.397
 128394917.267 7  24432742.401          45.000       -4410.353
 130933546.10936  24915821.695          41.000       -1211.526
 07  8 29  9 33 32.0020000  0  8G19G25G 3G27G11G 8G16G22
 108528425.132 8  21251859.438          49.000       -2258.406
                  22163645.108          24.000       -2314.627
 115908275.587 8  22056609.546          51.000       -3622.528
 119988894.164 7  22833125.314          47.000        -657.880
 117191802.775 8  22300861.709          50.000        1142.616
 124386610.279 7  23669984.768          47.000         920.942
 128399330.167 7  24433581.859          45.000       -4414.932
 130934758.85327  24916052.736          44.000       -1213.060
 07  8 29  9 33 33.0020000  0  8G19G25G 3G27G11G 8G16G22
 108530684.619 8  21252290.039          50.000       -2261.381
                  22164089.650          26.000       -2320.263
 115911899.423 8  22057298.724          51.000       -3625.397
 119989551.934 7  22833250.571          47.000        -658.487
 117190661.081 8  22300644.348          48.000        1142.107
 124385690.189 8  23669809.445          49.000         919.384
 128403743.949 7  24434421.478          46.000       -4411.811
 130935972.74136  24916281.960          38.000       -1216.725
 07  8 29  9 33 34.0020000  0  8G19G25G 3G27G11G 8G16G22
 108532945.522 8  21252720.239          50.000       -2261.311
                  22164535.032          28.000       -2318.833
 115915524.547 8  22057988.566          51.000       -3625.066
 119990211.373 7  22833375.759          45.000        -659.267
 117189520.180 8  22300427.355          49.000        1141.096
 124384771.878 8  23669634.698          49.000         918.706
 128408158.722 7  24435261.513          45.000       -4413.521
 130937186.34236  24916511.309          39.000       -1215.580
 07  8 29  9 33 35.0020000  0  8G19G25G 3G27G11G 8G16G22
 108535207.609 8  21253150.631          50.000       -2262.996
                  22164979.055          25.000       -2313.665
 115919150.679 7  22058678.861          44.000       -3627.658
 119990872.360 7  22833501.189          45.000        -663.395
 117188380.29237  22300210.099          45.000        1139.381
 124383855.264 8  23669460.614          49.000         915.770
 128412574.035 7  24436101.915          46.000       -4415.791
 130938400.87236  24916745.268          39.000       -1206.493
 07  8 29  9 33 36.0020000  0  8G19G25G 3G27G11G 8G16G22
 108537471.051 8  21253581.267          50.000       -2264.045
                  22165423.283          27.000       -2320.839
 115922778.068 8  22059368.894          50.000       -3628.904
 119991534.972 7  22833626.552          45.000        -662.843
 117187241.24828  22299993.227          50.000        1139.207
 124382940.572 8  23669287.245          48.000         914.451
 128416989.38237  24436941.915          43.000       -4418.083
 130939615.88436  24916979.849          36.000       -1210.124
 07  8 29  9 33 37.0020000  0  8G19G25G 3G27G11G 8G16G22
 108539736.190 8  21254012.077          49.000       -2266.227
                  22165865.995          25.000       -2320.682
 115926407.004 8  22060059.521          49.000       -3630.283
 119992199.688 7  22833753.012          45.000        -666.028
 117186102.89228  22299776.391          51.000        1138.270
 124382028.292 7  23669113.264          47.000         908.772
                  24437782.494          43.000       -4413.283
 130940817.42835  24917210.459          32.000       -1197.931
 07  8 29  9 33 38.0020000  0  8G19G25G 3G27G11G 8G16G22
 108542003.345 8  21254444.039          49.000       -2268.087
                  22166307.241          28.000       -2321.038
 115930036.551 8  22060749.974          49.000       -3629.802
 119992867.835 7  22833880.573          45.000        -667.540
 117184965.55528  22299559.327          49.000        1136.751
 124381119.968 8  23668940.088          48.000         907.767
 128425816.08437  24438620.279          45.000       -4413.260
                  24917445.156          36.000       -1218.748
 07  8 29  9 33 39.0020000  0  7G19G 3G27G11G 8G16G22
 108544272.147 8  21254875.879          50.000       -2269.625
 115933666.159 8  22061440.951          50.000       -3628.844
 119993539.597 8  22834009.109          48.000        -673.160
 117183829.66128  22299343.746          50.000        1134.834
 124380215.626 7  23668767.660          47.000         901.664
 128430229.08437  24439459.460          45.000       -4413.701
 130943294.30936  24917680.403          37.000       -1218.033
 07  8 29  9 33 40.0020000  0  7G19G 3G27G11G 8G16G22
 108546542.441 8  21255307.929          49.000       -2270.050
 115937296.225 8  22062131.263          51.000       -3630.625
 119994214.382 7  22834137.961          47.000        -675.071
 117182695.47528  22299127.782          52.000        1133.886
 124379314.358 7  23668595.758          45.000         901.645
 128434641.31227  24440299.967          45.000       -4413.230
 130944513.33826  24917910.169          39.000       -1220.174
 07  8 29  9 33 41.0020000  0  7G19G 3G27G11G 8G16G22
 108548813.959 8  21255739.786          49.000       -2271.207
 115940927.821 8  22062822.274          50.000       -3632.416
 119994890.148 7  22834266.394          46.000        -674.856
 117181562.19228  22298911.713          50.000        1133.738
 124378414.082 7  23668424.850          44.000         898.917
 128439055.38037  24441140.491          44.000       -4413.893
 130945734.35527  24918141.350          43.000       -1219.939
 07  8 29  9 33 42.0020000  0  7G19G 3G27G11G 8G16G22
 108551087.057 8  21256171.905          50.000       -2273.450
 115944562.326 8  22063513.807          49.000       -3635.335
 119995566.002 7  22834395.160          45.000        -674.545
 117180429.06928  22298696.431          48.000        1137.075
 124377514.174 7  23668253.890          46.000         899.689
 128443472.52237  24441981.573          46.000       -4417.610
                  24918373.787          42.000       -1218.631
 07  8 29  9 33 43.0020000  0  7G19G 3G27G11G 8G16G22
 108553362.028 8  21256604.809          50.000       -2275.211
 115948200.583 8  22064206.248          50.000       -3638.978
 119996242.78236  22834524.011          37.000        -676.578
 117179293.53438  22298480.414          49.000        1133.757
 124376614.91236  23668083.505          41.000         897.186
 128447891.97237  24442823.249          45.000       -4418.808
                  24918604.530          40.000       -1222.291
 07  8 29  9 33 44.0020000  0  7G19G 3G27G11G 8G16G22
 108555639.798 8  21257038.045          49.000       -2278.190
 115951841.951 8  22064898.951          50.000       -3641.695
                  22834655.654          41.000        -682.595
 117178156.05337  22298263.388          47.000        1141.968
 124375719.43326  23667913.172          41.000         892.980
                  24443665.171          39.000       -4415.025
 130949376.07837  24918837.851          44.000       -1237.441
 07  8 29  9 33 45.0020000  0  7G19G 3G27G11G 8G16G22
 108557920.696 8  21257471.699          49.000       -2281.497
 115955486.696 8  22065591.828          49.000       -3645.424
                  22834784.313          42.000        -685.173
 117177016.21637  22298045.504          46.000        1140.609
 124374828.51527  23667743.623          44.000         885.802
 128456746.38727  24444506.115          47.000       -4413.881
 130950612.74427  24919073.623          46.000       -1232.860
 07  8 29  9 33 46.0020000  0  7G19G 3G27G11G 8G16G22
 108560204.101 8  21257906.452          49.000       -2284.550
 115959133.987 8  22066285.996          50.000       -3648.877
 119998267.66937  22834911.142          46.000        -681.742
 117175875.05637  22297828.041          46.000        1142.891
 124373941.05737  23667574.654          45.000         890.261
                  24445346.847          42.000       -4419.614
                  24919309.126          42.000       -1244.942
 07  8 29  9 33 47.0020000  0  7G19G 3G27G11G 8G16G22
 108562488.860 8  21258340.980          50.000       -2285.925
 115962783.177 8  22066980.270          51.000       -3648.898
 119998950.48028  22835040.082          48.000        -683.051
 117174733.34527  22297610.855          45.000        1142.372
 124373055.03627  23667406.380          45.000         885.998
                  24446187.899          44.000       -4409.187
 130953097.43737  24919545.927          45.000       -1240.397
 07  8 29  9 33 48.0020000  0  7G19G 3G27G11G 8G16G22
 108564774.617 8  21258775.891          50.000       -2286.170
 115966433.199 8  22067675.173          51.000       -3650.094
 119999634.60827  22835170.853          47.000        -684.433
 117173592.89027  22297393.739          46.000        1139.904
 124372170.18327  23667238.001          46.000         880.660
                  24447031.177          39.000       -4417.110
 130954340.24536  24919783.179          41.000       -1243.995
 07  8 29  9 33 49.0020000  0  7G19G 3G27G11G 8G16G22
 108567061.674 8  21259211.187          50.000       -2287.069
 115970084.423 8  22068369.446          51.000       -3652.707
 120000320.41627  22835301.816          46.000        -687.090
 117172453.90127  22297176.745          45.000        1138.499
 124371287.06027  23667070.637          45.000         883.186
                  24447875.156          35.000       -4420.605
 130955584.44227  24920020.675          44.000       -1247.059
 07  8 29  9 33 50.0020000  0  7G19G 3G27G11G 8G16G22
 108569350.168 8  21259647.180          50.000       -2288.572
 115973737.464 8  22069064.593          51.000       -3653.541
                  22835433.788          30.000        -697.807
 117171315.35227  22296960.118          46.000        1139.494
 124370405.26427  23666903.027          46.000         882.225
                  24448723.934          34.000       -4421.227
 130956831.12827  24920258.591          46.000       -1248.288
 07  8 29  9 33 51.0020000  0  7G19G 3G27G11G 8G16G22
 108571640.558 8  21260082.789          50.000       -2291.627
 115977393.099 8  22069759.912          50.000       -3657.692
                  22835568.417          27.000        -696.266
 117170176.19727  22296743.264          45.000        1139.285
 124369525.14327  23666736.133          46.000         881.341
 128483342.19935  24449567.189          35.000       -4401.479
 130958080.98727  24920496.593          47.000       -1253.076
 07  8 29  9 33 52.0020000  0  7G19G 3G27G11G 8G16G22
 108573933.156 8  21260518.747          50.000       -2292.931
 115981051.825 8  22070456.629          51.000       -3660.782
                  22835705.811          26.000        -719.553
 117169036.36527  22296526.567          45.000        1139.626
 124368646.90027  23666568.835          44.000         875.125
                  24450409.799          32.000       -4422.471
 130959334.57628  24920735.188          48.000       -1257.380
 07  8 29  9 33 53.0020000  0  7G19G 3G27G11G 8G16G22
 108576227.759 8  21260955.385          50.000       -2295.066
 115984713.354 8  22071153.555          51.000       -3661.339
                  22835844.277          25.000        -723.563
 117167895.67327  22296309.173          45.000        1140.479
 124367771.21936  23666402.726          38.000         873.334
                  24451254.746          34.000       -4402.952
 130960591.59627  24920974.481          46.000       -1261.164
 07  8 29  9 33 54.0020000  0  7G19G 3G27G11G 8G16G22
 108578524.235 8  21261392.565          50.000       -2297.958
 115988377.456 8  22071850.446          50.000       -3665.011
                  22835984.524          23.000        -725.005
 117166754.85527  22296092.144          46.000        1139.434
                  23666243.209          27.000         860.837
                  24452088.543          40.000       -4429.382
 130961851.90537  24921214.282          45.000       -1261.489
 07  8 29  9 33 55.0020000  0  7G19G25G 3G11G 8G16G22
 108580822.639 8  21261829.954          50.000       -2299.236
 116524103.47137  22173799.750          43.000       -2330.753
 115992043.899 8  22072548.297          51.000       -3665.104
 117165614.191 7  22295875.081          45.000        1139.690
                  23666084.268          25.000         849.501
 128501004.55136  24452928.247          38.000       -4430.365
                  24921454.708          42.000       -1270.219
 07  8 29  9 33 56.0020000  0  6G19G25G 3G11G16G22
 108583122.657 8  21262268.058          50.000       -2302.026
 116526434.60628  22174245.952          48.000       -2330.879
 115995712.242 8  22073246.008          51.000       -3668.709
 117164473.841 7  22295657.913          45.000        1138.733
                  24453768.423          38.000       -4429.216
 130964383.64937  24921693.637          43.000       -1267.423
 07  8 29  9 33 57.0020000  0  6G19G25G 3G11G16G22
 108585424.356 8  21262705.954          50.000       -2301.814
                  22174690.197          49.000       -2336.354
 115999382.420 8  22073945.080          51.000       -3672.240
                  22295440.902          45.000        1138.934
                  24454610.481          37.000       -4434.270
 130965651.35536  24921935.744          38.000       -1261.827
 07  8 29  9 33 58.0020000  0  6G19G25G 3G11G16G22
 108587727.348 8  21263144.128          51.000       -2303.244
 116531112.09938  22175133.364          48.000       -2333.144
 116003054.013 8  22074643.804          51.000       -3671.802
 117162194.04727  22295224.309          45.000        1138.413
                  24455453.779          36.000       -4438.582
                  24922176.432          35.000       -1268.896
 07  8 29  9 33 59.0020000  0  7G19G25G 3G27G11G16G22
 108590031.547 6  21263582.564          41.000       -2305.138
 116533446.71628  22175577.524          49.000       -2335.019
 116006726.758 8  22075342.563          51.000       -3673.413
 120007223.41038  22836615.377          48.000        -698.019
 117161056.32427  22295007.508          46.000        1137.765
 128518718.32035  24456298.985          34.000       -4425.608
                  24922418.416          32.000       -1263.129
 07  8 29  9 34  0.0020000  0  7G19G25G 3G27G11G16G22
                  21264020.809          32.000       -2304.166
 116535783.13928  22176022.887          48.000       -2337.663
 116010400.560 8  22076041.688          51.000       -3674.690
 120007922.76327  22836749.376          47.000        -700.176
 117159920.21027  22294791.560          45.000        1135.708
                  24457141.655          36.000       -4427.339
                  24922661.168          32.000       -1259.244
 07  8 29  9 34  1.0020000  0  7G19G25G 3G27G11G16G22
                  21264461.373          30.000       -2308.191
 116538121.47328  22176468.583          48.000       -2338.944
 116014075.260 8  22076740.656          51.000       -3674.471
 120008623.93427  22836883.672          47.000        -703.092
 117158785.93637  22294576.520          46.000        1132.879
 128527570.22927  24457983.538          44.000       -4436.245
 130970740.46735  24922903.335          32.000       -1276.838
 07  8 29  9 34  2.0020000  0  8G19G25G 3G27G11G 8G16G22
 111747806.43936  21264900.526          39.000       -2307.293
 116540461.80228  22176914.365          49.000       -2341.837
 116017750.213 8  22077440.270          51.000       -3675.108
 120009326.85628  22837018.004          48.000        -703.670
 117157653.60137  22294360.924          45.000        1134.510
 124359966.82427  23664910.693          46.000         861.336
 128532006.39127  24458827.797          43.000       -4436.103
                  24923147.171          34.000       -1266.432
 07  8 29  9 34  3.0020000  0  8G19G25G 3G27G11G 8G16G22
 111750114.65928  21265337.845          49.000       -2308.962
 116542804.27928  22177360.252          49.000       -2343.884
 116021425.580 8  22078140.181          51.000       -3673.912
 120010031.68528  22837151.810          48.000        -707.910
 117156523.51837  22294145.534          45.000        1130.594
                  23664748.530          41.000         866.595
                  24459672.091          39.000       -4433.822
 130973295.61135  24923389.611          35.000       -1255.522
 07  8 29  9 34  4.0020000  0  8G19G25G 3G27G11G 8G16G22
 111752424.04128  21265777.067          49.000       -2309.802
 116545149.04228  22177806.593          49.000       -2345.482
 116025101.431 8  22078839.359          50.000       -3675.542
 120010738.46827  22837286.718          47.000        -707.767
 117155395.60627  22293931.035          46.000        1129.469
 124358229.43237  23664584.373          45.000         858.776
                  24460517.326          37.000       -4438.147
 130974567.65437  24923631.096          45.000       -1277.784
 07  8 29  9 34  5.0020000  0  8G19G25G 3G27G11G 8G16G22
 111754734.27228  21266216.969          49.000       -2310.081
 116547495.75528  22178253.475          49.000       -2348.056
 116028777.685 8  22079538.728          51.000       -3677.348
 120011446.91627  22837422.358          47.000        -708.709
 117154269.84827  22293716.867          46.000        1124.565
 124357372.16035  23664421.424          33.000         861.933
                  24461394.686          38.000       -4442.663
 130975844.06936  24923874.144          40.000       -1274.340
 07  8 29  9 34  6.0020000  0  8G19G25G 3G27G11G 8G16G22
 111757045.21328  21266656.994          50.000       -2310.797
 116549844.46828  22178700.043          49.000       -2349.455
 116032454.302 8  22080238.499          51.000       -3676.252
 120012156.88927  22837557.858          47.000        -711.288
 117153146.31027  22293503.258          46.000        1121.830
                  23664259.186          30.000         852.898
 128549857.45537  24462224.533          45.000       -4437.350
 130977119.92336  24924114.573          37.000       -1276.565
 07  8 29  9 34  7.0020000  0  8G19G25G 3G27G11G 8G16G22
 111759356.80428  21267096.773          49.000       -2312.614
 116552195.460 8  22179147.413          49.000       -2352.702
 116036130.913 8  22080938.323          51.000       -3676.530
 120012868.642 7  22837693.393          47.000        -713.016
 117152025.34427  22293289.614          45.000        1119.177
                  23664097.823          32.000         851.582
 128554299.18127  24463066.244          42.000       -4439.090
                  24924363.696          35.000       -1265.817
 07  8 29  9 34  8.0020000  0  8G19G25G 3G27G11G 8G16G22
 111761668.74328  21267536.816          49.000       -2311.612
 116554549.731 8  22179595.359          48.000       -2354.615
 116039806.649 8  22081637.658          50.000       -3674.689
 120013582.697 7  22837829.365          47.000        -715.024
 117150908.23427  22293077.435          45.000        1114.294
                  23663936.305          32.000         853.865
 128558742.35436  24463912.266          38.000       -4438.933
 130979685.62136  24924605.622          39.000       -1274.540
 07  8 29  9 34  9.0020000  0  8G19G25G 3G27G11G 8G16G22
 111763980.43928  21267976.753          49.000       -2311.698
 116556907.119 8  22180043.741          48.000       -2358.413
 116043480.820 8  22082336.836          51.000       -3674.062
 120014298.746 7  22837965.807          47.000        -717.429
 117149795.13927  22292865.780          45.000        1112.365
                  23663774.420          30.000         855.858
 128563186.37936  24464761.320          39.000       -4446.902
 130980959.97036  24924846.209          39.000       -1272.410
 07  8 29  9 34 10.0020000  0  8G19G25G 3G27G11G 8G16G22
 111766292.28928  21268416.778          49.000       -2312.315
 116559267.664 8  22180493.345          49.000       -2362.418
 116047153.956 8  22083035.369          50.000       -3672.716
 120015016.904 7  22838102.372          44.000        -719.604
 117148685.90127  22292654.717          46.000        1105.560
                  23663612.061          31.000         850.429
                  24465609.330          34.000       -4448.535
                  24925087.618          37.000       -1266.756
 07  8 29  9 34 11.0020000  0  8G19G25G 3G27G11G 8G16G22
 111768604.31528  21268856.890          50.000       -2311.790
 116561631.144 8  22180943.280          49.000       -2365.826
 116050826.265 8  22083734.670          51.000       -3671.138
 120015737.112 7  22838238.884          47.000        -720.524
 117147580.27027  22292443.989          45.000        1105.279
                  23663450.840          28.000         854.635
 128572086.20536  24466454.656          39.000       -4443.390
                  24925334.013          37.000       -1272.983
 07  8 29  9 34 12.0020000  0  8G19G25G 3G27G11G 8G16G22
 111770916.69428  21269296.932          49.000       -2311.476
 116563997.589 8  22181393.634          49.000       -2368.296
 116054497.820 8  22084433.778          51.000       -3670.183
 120016459.336 7  22838376.217          47.000        -723.014
 117146478.16027  22292233.921          45.000        1100.459
                  23663287.856          27.000         856.462
 128576533.28736  24467303.694          36.000       -4449.117
 130984803.36835  24925579.385          33.000       -1261.250
 07  8 29  9 34 13.0020000  0  8G19G25G 3G27G11G 8G16G22
 111773229.117 8  21269736.922          50.000       -2312.179
 116566367.029 8  22181844.477          49.000       -2371.246
 116058168.234 8  22085132.049          51.000       -3670.118
 120017183.609 7  22838514.596          47.000        -724.792
 117145379.729 7  22292024.727          45.000        1097.909
                  23663127.958          30.000         853.376
 128580979.47436  24468145.719          36.000       -4449.908
                  24925825.047          35.000       -1266.485
 07  8 29  9 34 14.0020000  0  8G19G25G 3G27G11G 8G16G22
 111775541.887 8  21270176.946          50.000       -2312.555
 116568739.406 8  22182295.878          49.000       -2372.764
 116061837.982 8  22085830.686          50.000       -3670.108
 120017909.943 7  22838652.661          47.000        -727.988
 117144284.801 7  22291816.404          44.000        1092.669
                  23662969.821          26.000         845.626
 128585427.80636  24468992.545          38.000       -4446.256
                  24926071.585          35.000       -1261.496
 07  8 29  9 34 15.0020000  0  8G19G25G 3G27G11G 8G16G22
 111777855.214 8  21270616.831          49.000       -2313.391
 116571114.476 8  22182747.803          48.000       -2376.232
 116065507.538 8  22086528.974          51.000       -3669.396
 120018638.330 7  22838791.564          47.000        -729.173
 117143192.964 7  22291608.973          45.000        1091.629
                  23662808.407          32.000         846.758
                  24469833.017          32.000       -4446.724
                  24926316.742          33.000       -1266.393
 07  8 29  9 34 16.0020000  0  8G19G25G 3G27G11G 8G16G22
 111780169.295 8  21271057.344          50.000       -2314.208
 116573491.838 8  22183200.461          49.000       -2378.305
 116069177.120 8  22087226.354          49.000       -3669.381
 120019368.558 7  22838930.572          47.000        -731.168
 117142103.633 7  22291401.785          45.000        1088.255
 124348041.67336  23662645.701          38.000         844.182
                  24470681.061          31.000       -4449.801
 130989952.67536  24926559.333          37.000       -1269.681
 07  8 29  9 34 17.0020000  0  9G19G25G 3G27G11G 8G16G22S29
 111782484.103 8  21271498.101          50.000       -2314.852
 116575871.188 8  22183653.293          49.000       -2379.909
 116072846.989 8  22087925.305          51.000       -3669.609
 120020100.372 7  22839069.946          47.000        -732.517
 117141016.444 7  22291195.000          46.000        1086.615
 124347196.20626  23662481.320          40.000         845.568
 128598742.87235  24471527.135          30.000       -4449.312
 130991220.70035  24926805.346          33.000       -1271.634
 198509839.66327  37775166.633          42.000       -1709.693
 07  8 29  9 34 18.0020000  0  9G19G25G 3G27G11G 8G16G22S29
 111784799.627 8  21271938.876          50.000       -2315.718
 116578252.241 8  22184106.387          49.000       -2381.803
 116076517.261 8  22088624.047          51.000       -3670.199
 120020833.663 7  22839209.652          47.000        -734.268
 117139930.903 7  22290988.720          46.000        1084.380
 124346351.84027  23662319.783          44.000         843.872
 128603194.35426  24472375.635          36.000       -4449.430
 130992491.62326  24927050.434          40.000       -1272.156
 198511548.75427  37775491.399          42.000       -1710.457
 07  8 29  9 34 19.0020000  0  9G19G25G 3G27G11G 8G16G22S29
 111787116.082 8  21272379.407          50.000       -2316.708
 116580635.161 8  22184560.302          49.000       -2383.602
 116080188.094 8  22089321.706          51.000       -3671.004
 120021568.528 7  22839348.712          47.000        -735.400
 117138847.273 7  22290782.457          45.000        1082.214
 124345508.74627  23662159.258          45.000         842.338
                  24473221.932          32.000       -4456.701
 130993763.33526  24927295.034          41.000       -1271.028
 198513259.068 7  37775816.880          42.000       -1711.127
 07  8 29  9 34 20.0020000  0  9G19G25G 3G27G11G 8G16G22S29
 111789433.314 8  21272819.954          49.000       -2317.523
 116583019.766 8  22185014.198          49.000       -2385.816
 116083859.335 8  22090020.133          51.000       -3671.465
 120022304.893 7  22839488.662          47.000        -737.471
 117137765.406 7  22290576.649          45.000        1081.022
 124344666.84227  23661999.204          46.000         841.584
                  24474071.917          28.000       -4452.668
 130995035.74026  24927537.748          39.000       -1272.333
 198514970.753 7  37776142.710          42.000       -1712.283
 07  8 29  9 34 21.0020000  0  8G19G25G 3G27G11G 8G22S29
 111791751.190 8  21273260.712          49.000       -2317.835
 116585406.046 8  22185468.270          49.000       -2386.909
 116087530.900 8  22090718.665          50.000       -3671.839
 120023042.661 7  22839629.206          47.000        -738.040
 117136685.203 7  22290371.155          45.000        1079.845
 124343825.97427  23661839.359          46.000         840.205
 130996308.56427  24927781.039          42.000       -1272.592
 198516683.012 7  37776468.732          43.000       -1713.928
 07  8 29  9 34 22.0020000  0  9G19G25G 3G27G11G 8G16G22S29
 111794069.888 8  21273701.870          49.000       -2319.084
 116587793.703 8  22185922.482          49.000       -2387.655
 116091203.072 8  22091417.512          50.000       -3672.170
 120023781.697 7  22839769.889          47.000        -739.740
 117135606.266 7  22290165.782          45.000        1077.887
 124342986.22427  23661679.916          46.000         839.331
                  24475841.262          30.000       -4458.587
 130997582.39627  24928024.591          42.000       -1274.254
 198518396.388 7  37776794.929          43.000       -1713.615
 07  8 29  9 34 23.0020000  0  9G19G25G 3G27G11G 8G16G22S29
 111796389.802 8  21274143.395          49.000       -2320.057
 116590182.908 8  22186377.321          48.000       -2389.506
 116094876.345 8  22092116.741          50.000       -3673.703
 120024522.270 7  22839910.642          47.000        -740.646
 117134528.684 7  22289960.620          45.000        1077.407
 124342147.94027  23661520.386          46.000         837.778
                  24476687.685          29.000       -4457.474
 130998857.69326  24928267.969          41.000       -1276.156
 198520110.795 7  37777121.195          43.000       -1713.963
 07  8 29  9 34 24.0020000  0  9G19G25G 3G27G11G 8G16G22S29
 111798710.631 8  21274584.484          49.000       -2321.565
 116592573.341 8  22186831.759          48.000       -2391.231
 116098550.456 8  22092816.093          50.000       -3674.544
 120025264.076 7  22840051.674          47.000        -742.860
 117133452.138 7  22289755.981          46.000        1076.003
 124341310.82827  23661360.995          46.000         836.143
                  24477535.329          30.000       -4457.119
 131000134.14726  24928511.382          40.000       -1276.870
 198521825.554 7  37777447.635          43.000       -1716.473
 07  8 29  9 34 25.0020000  0  9G19G25G 3G27G11G 8G16G22S29
 111801032.429 8  21275026.480          49.000       -2321.918
 116594965.097 8  22187286.878          48.000       -2392.125
 116102225.437 8  22093515.655          50.000       -3675.121
 120026007.193 7  22840192.951          47.000        -743.036
 117132376.716 7  22289551.220          46.000        1075.847
 124340475.445 7  23661202.128          46.000         835.247
                  24478382.293          31.000       -4458.146
 131001411.813 6  24928755.649          39.000       -1278.397
 198523540.781 7  37777774.077          43.000       -1715.674
 07  8 29  9 34 26.0020000  0  9G19G25G 3G27G11G 8G16G22S29
 111803355.164 8  21275468.372          49.000       -2322.705
 116597358.130 8  22187742.188          48.000       -2393.279
 116105901.266 8  22094215.094          50.000       -3676.147
 120026751.550 7  22840334.891          47.000        -744.526
 117131302.368 7  22289346.860          46.000        1074.090
 124339640.774 7  23661043.592          46.000         834.179
                  24479229.395          31.000       -4460.903
 131002690.674 6  24928999.481          38.000       -1278.626
 198525257.000 7  37778100.884          43.000       -1717.703
 07  8 29  9 34 27.0020000  0  9G19G25G 3G27G11G 8G16G22S29
 111805678.885 8  21275910.490          49.000       -2324.353
 116599752.458 8  22188197.638          48.000       -2394.605
 116109577.983 8  22094914.882          50.000       -3677.042
 120027497.218 7  22840477.196          47.000        -746.360
 117130229.154 7  22289142.674          46.000        1072.902
 124338807.353 7  23660885.039          46.000         832.984
                  24480076.866          31.000       -4459.558
 131003970.708 6  24929243.522          37.000       -1279.212
 198526974.084 7  37778427.709          43.000       -1717.906
 07  8 29  9 34 28.0020000  0  9G19G25G 3G27G11G 8G16G22S29
 111808003.476 8  21276352.748          49.000       -2325.282
 116602148.003 8  22188653.577          48.000       -2396.263
 116113255.475 8  22095614.845          50.000       -3678.006
 120028244.081 7  22840619.555          47.000        -747.814
 117129156.933 7  22288938.488          46.000        1070.641
 124337975.040 7  23660726.870          46.000         831.073
                  24480925.173          31.000       -4459.435
 131005251.894 6  24929488.366          36.000       -1279.991
 198528691.476 7  37778754.516          43.000       -1718.239
 07  8 29  9 34 29.0020000  0  9G19G25G 3G27G11G 8G16G22S29
 111810329.092 8  21276795.338          49.000       -2325.978
 116604544.881 8  22189109.795          48.000       -2397.006
 116116933.877 8  22096314.738          50.000       -3678.544
 120028992.288 7  22840761.931          47.000        -748.307
 117128085.873 7  22288734.862          46.000        1070.625
 124337144.010 7  23660569.067          46.000         831.025
                  24481772.502          32.000       -4461.428
 131006534.385 6  24929732.703          38.000       -1282.184
 198530409.386 7  37779081.621          43.000       -1718.443
 07  8 29  9 34 30.0020000  0  9G19G25G 3G27G11G 8G16G22S29
 111812655.853 8  21277238.084          49.000       -2326.956
 116606943.241 8  22189566.153          49.000       -2398.231
 116120613.347 8  22097014.771          50.000       -3679.255
 120029741.955 7  22840904.533          47.000        -750.652
 117127016.097 7  22288531.462          45.000        1069.641
 124336314.401 7  23660411.264          46.000         829.541
                  24482620.146          31.000       -4464.604
 131007818.248 6  24929977.389          38.000       -1284.081
 198532128.387 7  37779408.795          44.000       -1718.778
 07  8 29  9 34 31.0020000  0  9G19G25G 3G27G11G 8G16G22S29
 111814983.617 8  21277681.092          49.000       -2328.097
 116609342.934 8  22190022.824          49.000       -2399.969
 116124293.705 8  22097715.292          50.000       -3680.655
 120030492.950 7  22841047.275          47.000        -751.884
 117125947.461 7  22288328.114          46.000        1068.132
 124335486.042 7  23660253.514          47.000         827.894
                  24483467.441          31.000       -4464.452
 131009103.394 6  24930222.634          38.000       -1284.042
 198533848.820 7  37779736.317          44.000       -1719.898
 07  8 29  9 34 32.0020000  0  9G19G25G 3G27G11G 8G16G22S29
 111817312.339 8  21278124.223          49.000       -2329.051
 116611743.916 8  22190479.583          48.000       -2401.538
 116127974.943 8  22098415.778          50.000       -3681.427
 120031245.217 7  22841190.437          47.000        -753.051
 117124879.916 7  22288125.063          46.000        1067.042
 124334658.890 7  23660095.501          47.000         826.362
                  24484313.811          31.000       -4465.244
 131010389.719 6  24930468.106          39.000       -1285.783
 198535569.517 7  37780063.892          43.000       -1722.288
 07  8 29  9 34 33.0020000  0  9G19G25G 3G27G11G 8G16G22S29
 111819641.982 8  21278567.563          49.000       -2330.031
 116614146.132 8  22190936.639          48.000       -2402.792
 116131657.008 8  22099116.282          50.000       -3682.201
 120031998.723 7  22841334.034          47.000        -754.330
 117123813.445 7  22287922.064          46.000        1065.901
 124333832.928 7  23659938.571          47.000         825.762
                  24485161.300          29.000       -4461.700
 131011677.206 6  24930712.129          40.000       -1287.883
 198537291.145 7  37780391.485          43.000       -1722.847
 07  8 29  9 34 34.0020000  0  9G19G25G 3G27G11G 8G16G22S29
 111821972.616 8  21279011.025          49.000       -2330.874
 116616549.675 8  22191394.201          48.000       -2403.648
 116135339.965 8  22099817.135          50.000       -3683.608
 120032753.546 7  22841477.579          47.000        -756.107
 117122748.086 7  22287719.222          46.000        1065.057
 124333008.216 7  23659781.641          47.000         823.924
                  24486008.176          29.000       -4461.764
 131012965.927 6  24930957.357          38.000       -1288.649
 198539013.561 7  37780719.252          43.000       -1723.428
 07  8 29  9 34 35.0020000  0  9G19G25G 3G27G11G 8G16G22S29
 111824304.247 8  21279454.731          49.000       -2331.745
 116618954.529 8  22191851.972          48.000       -2405.223
 116139023.809 8  22100518.371          50.000       -3684.242
 120033509.685 7  22841621.508          47.000        -756.583
 117121683.884 7  22287516.729          46.000        1063.901
 124332184.760 7  23659624.955          47.000         822.943
                  24486854.753          26.000       -4468.698
 131014255.866 6  24931202.688          39.000       -1291.811
 198540736.896 7  37781047.124          43.000       -1724.546
 07  8 29  9 34 36.0020000  0  8G19G25G 3G27G11G 8G22S29
 111826637.023 8  21279898.647          49.000       -2333.052
 116621360.871 8  22192309.551          48.000       -2406.556
 116142708.733 8  22101219.643          50.000       -3685.185
 120034267.301 7  22841765.437          47.000        -758.069
 117120620.950 7  22287314.358          45.000        1061.918
 124331362.714 7  23659468.758          47.000         821.432
 131015547.275 6  24931448.580          39.000       -1290.363
 198542461.014 7  37781375.136          43.000       -1722.956
 07  8 29  9 34 37.0020000  0  8G19G25G 3G27G11G 8G22S29
 111828970.846 8  21280342.877          49.000       -2334.077
 116623768.595 8  22192767.584          48.000       -2407.676
 116146394.593 8  22101921.299          50.000       -3685.984
 120035026.266 7  22841909.785          47.000        -758.791
 117119559.205 7  22287112.564          46.000        1061.668
 124330541.963 7  23659312.490          46.000         820.171
 131016839.924 6  24931693.458          39.000       -1292.846
 198544185.446 7  37781703.461          43.000       -1726.372
 07  8 29  9 34 38.0020000  0  8G19G25G 3G27G11G 8G22S29
 111831305.584 8  21280787.246          49.000       -2334.939
 116626177.548 8  22193225.965          48.000       -2409.860
 116150081.263 8  22102622.692          50.000       -3686.999
 120035786.481 7  22842054.551          47.000        -760.105
 117118498.501 7  22286911.083          46.000        1060.557
 124329722.396 7  23659156.642          46.000         819.325
 131018133.763 6  24931938.615          39.000       -1294.908
 198545910.589 7  37782031.856          44.000       -1726.390
 07  8 29  9 34 39.0020000  0  8G19G25G 3G27G11G 8G22S29
 111833641.319 8  21281231.615          49.000       -2336.096
 116628587.834 8  22193684.679          48.000       -2410.915
 116153768.836 8  22103324.505          50.000       -3687.998
 120036548.002 7  22842199.562          46.000        -762.506
 117117438.943 7  22286709.271          45.000        1059.109
 124328904.095 7  23659000.567          46.000         818.276
 131019428.846 6  24932183.127          39.000       -1295.621
 198547636.894 7  37782360.443          43.000       -1727.456
 07  8 29  9 34 40.0020000  0  8G19G25G 3G27G11G 8G22S29
 111835978.172 8  21281676.473          49.000       -2337.521
 116630999.579 8  22194143.723          48.000       -2412.458
 116157457.445 8  22104026.195          50.000       -3689.208
 120037310.972 7  22842344.695          46.000        -763.693
 117116380.652 7  22286507.686          46.000        1057.664
 124328087.167 7  23658844.771          46.000         816.299
 131020725.290 6  24932427.918          39.000       -1297.456
 198549363.656 7  37782688.979          43.000       -1727.743
 07  8 29  9 34 41.0020000  0  8G19G25G 3G27G11G 8G22S29
 111838316.203 8  21282121.767          49.000       -2339.003
 116633412.806 8  22194602.681          48.000       -2413.922
 116161147.128 8  22104728.234          50.000       -3690.446
 120038075.435 7  22842490.177          47.000        -765.101
 117115323.666 7  22286306.554          46.000        1056.210
 124327271.660 7  23658689.655          47.000         814.950
 131022023.161 6  24932672.675          39.000       -1296.809
 198551091.227 7  37783017.810          43.000       -1728.622
 07  8 29  9 34 42.0020000  0  8G19G25G 3G27G11G 8G22S29
 111840655.083 8  21282566.940          49.000       -2339.313
 116635827.207 8  22195061.796          48.000       -2415.211
 116164837.555 8  22105430.256          50.000       -3690.982
 120038841.065 7  22842635.536          46.000        -766.190
 117114267.661 7  22286105.457          45.000        1055.795
 124326457.276 7  23658534.767          46.000         814.199
 131023322.116 6  24932919.142          39.000       -1297.838
 198552819.526 7  37783346.712          43.000       -1729.023
 07  8 29  9 34 43.0020000  0  9G19G25G 3G27G11G 8G16G22S29
 111842994.988 8  21283012.391          49.000       -2340.354
 116638242.973 8  22195521.260          48.000       -2416.310
 116168528.929 8  22106132.714          50.000       -3692.187
 120039608.056 7  22842781.594          46.000        -767.672
 117113212.830 7  22285904.762          45.000        1054.037
 124325644.176 7  23658379.808          46.000         812.485
                  24493606.868          30.000       -4475.212
 131024622.361 6  24933165.240          39.000       -1302.275
 198554548.646 7  37783675.752          43.000       -1730.425
 07  8 29  9 34 44.0020000  0  9G19G25G 3G27G11G 8G16G22S29
 111845335.834 8  21283457.581          49.000       -2341.232
 116640660.007 8  22195980.985          48.000       -2417.968
 116172221.173 8  22106835.242          50.000       -3692.368
 120040376.292 7  22842928.019          46.000        -768.480
 117112159.072 7  22285704.206          45.000        1053.024
 124324832.287 7  23658225.094          47.000         811.043
                  24494461.492          29.000       -4476.464
 131025923.796 6  24933412.335          40.000       -1302.512
 198556278.399 7  37784005.037          43.000       -1732.065
 07  8 29  9 34 45.0020000  0  9G19G25G 3G27G11G 8G16G22S29
 111847677.733 8  21283903.503          49.000       -2342.251
 116643078.417 8  22196440.815          48.000       -2419.231
 116175914.370 8  22107537.893          51.000       -3693.573
 120041145.910 7  22843074.041          46.000        -770.563
 117111106.515 7  22285503.860          45.000        1051.878
 124324021.699 7  23658070.991          47.000         809.866
                  24495316.553          31.000       -4476.284
 131027226.525 6  24933660.599          40.000       -1304.804
 198558009.210 7  37784334.515          43.000       -1731.124
 07  8 29  9 34 46.0020000  0  9G19G25G 3G27G11G 8G16G22S29
 111850020.915 8  21284349.478          49.000       -2343.243
 116645498.458 7  22196901.047          47.000       -2420.427
 116179608.769 8  22108241.223          50.000       -3694.993
 120041917.137 7  22843220.902          46.000        -771.397
 117110055.396 7  22285303.862          45.000        1050.783
 124323212.664 7  23657917.306          47.000         808.672
                  24496171.158          31.000       -4481.350
 131028530.813 6  24933908.950          40.000       -1305.333
 198559741.039 7  37784664.236          43.000       -1733.006
 07  8 29  9 34 47.0020000  0  9G19G25G 3G27G11G 8G16G22S29
 111852365.166 8  21284795.819          49.000       -2344.814
 116647919.887 7  22197361.889          47.000       -2421.758
 116183304.131 8  22108944.606          50.000       -3695.652
 120042689.747 7  22843367.588          46.000        -773.095
 117109005.461 7  22285104.301          45.000        1049.535
 124322404.951 7  23657763.482          47.000         807.159
                  24497025.103          32.000       -4478.053
 131029836.407 6  24934158.156          40.000       -1306.182
 198561473.607 7  37784994.046          43.000       -1732.896
 07  8 29  9 34 48.0020000  0 10G19G25G 3G27G11G 8G16G22S29S37
 111854710.496 8  21285242.405          49.000       -2345.840
 116650342.721 7  22197822.941          47.000       -2423.356
 116187000.490 8  22109647.692          51.000       -3696.589
 120043463.755 7  22843514.588          46.000        -774.781
 117107956.755 7  22284904.391          44.000        1048.630
 124321598.593 7  23657610.338          47.000         805.639
 128737223.32635  24497879.168          33.000       -4480.514
 131031143.328 6  24934408.619          40.000       -1307.429
 198563206.941 7  37785323.889          43.000       -1734.653
 198897277.54227  37848893.496          44.000       -1735.418
 07  8 29  9 34 49.0020000  0 10G19G25G 3G27G11G 8G16G22S29S37
 111857056.829 8  21285688.833          49.000       -2346.321
 116652766.894 7  22198283.940          47.000       -2424.599
 116190697.752 8  22110351.302          51.000       -3697.745
 120044239.086 7  22843661.553          46.000        -775.977
 117106909.188 7  22284705.004          44.000        1047.290
 124320793.491 7  23657457.108          47.000         804.864
 128741705.14825  24498732.711          34.000       -4481.294
 131032451.477 6  24934659.448          40.000       -1309.003
 198564940.869 7  37785654.117          43.000       -1733.568
 198899013.03527  37849223.916          43.000       -1734.750
 07  8 29  9 34 50.0020000  0 10G19G25G 3G27G11G 8G16G22S29S37
 111859404.060 8  21286135.262          49.000       -2347.805
 116655192.206 7  22198745.498          47.000       -2425.200
 116194395.852 8  22111055.453          51.000       -3698.746
 120045015.601 7  22843809.025          45.000        -777.185
 117105862.526 7  22284505.967          44.000        1046.785
 124319989.535 7  23657304.104          47.000         803.480
 128746187.76826  24499585.798          36.000       -4483.726
 131033760.838 6  24934909.613          39.000       -1311.154
 198566675.464 7  37785984.170          43.000       -1734.216
 198900749.084 7  37849554.388          44.000       -1736.406
 07  8 29  9 34 51.0020000  0 10G19G25G 3G27G11G 8G16G22S29S37
 111861752.772 8  21286581.934          49.000       -2349.537
 116657617.932 8  22199207.684          48.000       -2425.764
 116198095.825 8  22111759.254          50.000       -3701.441
 120045793.008 7  22843957.665          47.000        -777.537
 117104815.687 7  22284305.900          44.000        1046.218
 124319187.039 7  23657150.593          45.000         800.984
 128750671.60025  24500435.153          33.000       -4482.937
 131035072.601 6  24935158.714          39.000       -1312.502
 198568409.988 7  37786314.223          42.000       -1735.995
 198902485.431 7  37849884.459          44.000       -1736.252
 07  8 29  9 34 52.0020000  0 11G19G25G 3G27G11G 8G16G22G18S29S37
 111864103.903 8  21287029.043          49.000       -2352.693
 116660043.630 8  22199670.168          48.000       -2423.645
 116201799.329 8  22112463.508          50.000       -3706.081
 120046571.396 7  22844105.887          46.000        -779.419
 117103767.762 7  22284107.143          46.000        1049.911
 124318386.702 7  23656997.972          46.000         798.483
                  24501286.093          26.000       -4489.930
                  24935409.245          36.000       -1317.137
                  26508800.830          30.000       -2702.341
 198570143.833 7  37786644.243          42.000       -1733.746
 198904221.117 7  37850214.722          43.000       -1735.705
 07  8 29  9 34 53.0020000  0 10G19G25G 3G27G11G 8G16G22S29S37
 111866457.264 8  21287477.007          49.000       -2353.982
 116662468.232 8  22200131.778          48.000       -2424.947
 116205506.358 8  22113169.194          51.000       -3707.962
 120047350.098 7  22844254.318          46.000        -780.317
 117102717.392 7  22283907.304          46.000        1052.497
 124317588.066 7  23656845.771          45.000         797.910
                  24502143.302          29.000       -4484.364
 131037742.46326  24935653.390          40.000       -1321.392
 198571875.812 7  37786973.912          42.000       -1733.322
 198905955.238 7  37850544.584          42.000       -1733.018
 07  8 29  9 34 54.0020000  0 10G19G25G 3G27G11G 8G16G22S29S37
 111868811.678 8  21287925.494          49.000       -2355.442
 116664894.013 8  22200593.161          48.000       -2427.053
 116209214.483 8  22113874.811          50.000       -3707.885
 120048129.990 7  22844402.645          46.000        -779.754
 117101667.970 7  22283707.585          46.000        1048.749
 124316790.660 7  23656693.972          45.000         797.951
                  24503001.871          32.000       -4483.125
                  24935898.119          36.000       -1301.485
 198573608.457 6  37787303.879          41.000       -1731.549
 198907689.888 7  37850874.654          42.000       -1735.562
 07  8 29  9 34 55.0020000  0 10G19G25G 3G27G11G 8G16G22S29S37
 111871166.968 8  21288373.703          49.000       -2355.548
 116667321.155 8  22201055.068          48.000       -2429.337
 116212923.341 8  22114580.062          50.000       -3708.765
 120048911.198 7  22844551.093          46.000        -781.867
 117100619.737 7  22283508.111          45.000        1047.316
 124315994.404 7  23656542.067          45.000         795.384
 128768678.26836  24503864.835          41.000       -4487.291
 131040281.19836  24936136.463          40.000       -1323.353
 198575342.022 7  37787633.757          42.000       -1733.959
 198909425.320 7  37851204.777          43.000       -1736.319
 07  8 29  9 34 56.0020000  0 10G19G25G 3G27G11G 8G16G22S29S37
 111873524.053 8  21288822.173          50.000       -2357.334
 116669748.571 7  22201516.802          47.000       -2426.043
 116216634.644 8  22115286.515          51.000       -3712.484
 120049693.232 7  22844700.362          46.000        -781.956
 117099571.075 7  22283308.586          45.000        1049.834
 124315199.757 7  23656390.895          45.000         794.177
 128773167.67526  24504713.055          41.000       -4487.686
                  24936405.352          39.000       -1327.340
 198577074.997 6  37787963.619          41.000       -1732.342
 198911160.54337  37851534.692          43.000       -1733.393
 07  8 29  9 34 57.0020000  0 10G19G25G 3G27G11G 8G16G22S29S37
 111875883.413 8  21289271.375          50.000       -2360.377
 116672175.603 8  22201978.866          48.000       -2426.216
 116220349.379 8  22115993.701          50.000       -3716.505
 120050476.016 7  22844849.213          46.000        -782.239
 117098520.936 7  22283108.485          45.000        1051.515
 124314407.011 7  23656239.967          45.000         791.799
 128777658.53026  24505561.570          41.000       -4492.449
 131042973.54927  24936648.904          43.000       -1330.671
 198578806.943 7  37788293.184          42.000       -1731.251
 198912894.697 7  37851864.501          42.000       -1733.256
 07  8 29  9 34 58.0020000  0 10G19G25G 3G27G11G 8G16G22S29S37
 111878245.186 8  21289720.578          49.000       -2362.432
 116674601.532 7  22202440.599          47.000       -2424.730
 116224067.943 8  22116700.992          50.000       -3719.733
 120051259.124 7  22844998.465          44.000        -779.853
 117097468.418 7  22282908.246          46.000        1054.957
 124313616.148 7  23656089.581          45.000         790.928
 128782142.21937  24506407.381          42.000       -4494.348
 131044308.52427  24936907.549          43.000       -1334.982
 198580537.169 7  37788622.348          42.000       -1731.918
 198914627.497 7  37852194.259          42.000       -1730.969
 07  8 29  9 34 59.0020000  0 10G19G25G 3G27G11G 8G16G22S29S37
 111880609.389 8  21290170.670          49.000       -2364.993
 116677026.503 7  22202901.949          47.000       -2423.463
 116227790.324 8  22117409.591          50.000       -3724.356
 120052042.66337  22845147.576          46.000        -782.881
 117096413.492 7  22282707.743          45.000        1056.283
 124312826.74737  23655939.473          43.000         786.715
 128786635.60337  24507248.081          42.000       -4491.128
 131045648.32037  24937167.362          43.000       -1343.596
 198582265.639 6  37788951.408          41.000       -1728.139
 198916358.511 7  37852523.702          42.000       -1730.187
 07  8 29  9 35  0.0020000  0 10G19G25G 3G27G11G 8G16G22S29S37
 111882975.789 8  21290620.676          49.000       -2367.272
 116679450.747 8  22203363.228          48.000       -2423.572
 116231516.076 8  22118118.523          50.000       -3727.006
 120052826.65327  22845296.897          46.000        -784.117
 117095356.667 7  22282506.561          45.000        1059.617
                  23655789.556          37.000         781.368
 128791130.00627  24508109.911          44.000       -4495.768
                  24937426.599          36.000       -1351.930
 198583993.018 7  37789280.205          42.000       -1726.951
 198918088.699 7  37852852.865          43.000       -1730.429
 07  8 29  9 35  1.0020000  0 10G19G25G 3G27G11G 8G16G22S29S37
 111885343.858 8  21291071.397          49.000       -2368.674
 116681874.485 8  22203824.786          48.000       -2423.992
 116235244.351 8  22118828.083          51.000       -3729.317
 120053611.22127  22845446.306          47.000        -785.235
 117094298.216 7  22282304.871          46.000        1059.335
 124311217.33127  23655638.282          46.000         786.839
 128795625.18027  24508959.719          44.000       -4495.770
                  24937684.481          42.000       -1347.393
 198585718.888 7  37789608.566          42.000       -1726.213
 198919817.351 7  37853181.576          42.000       -1726.952
 07  8 29  9 35  2.0020000  0 10G19G25G 3G27G11G 8G16G22S29S37
 111887713.629 8  21291522.362          49.000       -2370.904
 116684298.652 6  22204286.116          37.000       -2428.022
 116238975.143 8  22119538.044          50.000       -3731.354
 120054396.37827  22845596.028          47.000        -786.577
 117093238.928 7  22282103.129          46.000        1059.738
 124310433.39327  23655488.837          46.000         782.545
 128800121.67137  24509815.041          43.000       -4497.124
 131049712.06437  24937931.035          43.000       -1347.014
 198587443.876 7  37789936.963          42.000       -1724.739
 198921545.583 7  37853510.339          43.000       -1725.915
 07  8 29  9 35  3.0020000  0 10G19G25G 3G27G11G 8G16G22S29S37
 111890085.570 8  21291973.990          49.000       -2372.818
                  22204748.144          33.000       -2430.768
 116242708.927 8  22120248.598          51.000       -3734.823
 120055182.40127  22845745.542          47.000        -786.372
 117092178.984 7  22281901.231          44.000        1061.145
 124309650.98027  23655340.580          46.000         782.809
 128804619.58837  24510671.201          44.000       -4497.688
 131051061.34637  24938181.006          46.000       -1354.512
 198589168.550 6  37790264.957          37.000       -1725.295
 198923273.684 7  37853839.118          43.000       -1727.736
 07  8 29  9 35  4.0020000  0  8G19G25G 3G27G11G 8G16G22
 111892459.175 8  21292425.532          49.000       -2373.168
                  22205210.944          26.000       -2424.000
 116246444.925 8  22120959.956          51.000       -3735.921
 120055969.21727  22845895.142          47.000        -786.491
 117091119.084 7  22281699.960          45.000        1062.065
 124308869.99427  23655192.340          44.000         783.385
 128809118.97627  24511527.727          44.000       -4498.342
 131052417.94227  24938428.414          45.000       -1358.696
 07  8 29  9 35  5.0020000  0  8G19G25G 3G27G11G 8G16G22
 111894833.855 8  21292877.318          49.000       -2374.429
                  22205673.095          37.000       -2425.885
 116250182.272 8  22121671.191          51.000       -3738.331
                  22846047.200          28.000        -796.286
 117090059.55437  22281498.410          45.000        1061.107
 124308091.59837  23655044.065          45.000         779.876
                  24512384.274          44.000       -4490.562
 131053776.40027  24938684.512          45.000       -1361.241
 07  8 29  9 35  6.0020000  0  8G19G25G 3G27G11G 8G16G22
 111897210.098 8  21293329.522          49.000       -2377.308
                  22206135.682          35.000       -2427.428
 116253921.690 8  22122382.740          51.000       -3740.564
                  22846203.032          30.000        -790.631
 117088999.02127  22281296.301          46.000        1060.916
                  23654896.537          28.000         770.432
                  24513243.095          27.000       -4513.275
 131055137.54127  24938944.677          46.000       -1363.466
 07  8 29  9 35  7.0020000  0  8G19G25G 3G27G11G 8G16G22
 111899588.066 8  21293782.197          50.000       -2379.146
 116696455.20836  22206597.101          41.000       -2426.664
 116257663.136 8  22123094.411          50.000       -3743.270
                  22846355.233          29.000        -789.771
 117087938.67027  22281094.699          46.000        1060.326
                  23654754.644          24.000         756.707
                  24514107.620          24.000       -4544.427
 131056501.02227  24939202.902          43.000       -1370.420
 07  8 29  9 35  8.0020000  0  8G19G25G 3G27G11G 8G16G22
 111901967.598 8  21294234.803          48.000       -2379.033
 116698882.05727  22207055.466          47.000       -2426.156
 116261406.212 8  22123806.746          50.000       -3743.944
 120059188.88236  22846504.135          38.000        -792.378
 117086878.97927  22280893.149          46.000        1059.625
                  23654612.205          24.000         775.056
                  24514974.850          24.000       -4527.572
                  24939464.151          32.000       -1366.609
 07  8 29  9 35  9.0020000  0  7G19G25G 3G27G11G 8G22
 111904347.946 8  21294687.705          49.000       -2381.243
 116701309.87127  22207516.918          47.000       -2429.251
 116265150.621 7  22124518.383          43.000       -3745.030
                  22846649.238          46.000        -781.391
 117085820.12727  22280691.807          45.000        1057.529
                  23654464.266          28.000         785.333
                  24939726.410          32.000       -1367.527
 07  8 29  9 35 10.0020000  0  8G19G25G 3G27G11G 8G16G22
 111906729.830 8  21295140.905          50.000       -2382.578
 116703738.85727  22207978.773          47.000       -2430.624
 116268896.76036  22125231.399          37.000       -3746.313
 120060740.41537  22846799.270          44.000        -793.778
 117084762.21027  22280490.537          46.000        1058.818
 124304243.02337  23654311.030          45.000         771.984
                  24516666.360          41.000       -4506.433
                  24939989.524          31.000       -1368.720
 07  8 29  9 35 11.0020000  0  8G19G25G 3G27G11G 8G16G22
 111909113.097 8  21295594.278          50.000       -2384.112
 116706168.40637  22208440.838          47.000       -2427.464
 116272644.23636  22125945.357          37.000       -3745.626
 120061534.84427  22846948.626          46.000        -795.025
 117083704.71227  22280288.865          45.000        1058.619
 124303471.91927  23654161.883          45.000         770.792
 128840461.93727  24517524.806          44.000       -4505.599
                  24940251.658          29.000       -1378.375
 07  8 29  9 35 12.0020000  0  7G19G25G 3G27G11G 8G16
 111911498.170 8  21296048.489          50.000       -2386.590
 116708598.72628  22208903.303          48.000       -2429.466
                  22126660.865          32.000       -3755.345
 120062330.50627  22847099.430          46.000        -796.032
 117082647.26927  22280087.523          46.000        1056.246
 124302702.58327  23654015.091          45.000         769.311
 128844970.96527  24518383.652          44.000       -4508.182
 07  8 29  9 35 13.0020000  0  7G19G25G 3G27G11G 8G16
 111913885.535 8  21296502.473          50.000       -2387.513
 116711030.10327  22209366.257          47.000       -2431.463
 116280134.24338  22127374.003          48.000       -3753.574
 120063127.90327  22847251.089          46.000        -798.342
 117081590.646 7  22279886.235          46.000        1056.575
 124301935.67127  23653869.207          45.000         767.859
                  24519242.499          43.000       -4509.995
 07  8 29  9 35 14.0020000  0  7G19G25G 3G27G11G 8G16
 111916274.751 8  21296957.365          50.000       -2389.651
 116713462.65428  22209829.402          48.000       -2433.139
 116283889.14028  22128085.989          51.000       -3755.395
 120063926.97527  22847403.132          46.000        -800.060
 117080534.090 7  22279685.330          46.000        1054.339
 124301170.80827  23653723.722          46.000         762.793
                  24520101.660          26.000       -4510.557
 07  8 29  9 35 15.0020000  0  7G19G25G 3G27G11G 8G16
 111918664.920 8  21297411.978          50.000       -2390.472
 116715897.32027  22210292.565          47.000       -2434.300
 116287644.64328  22128801.029          51.000       -3755.469
 120064727.76627  22847555.315          45.000        -801.631
 117079479.897 7  22279484.495          45.000        1054.295
 124300407.22327  23653578.921          46.000         764.264
                  24520959.029          35.000       -4499.256
 07  8 29  9 35 16.0020000  0  7G19G25G 3G27G11G 8G16
 111921055.596 8  21297867.062          49.000       -2390.561
 116718333.95827  22210756.286          47.000       -2438.345
 116291400.62028  22129516.296          50.000       -3754.429
 120065529.42727  22847708.022          45.000        -802.922
 117078428.530 7  22279284.392          46.000        1050.651
 124299643.61627  23653433.508          43.000         762.743
 128863016.89337  24521816.821          45.000       -4519.130
 07  8 29  9 35 17.0020000  0  7G19G25G 3G27G11G 8G16
 111923446.106 8  21298321.657          49.000       -2390.251
 116720773.42727  22211220.861          47.000       -2442.759
 116295155.61628  22130231.023          50.000       -3753.565
 120066332.66927  22847860.711          45.000        -803.744
 117077381.273 7  22279084.794          45.000        1044.668
 124298880.09227  23653288.060          43.000         762.908
 128867534.59127  24522675.844          46.000       -4517.529
 07  8 29  9 35 18.0020000  0  7G19G25G 3G27G11G 8G16
 111925836.407 8  21298776.777          50.000       -2389.759
 116723218.41027  22211686.082          47.000       -2448.026
 116298907.68228  22130945.174          51.000       -3749.890
 120067139.87727  22848014.253          46.000        -809.013
 117076340.300 7  22278886.853          46.000        1037.017
 124298118.55127  23653142.978          43.000         761.050
 128872051.68927  24523536.507          44.000       -4515.418
 07  8 29  9 35 19.0020000  0  7G19G25G 3G27G11G 8G16
 111928226.081 8  21299231.460          50.000       -2389.883
 116725670.283 7  22212152.367          47.000       -2453.668
 116302655.78728  22131658.488          51.000       -3745.715
 120067952.074 7  22848168.896          47.000        -811.158
 117075306.786 7  22278690.397          46.000        1031.668
 124297359.338 7  23652998.630          43.000         761.004
 128876568.21927  24524397.622          44.000       -4517.363
 07  8 29  9 35 20.0020000  0  7G19G25G 3G27G11G 8G16
 111930614.735 8  21299686.352          50.000       -2388.715
 116728127.649 8  22212619.420          48.000       -2460.386
 116306399.91628  22132370.773          51.000       -3742.629
 120068767.445 7  22848324.165          47.000        -818.754
 117074281.016 7  22278495.405          46.000        1022.284
 124296600.623 7  23652854.141          45.000         757.594
 128881085.31137  24525257.953          44.000       -4515.709
 07  8 29  9 35 21.0020000  0  7G19G25G 3G27G11G 8G16
 111933003.097 8  21300140.599          50.000       -2388.155
 116730590.039 8  22213088.463          48.000       -2464.082
 116310141.69728  22133083.562          51.000       -3740.633
 120069586.001 7  22848480.153          47.000        -819.567
 117073261.681 7  22278301.653          46.000        1016.673
 124295842.838 7  23652709.409          43.000         756.704
 128885603.57727  24526118.299          44.000       -4521.633
 07  8 29  9 35 22.0020000  0  8G19G25G 3G27G11G 8G16G22
 111935391.244 8  21300594.898          50.000       -2388.287
 116733056.781 8  22213558.064          48.000       -2469.413
 116313881.58428  22133795.235          51.000       -3738.719
 120070407.244 7  22848637.081          47.000        -822.691
 117072247.716 7  22278108.616          45.000        1010.698
 124295085.869 7  23652565.026          44.000         757.658
 128890122.93327  24526978.752          45.000       -4520.195
                  24943186.672          34.000       -1351.774
 07  8 29  9 35 23.0020000  0  8G19G25G 3G27G11G 8G16G22
 111937779.590 8  21301049.546          50.000       -2388.002
 116735527.797 8  22214027.874          48.000       -2473.124
 116317620.01628  22134506.123          51.000       -3737.735
 120071231.501 7  22848793.958          45.000        -825.119
 117071239.127 7  22277917.029          47.000        1006.525
 124294330.276 7  23652421.444          45.000         754.182
 128894643.48427  24527839.955          44.000       -4520.971
 131078679.66736  24943443.503          37.000       -1355.333
 07  8 29  9 35 24.0020000  0  8G19G25G 3G27G11G 8G16G22
 111940168.552 8  21301503.670          49.000       -2389.428
 116738001.771 7  22214498.314          47.000       -2475.163
 116321358.18528  22135217.446          51.000       -3738.137
 120072057.900 7  22848950.991          45.000        -827.202
 117070233.855 7  22277726.140          47.000        1004.208
 124293575.896 7  23652277.741          44.000         753.354
 128899165.29727  24528700.285          45.000       -4522.479
                  24943697.090          35.000       -1353.289
 07  8 29  9 35 25.0020000  0  8G19G25G 3G27G11G 8G16G22
 111942558.545 8  21301958.422          50.000       -2390.127
 116740478.378 8  22214970.185          48.000       -2477.525
 116325096.777 8  22135928.909          51.000       -3738.407
 120072886.491 7  22849107.763          45.000        -829.696
 117069231.403 7  22277535.024          46.000        1001.231
 124292823.163 7  23652134.213          43.000         751.646
 128903688.42127  24529560.703          45.000       -4523.619
 131081352.11435  24943952.018          35.000       -1359.224
 07  8 29  9 35 26.0020000  0  8G19G25G 3G27G11G 8G16G22
 111944949.176 8  21302413.751          49.000       -2391.145
 116742957.519 8  22215442.386          48.000       -2480.722
 116328835.336 8  22136640.668          51.000       -3738.489
 120073717.033 7  22849265.861          45.000        -832.094
 117068231.754 7  22277345.112          46.000         998.371
 124292071.619 7  23651991.347          44.000         751.036
 128908212.62427  24530422.272          47.000       -4524.478
 131082712.10825  24944210.839          35.000       -1361.444
 07  8 29  9 35 27.0020000  0  8G19G25G 3G27G11G 8G16G22
 111947340.888 8  21302868.660          49.000       -2392.526
 116745439.221 8  22215914.972          48.000       -2482.426
 116332574.352 8  22137353.160          51.000       -3739.972
 120074549.800 7  22849424.396          44.000        -832.302
 117067234.860 7  22277156.003          46.000         995.732
 124291321.646 7  23651848.934          43.000         746.355
 128912738.12827  24531284.277          47.000       -4526.145
 131084075.12726  24944469.747          36.000       -1364.467
 07  8 29  9 35 28.0020000  0  8G19G25G 3G27G11G 8G16G22
 111949733.855 8  21303324.006          49.000       -2393.135
 116747922.593 8  22216387.960          48.000       -2483.603
 116336314.515 8  22138064.814          51.000       -3740.689
 120075384.043 7  22849583.489          45.000        -834.860
 117066239.426 7  22276967.279          46.000         994.794
 124290573.324 7  23651706.768          43.000         747.782
 128917264.87127  24532146.143          47.000       -4527.350
 131085439.65025  24944729.040          35.000       -1364.573
 07  8 29  9 35 29.0020000  0  8G19G25G 3G27G11G 8G16G22
 111952128.128 8  21303779.421          49.000       -2394.826
 116750407.606 8  22216860.930          48.000       -2485.653
 116340055.900 8  22138776.940          51.000       -3742.364
 120076219.994 7  22849742.722          45.000        -836.637
 117065245.462 7  22276778.310          46.000         993.290
 124289826.524 7  23651564.670          43.000         745.420
 128921792.88627  24533008.375          47.000       -4528.853
 131086805.83625  24944988.715          35.000       -1366.796
 07  8 29  9 35 30.0020000  0  8G19G25G 3G27G11G 8G16G22
 111954523.899 8  21304235.394          49.000       -2396.411
 116752894.409 8  22217334.162          48.000       -2487.597
 116343798.667 8  22139489.362          51.000       -3743.553
 120077057.757 7  22849902.303          45.000        -838.746
 117064253.112 7  22276589.585          46.000         991.329
 124289081.463 7  23651422.904          43.000         744.823
 128926322.35627  24533870.224          47.000       -4529.629
 131088173.68025  24945248.618          34.000       -1370.139
 07  8 29  9 35 31.0020000  0  8G19G25G 3G27G11G 8G16G22
 111956921.140 8  21304691.543          49.000       -2397.595
 116755382.815 7  22217807.324          47.000       -2488.604
 116347542.895 8  22140201.365          50.000       -3744.704
 120077897.189 7  22850061.972          45.000        -839.387
 117063262.128 7  22276400.791          45.000         990.999
 124288338.133 7  23651281.295          42.000         742.373
 128930853.186 7  24534732.246          46.000       -4531.405
 131089543.11135  24945507.945          35.000       -1370.246
 07  8 29  9 35 32.0020000  0  8G19G25G 3G27G11G 8G16G22
 111959320.156 8  21305148.581          49.000       -2399.268
 116757872.466 7  22218280.294          47.000       -2489.558
 116351289.232 8  22140913.420          50.000       -3747.159
 120078738.131 7  22850221.920          44.000        -841.286
 117062271.850 7  22276211.857          45.000         990.416
 124287596.615 7  23651140.157          45.000         740.324
 128935385.547 7  24535594.199          45.000       -4532.771
                  24945764.096          29.000       -1372.555
 07  8 29  9 35 33.0020000  0  8G19G25G 3G27G11G 8G16G22
 111961720.978 8  21305605.182          50.000       -2401.777
 116760362.860 7  22218754.137          47.000       -2490.844
 116355037.745 8  22141626.941          51.000       -3750.015
 120079580.416 7  22850381.502          44.000        -842.390
 117061281.907 7  22276022.574          45.000         990.401
 124286856.826 7  23650999.350          43.000         738.670
 128939919.325 7  24536455.419          43.000       -4534.295
                  24946020.089          32.000       -1376.749
 07  8 29  9 35 34.0020000  0  8G19G25G 3G27G11G 8G16G22
 111964123.700 8  21306062.796          50.000       -2403.428
 116762854.439 7  22219228.224          46.000       -2491.756
 116358788.527 8  22142340.671          51.000       -3752.746
 120080424.074 7  22850542.776          46.000        -844.220
 117060292.571 7  22275833.571          45.000         988.731
 124286119.015 7  23650859.015          44.000         736.179
 128944454.716 7  24537317.878          45.000       -4535.841
 131093585.64935  24946279.924          33.000       -1375.409
 07  8 29  9 35 35.0020000  0  8G19G25G 3G27G11G 8G16G22
 111966529.326 8  21306520.706          50.000       -2406.862
 116765345.798 7  22219702.801          46.000       -2489.251
 116362543.931 8  22143055.029          50.000       -3758.006
 120081268.557 6  22850703.808          39.000        -840.321
 117059302.297 7  22275644.481          46.000         991.404
 124285382.884 7  23650718.802          43.000         737.393
 128948993.252 7  24538181.453          46.000       -4541.254
                  24946540.470          30.000       -1381.784
 07  8 29  9 35 36.0020000  0  7G19G25G 3G27G11G 8G16
 111968936.422 8  21306978.722          50.000       -2407.033
 116767834.705 8  22220176.121          48.000       -2489.001
 116366304.315 8  22143770.661          50.000       -3762.633
 120082109.34536  22850864.700          40.000        -837.692
 117058310.895 8  22275456.123          48.000         990.516
 124284643.81836  23650578.870          40.000         739.942
 128953538.74037  24539046.057          43.000       -4545.786
 07  8 29  9 35 37.0020000  0  8G19G25G 3G27G11G 8G16G22
 111971343.155 8  21307436.947          50.000       -2406.317
 116770322.252 7  22220648.551          47.000       -2487.952
 116370067.832 8  22144487.009          50.000       -3764.828
 120082947.26237  22851023.149          46.000        -836.745
 117057321.465 8  22275268.672          49.000         987.487
 124283901.94737  23650436.252          42.000         746.294
 128958093.29537  24539911.966          45.000       -4560.267
 131097618.04635  24947047.376          35.000       -1397.853
 07  8 29  9 35 38.0020000  0  7G19G25G 3G27G11G 8G16
 111973748.15336  21307895.016          41.000       -2404.669
 116772810.416 8  22221121.783          49.000       -2489.055
 116373832.177 8  22145203.916          49.000       -3763.894
 120083782.61827  22851182.121          45.000        -834.780
 117056336.678 8  22275081.499          50.000         982.714
 124283152.78927  23650291.836          47.000         750.781
 128962656.06927  24540779.729          44.000       -4564.621
 07  8 29  9 35 39.0020000  0  8G19G25G 3G27G11G 8G16G22
 111976153.10628  21308352.717          50.000       -2405.474
 116775300.596 8  22221596.132          50.000       -2491.455
 116377596.52638  22145920.283          50.000       -3763.501
 120084617.15427  22851340.673          45.000        -835.361
 117055357.87535  22274895.529          34.000         975.317
 124282400.55727  23650148.919          47.000         753.461
 128967225.10027  24541648.398          43.000       -4570.961
                  24947596.746          30.000       -1391.420
 07  8 29  9 35 40.0020000  0  7G19G25G 3G27G11G 8G16
 111978558.16428  21308810.454          50.000       -2404.919
 116777792.571 7  22222070.219          46.000       -2492.089
 116381361.86727  22146636.596          45.000       -3765.714
 120085451.88227  22851499.767          45.000        -836.759
                  22274709.617          32.000         981.576
 124281647.30627  23650005.862          46.000         753.217
 128971798.39427  24542519.128          45.000       -4574.775
 07  8 29  9 35 41.0020000  0  7G19G25G 3G27G11G 8G16
 111980964.62228  21309268.277          49.000       -2406.964
                  22222545.350          34.000       -2500.932
 116385128.27227  22147353.694          44.000       -3768.357
 120086288.59827  22851659.313          47.000        -838.778
 117053415.92635  22274524.501          35.000         971.532
 124280895.80127  23649862.874          47.000         750.910
 128976373.20427  24543389.440          43.000       -4574.560
 07  8 29  9 35 42.0020000  0  7G19G25G 3G27G11G 8G16
 111983373.15628  21309726.955          50.000       -2410.216
 116782757.89436  22223020.069          38.000       -2492.596
 116388895.47528  22148070.777          50.000       -3766.083
 120087129.06627  22851819.383          46.000        -841.986
                  22274340.819          27.000         969.970
 124280148.33927  23649720.810          47.000         744.876
 128980946.77927  24544259.648          46.000       -4572.207
 07  8 29  9 35 43.0020000  0  8G19G25G 3G27G11G 8G16G22
 111985784.30628  21310185.406          51.000       -2413.085
 116785258.38628  22223494.938          49.000       -2501.701
 116392663.45428  22148787.596          50.000       -3768.599
 120087974.27627  22851980.045          45.000        -848.243
                  22274157.697          27.000         969.747
 124279406.34128  23649579.984          48.000         738.754
 128985518.44327  24545129.717          43.000       -4570.107
                  24948656.477          31.000       -1399.519
 07  8 29  9 35 44.0020000  0  7G19G25G 3G27G11G 8G16
 111988198.09528  21310644.660          49.000       -2414.862
 116787763.81328  22223972.548          50.000       -2508.714
 116396430.99928  22149503.701          51.000       -3767.731
 120088825.92127  22852142.207          46.000        -855.765
                  22273973.006          28.000         976.316
 124278671.52728  23649440.205          49.000         730.235
 128990085.82227  24545998.983          43.000       -4566.674
 07  8 29  9 35 45.0020000  0  8G19G25G 3G27G11G 8G16G22
 111990614.52828  21311104.368          49.000       -2417.566
 116790274.29727  22224450.665          47.000       -2513.614
 116400198.41728  22150221.132          51.000       -3767.212
 120089683.44827  22852305.748          43.000        -861.752
 117049544.50738  22273787.750          48.000         963.526
 124277943.05827  23649301.422          46.000         726.004
 128994650.14927  24546867.447          45.000       -4563.035
                  24949196.370          30.000       -1396.583
 07  8 29  9 35 46.0020000  0  8G19G25G 3G27G11G 8G16G22
 111993032.60328  21311564.128          48.000       -2418.171
 116792788.94528  22224928.869          51.000       -2517.314
 116403966.03328  22150938.250          50.000       -3765.021
 120090545.03527  22852470.041          45.000        -862.995
 117048582.79528  22273602.008          50.000         958.759
 124277217.97227  23649163.705          45.000         726.964
 128999215.08237  24547736.171          44.000       -4563.787
 131110322.65136  24949464.958          37.000       -1412.307
 07  8 29  9 35 47.0020000  0  8G19G25G 3G27G11G 8G16G22
 111995451.36628  21312023.680          48.000       -2418.506
 116795307.92328  22225408.242          49.000       -2522.013
 116407732.70728  22151654.651          49.000       -3765.612
 120091409.88327  22852634.944          47.000        -867.472
 117047625.75427  22273419.618          46.000         957.646
 124276494.79127  23649026.753          43.000         721.162
 129003780.96237  24548605.192          43.000       -4564.212
 131111731.13035  24949734.200          32.000       -1406.352
 07  8 29  9 35 48.0020000  0  8G19G25G 3G27G11G 8G16G22
 111997871.68228  21312484.173          50.000       -2420.400
 116797831.45128  22225888.139          49.000       -2525.918
 116411498.74827  22152370.825          46.000       -3765.608
 120092279.25428  22852800.562          50.000        -871.670
 117046672.54228  22273239.040          49.000         951.321
                  23648890.080          35.000         712.820
 129008345.88436  24549474.040          37.000       -4558.667
 131113135.14435  24950000.575          34.000       -1411.998
 07  8 29  9 35 49.0020000  0  8G19G25G 3G27G11G 8G16G22
 112000293.485 8  21312945.643          51.000       -2421.761
 116800359.936 8  22226369.624          50.000       -2531.317
 116415263.571 7  22153087.593          44.000       -3764.402
 120093153.081 8  22852967.472          49.000        -876.603
 117045723.96828  22273058.813          52.000         946.145
 124275048.61335  23648755.453          31.000         716.235
 129012912.78135  24550343.546          33.000       -4569.750
 131114552.87136  24950269.603          38.000       -1418.887
 07  8 29  9 35 50.0020000  0  8G19G25G 3G27G11G 8G16G22
 112002716.115 8  21313407.271          50.000       -2424.051
 116802892.999 8  22226851.492          49.000       -2535.584
 116419027.475 7  22153803.943          43.000       -3762.874
 120094031.463 8  22853134.800          50.000        -881.390
 117044779.24928  22272879.022          50.000         944.267
                  23648620.803          29.000         704.960
                  24551213.459          34.000       -4562.547
                  24950539.365          35.000       -1420.242
 07  8 29  9 35 51.0020000  0  8G19G25G 3G27G11G 8G16G22
 112005140.563 8  21313868.619          50.000       -2425.782
 116805429.075 8  22227334.252          48.000       -2537.306
 116422791.852 7  22154519.907          46.000       -3764.354
 120094913.343 8  22853302.024          48.000        -884.008
 117043836.49228  22272699.110          48.000         942.006
                  23648488.181          29.000         704.456
 129022059.44836  24552081.590          39.000       -4561.569
 131117387.96536  24950809.408          36.000       -1418.575
 07  8 29  9 35 52.0020000  0  8G19G25G 3G27G11G 8G16G22
 112007566.597 8  21314330.369          49.000       -2426.191
 116807966.947 8  22227817.238          48.000       -2538.891
 116426557.446 8  22155236.866          48.000       -3767.138
 120095797.267 8  22853470.192          48.000        -885.340
 117042895.00728  22272519.459          49.000         940.519
 124272945.60935  23648355.421          35.000         708.959
                  24552951.139          29.000       -4550.252
                  24951081.546          32.000       -1412.027
 07  8 29  9 35 53.0020000  0  7G19G25G 3G27G11G 8G16
 112009994.058 8  21314791.997          48.000       -2426.890
 116810506.173 8  22228300.085          48.000       -2540.931
 116430324.572 8  22155953.528          48.000       -3768.560
 120096682.733 7  22853638.603          46.000        -888.077
 117041954.46928  22272339.966          49.000         939.568
                  23648223.847          33.000         708.602
                  24553823.030          30.000       -4575.383
 07  8 29  9 35 54.0020000  0  7G19G25G 3G27G11G 8G16
 112012422.852 8  21315254.182          49.000       -2428.978
 116813046.645 8  22228783.439          49.000       -2541.223
 116434093.092 8  22156670.470          48.000       -3770.095
 120097569.515 7  22853807.643          46.000        -887.418
 117041014.87428  22272161.328          50.000         939.003
                  23648089.654          32.000         708.224
                  24554697.653          33.000       -4573.189
