     2.11           OBSERVATION DATA    M (MIXED)           RINEX VERSION / TYPE
teqc  2007Jun25                         20070904 04:19:58UTCPGM / RUN BY / DATE
MSXP|IAx86-PII|bcc32 5.0|MSWin95->XP|486/DX+                COMMENT
-Unknown-                                                   MARKER NAME
-Unknown-           -Unknown-                               OBSERVER / AGENCY
-Unknown-           U-BLOX              -Unknown-           REC # / TYPE / VERS
-Unknown-           -Unknown-                               ANT # / TYPE
        0.0000        0.0000        0.0000                  APPROX POSITION XYZ
        0.0000        0.0000        0.0000                  ANTENNA: DELTA H/E/N
     1     0                                                WAVELENGTH FACT L1/2
     4    L1    C1    S1    D1                              # / TYPES OF OBSERV
 SNR is mapped to RINEX snr flag value [0-9]                COMMENT
  L1 & L2: min(max(int(snr_dBHz/6), 0), 9)                  COMMENT
  2007     8    29    13    49   26.0010000     GPS         TIME OF FIRST OBS
    14                                                      LEAP SECONDS
                                                            END OF HEADER
 07  8 29 13 49 26.0010000  0  9G20G28G17G11G 4G13G23S29S37
 113669448.350 8  21630579.676          50.000       -2822.539
 116721517.432 8  22211368.431          50.000       -3424.329
 112280742.947 8  21366318.570          48.000         204.899
 124021751.955 7  23600558.329          43.000       -3657.330
 122114131.989 8  23237548.401          49.000         808.599
 132767315.762 7  25264791.530          42.000        1942.709
 127253929.063 8  24215616.549          49.000        1231.246
 199139795.386 7  37895050.042          42.000       -1266.176
 199446665.130 7  37953444.719          43.000       -1263.371
 07  8 29 13 49 27.0010000  0  9G20G28G17G11G 4G13G23S29S37
 113672271.271 8  21631116.864          50.000       -2823.162
 116724942.199 8  22212020.249          50.000       -3425.177
 112280538.253 8  21366279.569          48.000         204.274
 124025409.122 7  23601254.488          43.000       -3657.005
 122113323.731 8  23237394.194          48.000         807.995
 132765372.779 7  25264421.498          42.000        1942.723
 127252698.447 8  24215382.733          49.000        1230.592
 199141061.930 7  37895291.047          42.000       -1266.213
 199447929.058 7  37953685.339          43.000       -1264.103
 07  8 29 13 49 28.0010000  0  9G20G28G17G11G 4G13G23S29S37
 113675094.634 8  21631654.173          50.000       -2823.442
 116728367.125 8  22212672.538          50.000       -3424.230
 112280333.817 8  21366240.550          48.000         204.547
 124029066.272 7  23601950.612          44.000       -3656.920
 122112515.456 8  23237240.248          48.000         808.693
 132763429.362 7  25264052.078          42.000        1944.160
 127251467.803 8  24215148.709          49.000        1231.036
 199142328.116 7  37895531.930          43.000       -1265.006
 199449192.732 7  37953925.733          45.000       -1264.332
 07  8 29 13 49 29.0010000  0  9G20G28G17G11G 4G13G23S29S37
 113677919.566 8  21632191.709          49.000       -2825.971
 116731791.285 8  22213323.624          50.000       -3422.222
 112280130.736 8  21366202.106          49.000         201.746
 124032724.370 7  23602647.259          43.000       -3659.125
 122111707.534 8  23237086.546          48.000         808.452
 132761484.187 7  25263682.710          43.000        1948.053
 127250236.635 8  24214914.510          50.000        1232.250
 199143593.157 6  37895772.848          41.000       -1264.461
 199450455.151 7  37954165.973          42.000       -1259.277
 07  8 29 13 49 30.0010000  0  9G20G28G17G11G 4G13G23S29S37
 113680746.911 8  21632729.541          49.000       -2827.524
 116735212.565 8  22213974.430          49.000       -3421.464
 112279929.919 8  21366163.942          49.000         200.978
 124036384.517 7  23603344.325          46.000       -3660.649
 122110899.678 8  23236932.408          48.000         807.710
 132759534.556 6  25263312.383          41.000        1951.504
 127249003.435 8  24214679.805          50.000        1233.070
 199144854.369 7  37896012.895          43.000       -1259.685
 199451714.149 7  37954405.565          44.000       -1257.357
 07  8 29 13 49 31.0010000  0  9G20G28G17G11G 4G13G23S29S37
 113683576.217 8  21633267.967          49.000       -2829.628
 116738632.137 8  22214624.888          49.000       -3418.297
 112279731.448 8  21366126.161          50.000         197.526
 124040045.848 8  23604041.303          48.000       -3661.545
 122110092.851 8  23236778.811          49.000         806.132
 132757580.832 6  25262940.399          39.000        1955.970
 127247768.147 8  24214444.455          49.000        1236.634
 199146112.667 7  37896252.296          42.000       -1256.852
 199452970.337 7  37954644.547          43.000       -1254.331
 07  8 29 13 49 32.0010000  0  9G20G28G17G11G 4G13G23S29S37
 113686405.941 8  21633806.220          49.000       -2828.119
 116742050.690 8  22215275.396          49.000       -3420.469
 112279534.768 8  21366088.608          50.000         195.559
 124043706.033 8  23604738.266          48.000       -3658.410
 122109288.014 8  23236625.876          49.000         804.302
 132755622.696 7  25262568.116          42.000        1957.982
 127246529.323 8  24214208.599          50.000        1239.216
 199147368.211 7  37896491.311          42.000       -1256.736
 199454223.579 7  37954883.179          42.000       -1253.930
 07  8 29 13 49 33.0010000  0  9G20G28G17G11G 4G13G23S29S37
 113689233.677 8  21634344.175          49.000       -2826.727
 116745471.215 8  22215926.359          50.000       -3422.734
 112279337.427 8  21366051.021          50.000         197.966
 124047363.018 8  23605434.705          49.000       -3657.680
 122108484.730 8  23236472.977          49.000         802.695
 132753664.445 6  25262195.100          39.000        1957.760
 127245289.194 8  24213972.131          48.000        1239.045
 199148624.118 7  37896730.502          42.000       -1255.631
 199455476.980 7  37955121.670          43.000       -1254.415
 07  8 29 13 49 34.0010000  0  9G20G28G17G11G 4G13G23S29S37
 113692060.295 8  21634882.026          50.000       -2826.831
 116748893.287 8  22216577.880          50.000       -3422.356
 112279140.185 8  21366013.537          50.000         196.930
 124051017.855 8  23606130.290          49.000       -3652.741
 122107683.533 8  23236320.182          48.000         799.910
 132751705.912 6  25261821.894          37.000        1961.030
 127244047.825 8  24213735.804          48.000        1243.353
 199149880.197 6  37896969.465          40.000       -1254.824
 199456729.935 6  37955360.006          41.000       -1252.093
 07  8 29 13 49 35.0010000  0  9G20G28G17G11G 4G13G23S29S37
 113694885.783 8  21635420.104          51.000       -2824.909
 116752316.242 8  22217229.122          49.000       -3423.277
 112278943.703 8  21365976.264          50.000         196.782
 124054669.877 8  23606824.896          49.000       -3651.199
 122106884.871 8  23236168.051          49.000         799.549
 132749744.647 5  25261448.547          35.000        1962.258
 127242803.321 8  24213498.482          49.000        1245.921
 199151135.476 7  37897208.324          43.000       -1254.895
 199457981.772 7  37955598.219          43.000       -1251.919
 07  8 29 13 49 36.0010000  0  9G20G28G17G11G 4G13G23S29S37
 113697711.008 8  21635958.077          51.000       -2825.496
 116755739.697 8  22217880.730          49.000       -3424.276
 112278746.902 8  21365938.711          50.000         197.681
 124058321.160 8  23607519.798          49.000       -3652.382
 122106086.258 8  23236015.745          49.000         799.996
 132747783.37135  25261074.780          34.000        1959.481
 127241559.005 6  24213261.471          41.000        1239.170
 199152390.172 7  37897447.025          42.000       -1256.458
 199459233.454 7  37955836.415          43.000       -1252.147
 07  8 29 13 49 37.0010000  0 10G20G28G17G11G 4G13G23G 1S29S37
 113700538.242 8  21636496.031          51.000       -2827.769
 116759162.431 8  22218531.676          50.000       -3421.792
 112278549.286 8  21365901.106          50.000         197.698
 124061975.639 8  23608215.398          49.000       -3656.121
 122105284.202 8  23235863.355          49.000         805.828
 132745824.65736  25260701.937          36.000        1957.017
 127240318.507 6  24213025.909          39.000        1236.273
                  26204384.089          26.000       -2555.196
 199153645.484 7  37897686.005          43.000       -1257.194
 199460486.349 7  37956074.836          43.000       -1254.278
 07  8 29 13 49 38.0010000  0 10G20G28G17G11G 4G13G23G 1S29S37
 113703367.311 8  21637034.265          51.000       -2829.064
 116762585.175 8  22219183.180          50.000       -3422.956
 112278350.600 8  21365863.502          51.000         200.171
 124065633.070 8  23608911.538          50.000       -3657.576
 122104478.566 8  23235710.125          49.000         807.656
 132743869.55025  25260330.144          33.000        1958.840
 127239082.48336  24212790.767          38.000        1234.040
                  26204872.329          24.000       -2553.638
 199154902.725 7  37897925.387          43.000       -1258.090
 199461741.529 7  37956313.484          43.000       -1256.936
 07  8 29 13 49 39.0010000  0 10G20G28G17G11G 4G13G23G 1S29S37
 113706197.245 8  21637572.621          50.000       -2830.442
 116766009.380 8  22219834.735          50.000       -3425.681
 112278150.984 8  21365825.722          52.000         200.178
 124069291.697 8  23609607.679          49.000       -3659.023
 122103671.068 8  23235556.686          50.000         807.819
 132741917.71626  25259959.184          37.000        1949.849
 127237849.37626  24212556.305          41.000        1231.757
                  26205359.961          23.000       -2546.386
 199156162.389 7  37898165.257          43.000       -1260.242
 199462999.017 7  37956552.761          43.000       -1258.240
 07  8 29 13 49 40.0010000  0 10G20G28G17G11G 4G13G23G 1S29S37
 113709029.068 8  21638111.308          50.000       -2834.033
 116769433.392 8  22220486.327          50.000       -3422.288
 112277952.024 8  21365787.907          51.000         198.365
 124072952.449 8  23610304.151          49.000       -3663.017
 122102862.644 8  23235403.020          49.000         811.240
 132739966.65826  25259588.751          36.000        1950.758
 127236618.09927  24212322.436          45.000        1230.560
                  26205844.830          26.000       -2553.131
 199157421.773 7  37898404.727          44.000       -1257.317
 199464256.655 7  37956792.178          42.000       -1258.185
 07  8 29 13 49 41.0010000  0 10G20G28G17G11G 4G13G23G 1S29S37
 113711864.808 8  21638650.990          50.000       -2837.888
 116772854.313 8  22221136.855          50.000       -3420.667
 112277753.278 8  21365750.301          50.000         198.082
 124076618.722 7  23611001.320          47.000       -3668.171
 122102049.825 8  23235248.116          48.000         814.277
 132738015.98635  25259218.386          32.000        1947.912
 127235390.27527  24212089.299          47.000        1224.387
                  26206333.787          24.000       -2548.248
 199158680.324 7  37898644.143          42.000       -1261.271
 199465513.752 7  37957031.368          43.000       -1259.296
 07  8 29 13 49 42.0010000  0 10G20G28G17G11G 4G13G23G 1S29S37
 113714704.569 8  21639190.950          49.000       -2842.206
 116776275.224 8  22221787.782          50.000       -3422.398
 112277553.271 8  21365711.737          50.000         200.921
 124080291.317 8  23611699.518          48.000       -3674.346
 122101230.798 8  23235091.695          48.000         822.484
                  25258849.032          28.000        1940.417
 127234170.87327  24211857.627          44.000        1215.131
                  26206824.117          24.000       -2556.863
 199159942.082 7  37898884.344          44.000       -1263.601
 199466774.711 7  37957271.255          43.000       -1263.368
 07  8 29 13 49 43.0010000  0 10G20G28G17G11G 4G13G23G 1S29S37
 113717546.957 8  21639731.872          50.000       -2842.328
 116779698.580 8  22222439.651          50.000       -3425.276
 112277350.796 8  21365673.173          50.000         203.405
 124083968.706 7  23612398.869          47.000       -3678.268
 122100405.783 8  23234934.016          49.000         826.442
                  25258481.444          25.000        1943.490
 127232961.07927  24211626.373          47.000        1206.057
                  26207312.213          26.000       -2566.286
 199161209.584 7  37899125.661          43.000       -1270.362
 199468041.921 7  37957512.413          43.000       -1273.379
 07  8 29 13 49 44.0010000  0 10G20G28G17G11G 4G13G23G 1S29S37
 113720389.566 8  21640273.056          50.000       -2842.158
                  22223091.506          44.000       -3420.766
 112277145.478 8  21365634.033          50.000         204.749
 124087647.471 8  23613099.128          48.000       -3680.682
 122099577.314 8  23234776.093          49.000         829.182
                  25258115.243          24.000        1921.662
 127231758.18028  24211396.412          48.000        1201.249
                  26207798.766          27.000       -2552.478
 199162482.276 7  37899367.990          42.000       -1275.968
 199469314.657 7  37957754.603          42.000       -1276.827
 07  8 29 13 49 45.0010000  0 10G20G28G17G11G 4G13G23G 1S29S37
 113723233.574 8  21640814.325          50.000       -2845.991
 116786553.58637  22223742.258          44.000       -3425.446
 112276939.269 8  21365594.822          50.000         204.004
 124091328.401 8  23613799.998          48.000       -3682.462
 122098746.069 8  23234617.995          49.000         832.306
                  25257747.295          22.000        1939.072
 127230559.06127  24211167.569          47.000        1198.756
                  26208287.141          25.000       -2563.195
 199163753.01435  37899609.382          35.000       -1267.407
                  37957996.628          35.000       -1257.526
 07  8 29 13 49 46.0010000  0  9G20G28G17G11G 4G23G 1S29S37
 113726080.556 8  21641355.980          49.000       -2845.610
                  22224394.512          48.000       -3424.346
 112276733.345 8  21365555.700          48.000         206.144
 124095013.473 8  23614501.007          49.000       -3686.359
 122097911.646 8  23234459.305          48.000         836.374
 127229362.53637  24210940.016          44.000        1192.365
                  26208776.886          26.000       -2552.000
 199165024.44836  37899850.699          40.000       -1271.178
                  37958235.975          38.000       -1256.108
 07  8 29 13 49 47.0010000  0  9G20G28G17G11G 4G23G 1S29S37
 113728931.54937  21641898.732          46.000       -2851.553
 116793404.49637  22225045.984          44.000       -3416.195
 112276528.221 8  21365516.628          49.000         204.076
 124098703.55437  23615203.237          45.000       -3690.128
 122097073.361 8  23234299.706          48.000         840.477
 127228168.45136  24210711.226          40.000        1191.639
                  26209264.235          24.000       -2551.946
 199166296.30336  37900091.984          40.000       -1270.358
 199473142.59236  37958476.991          40.000       -1273.552
 07  8 29 13 49 48.0010000  0  9G20G28G17G11G 4G23G 1S29S37
 113731784.23828  21642441.555          48.000       -2853.535
 116796823.68037  22225696.404          44.000       -3423.663
 112276322.865 8  21365477.488          50.000         206.498
 124102395.72436  23615906.534          36.000       -3688.370
 122096232.972 8  23234139.706          48.000         841.880
                  24210486.431          37.000        1188.579
                  26209754.072          23.000       -2574.054
 199167571.32935  37900334.510          35.000       -1263.509
                  37958719.563          32.000       -1281.811
 07  8 29 13 49 49.0010000  0  8G20G28G17G11G 4G23S29S37
 113734636.16728  21642984.467          50.000       -2850.413
 116800248.66237  22226347.766          44.000       -3429.584
 112276115.669 8  21365437.877          50.000         208.770
 124106081.82036  23616607.612          36.000       -3693.798
 122095391.812 7  23233979.565          47.000         842.281
                  24210258.641          35.000        1203.028
                  37900574.049          33.000       -1263.340
                  37958964.038          34.000       -1289.231
 07  8 29 13 49 50.0010000  0  8G20G28G17G11G 4G23S29S37
                  21643526.384          38.000       -2850.490
                  22227002.824          39.000       -3442.338
 112275905.235 8  21365397.969          51.000         212.311
 124109764.03036  23617309.552          38.000       -3680.424
                  23233819.910          38.000         833.598
                  24210033.254          36.000        1204.137
                  37900817.945          34.000       -1277.536
                  37959209.646          33.000       -1298.413
 07  8 29 13 49 51.0010000  0  9G20G28G17G11G 4G13G23S29S37
                  21644066.925          41.000       -2840.523
                  22227656.949          43.000       -3433.812
 112275693.522 8  21365358.062          51.000         214.257
                  23618011.347          34.000       -3680.616
                  23233660.433          38.000         834.460
                  25255572.118          26.000        1919.719
 127223395.37837  24209807.230          43.000        1180.100
                  37901059.563          35.000       -1271.557
                  37959457.007          33.000       -1289.495
 07  8 29 13 49 52.0010000  0  9G20G28G17G11G 4G13G23S29S37
 113743182.70537  21644608.054          47.000       -2847.841
                  22228312.763          38.000       -3433.198
 112275481.474 8  21365317.646          49.000         212.205
                  23618711.022          32.000       -3658.532
 122092863.76438  23233499.630          48.000         837.685
                  25255205.286          25.000        1938.152
 127222215.51027  24209582.541          45.000        1179.657
 199172699.58135  37901304.592          35.000       -1290.198
 199479578.90235  37959701.886          33.000       -1287.429
 07  8 29 13 49 53.0010000  0  9G20G28G17G11G 4G13G23S29S37
 113746030.24036  21645149.501          38.000       -2843.508
 116814007.34637  22228966.518          43.000       -3433.764
 112275270.42237  21365277.859          47.000         212.036
                  23619407.818          41.000       -3681.975
 122092024.02528  23233339.229          50.000         839.962
                  25254836.658          26.000        1959.829
 127221035.13127  24209358.499          47.000        1182.948
 199173987.18736  37901550.276          39.000       -1285.275
 199480868.31227  37959946.767          43.000       -1283.641
 07  8 29 13 49 54.0010000  0  9G20G28G17G11G 4G13G23S29S37
 113748879.89037  21645691.140          43.000       -2839.264
                  22229619.315          46.000       -3429.371
 112275061.13938  21365237.949          50.000         206.484
 124124519.36036  23620110.829          41.000       -3696.350
 122091182.67227  23233179.247          45.000         844.714
                  25254467.470          24.000        1974.319
 127219851.50128  24209134.143          49.000        1186.119
 199175268.68736  37901794.721          41.000       -1276.577
 199482152.168 6  37960190.950          41.000       -1277.050
 07  8 29 13 49 55.0010000  0  9G20G28G17G11G 4G13G23S29S37
 113751736.33128  21646234.200          48.000       -2859.770
                  22230270.108          38.000       -3418.366
 112274856.90128  21365198.561          51.000         200.945
 124128211.56236  23620813.271          39.000       -3695.639
 122090339.03937  23233019.087          42.000         839.049
                  25254093.398          24.000        1995.838
                  24208908.670          45.000        1191.915
 199176543.40936  37902038.381          37.000       -1269.955
                  37960433.547          37.000       -1266.041
 07  8 29 13 49 56.0010000  0  9G20G28G17G11G 4G13G23S29S37
 113754597.56928  21646779.344          50.000       -2863.138
                  22230919.816          39.000       -3412.980
 112274656.06438  21365159.977          49.000         195.603
 124131909.08937  23621516.845          42.000       -3697.768
 122089500.18037  23232858.564          42.000         843.708
                  25253717.251          24.000        2021.823
                  24208682.450          34.000        1203.412
 199177804.45536  37902278.400          36.000       -1248.299
                  37960673.563          32.000       -1250.729
 07  8 29 13 49 57.0010000  0  8G20G28G17G11G 4G23S29S37
 113757457.16628  21647324.473          50.000       -2857.540
                  22231568.185          42.000       -3396.343
                  21365122.266          43.000         193.921
                  23622220.438          38.000       -3696.416
 122088663.61837  23232699.122          43.000         844.683
                  24208453.460          33.000        1226.381
 199179060.56935  37902517.572          35.000       -1249.159
                  37960912.371          33.000       -1246.164
 07  8 29 13 49 58.0010000  0  8G20G28G17G11G 4G23S29S37
 113760314.55327  21647868.920          47.000       -2857.840
 116831083.55837  22232216.160          43.000       -3408.325
 112274279.74936  21365085.098          40.000         194.629
                  23622922.120          37.000       -3673.595
 122087828.99637  23232539.517          44.000         832.264
                  24208220.677          36.000        1234.487
                  37902755.801          32.000       -1253.099
 199487182.68036  37961148.799          38.000       -1260.074
 07  8 29 13 49 59.0010000  0  7G20G28G17G11G 4G23S37
                  21648412.651          46.000       -2859.299
 116834493.62337  22232865.359          47.000       -3411.006
                  21365047.512          38.000         198.952
                  23623625.799          35.000       -3676.847
 122086993.53637  23232380.720          45.000         830.940
                  24207988.510          40.000        1209.734
                  37961386.162          28.000       -1245.290
 07  8 29 13 50  0.0010000  0  7G20G28G17G11G 4G23S37
 113766031.15627  21648955.983          47.000       -2854.075
 116837912.58338  22233517.277          50.000       -3423.093
 112273872.69037  21365007.710          45.000         205.201
 124146674.34236  23624326.754          40.000       -3685.052
 122086152.34338  23232220.479          48.000         842.064
                  24207760.276          36.000        1203.075
                  37961625.559          39.000       -1254.256
 07  8 29 13 50  1.0010000  0  7G20G28G17G11G 4G23S37
                  21649499.349          36.000       -2850.010
 116841343.37037  22234171.045          47.000       -3435.992
 112273664.81138  21364968.170          50.000         210.262
 124150359.00737  23625027.556          44.000       -3680.290
                  23232060.896          43.000         841.369
                  24207532.630          39.000        1183.239
 199490961.26437  37961867.895          43.000       -1285.268
 07  8 29 13 50  2.0010000  0  7G20G28G17G11G 4G23S37
 113771728.35937  21650040.204          47.000       -2842.601
 116844790.90337  22234827.236          43.000       -3452.956
 112273453.37928  21364929.221          50.000         211.722
                  23625728.064          36.000       -3669.753
                  23231904.067          38.000         829.762
                  24207307.016          37.000        1183.220
 199492249.20336  37962113.227          41.000       -1289.316
 07  8 29 13 50  3.0010000  0  7G20G28G17G11G 4G23S37
                  21650579.751          34.000       -2832.269
 116848250.02837  22235484.724          42.000       -3456.988
 112273240.87928  21364889.400          51.000         210.762
                  23626427.698          30.000       -3664.721
                  23231746.210          41.000         824.214
                  24207083.536          35.000        1194.454
 199493543.300 6  37962359.500          41.000       -1294.218
 07  8 29 13 50  4.0010000  0  7G20G28G17G11G 4G23S37
                  21651119.032          37.000       -2834.129
 116851714.03038  22236142.315          48.000       -3465.823
 112273028.53828  21364849.388          50.000         214.754
                  23627123.896          30.000       -3652.598
                  23231590.602          38.000         813.682
                  24206855.866          32.000        1201.888
 199494840.521 7  37962606.417          43.000       -1301.641
 07  8 29 13 50  5.0010000  0  7G20G28G17G11G 4G23S37
 113780231.22437  21651658.260          43.000       -2836.281
                  22236802.016          40.000       -3477.001
 112272816.73228  21364808.920          50.000         212.839
                  23627821.970          31.000       -3664.161
                  23231434.687          40.000         820.199
                  24206627.410          30.000        1207.821
 199496138.19337  37962853.427          42.000       -1295.912
 07  8 29 13 50  6.0010000  0  7G20G28G17G11G 4G23S37
                  21652198.567          46.000       -2848.263
 116858641.85236  22237460.195          39.000       -3454.052
 112272605.81338  21364769.081          50.000         211.059
                  23628520.885          30.000       -3667.505
                  23231276.646          40.000         833.983
                  24206401.596          29.000        1186.703
 199497434.318 7  37963100.262          43.000       -1293.421
 07  8 29 13 50  7.0010000  0  6G20G28G17G11G 4S37
 113785920.73537  21652740.900          46.000       -2853.050
 116862094.35737  22238117.162          42.000       -3448.515
 112272395.00928  21364729.312          50.000         211.914
                  23629220.444          28.000       -3675.346
                  23231117.606          41.000         838.370
                  37963347.372          34.000       -1299.724
 07  8 29 13 50  8.0010000  0  7G20G28G17G11G 4G13S37
                  21653284.369          43.000       -2855.155
                  22238772.630          39.000       -3441.646
 112272184.26628  21364689.054          50.000         210.848
                  23629921.661          27.000       -3682.827
                  23230954.536          45.000         845.368
                  25249363.457          24.000        1886.080
                  37963592.661          33.000       -1276.561
 07  8 29 13 50  9.0010000  0  6G20G28G17G11G 4S37
 113791628.62838  21653827.087          50.000       -2858.574
                  22239426.682          42.000       -3439.706
 112271973.19228  21364648.953          51.000         210.692
                  23630623.299          31.000       -3683.440
                  23230793.193          38.000         849.391
                  37963835.985          33.000       -1280.926
 07  8 29 13 50 10.0010000  0  7G20G28G17G11G 4G23S37
 113794484.21537  21654371.012          46.000       -2853.389
 116872414.15037  22240081.029          42.000       -3444.378
 112271760.81928  21364608.417          50.000         213.118
                  23631323.423          32.000       -3672.722
                  23230630.834          40.000         843.678
                  24205517.815          32.000        1194.532
                  37964081.596          35.000       -1283.054
 07  8 29 13 50 11.0010000  0  7G20G28G17G11G 4G23S37
 113797337.97837  21654914.188          42.000       -2847.268
                  22240736.997          43.000       -3451.504
 112271546.94128  21364567.637          50.000         215.898
                  23632025.435          30.000       -3700.089
 122076946.01236  23230470.449          40.000         842.119
 127199656.86836  24205290.046          38.000        1171.073
 199503874.44535  37964325.041          33.000       -1292.120
 07  8 29 13 50 12.0010000  0  7G20G28G17G11G 4G23S37
 113800185.76937  21655455.704          45.000       -2845.216
                  22241394.797          42.000       -3460.549
 112271331.96828  21364526.680          51.000         212.670
                  23632731.803          26.000       -3698.184
                  23230311.580          38.000         837.350
 127198484.49137  24205065.916          43.000        1172.952
                  37964569.205          34.000       -1289.763
 07  8 29 13 50 13.0010000  0  8G20G28G17G11G 4G13G23S37
                  21655996.590          39.000       -2847.359
                  22242054.046          39.000       -3467.969
 112271117.060 8  21364485.690          50.000         214.563
                  23633435.959          25.000       -3685.615
 122075275.23736  23230152.608          39.000         836.851
                  25247554.813          25.000        1981.666
                  24204842.489          33.000        1187.377
 199506458.00736  37964816.749          37.000       -1302.373
 07  8 29 13 50 14.0010000  0  8G20G28G17G11G 4G13G23S37
 113805867.31737  21656536.502          43.000       -2840.784
                  22242715.056          39.000       -3480.278
 112270903.001 8  21364444.979          50.000         213.847
                  23634134.121          25.000       -3650.728
 122074443.69836  23229995.554          39.000         831.057
                  25247178.653          23.000        1973.389
                  24204617.624          28.000        1184.419
 199507757.32127  37965065.034          42.000       -1293.911
 07  8 29 13 50 15.0010000  0  8G20G28G17G11G 4G13G23S37
                  21657075.696          43.000       -2841.226
 116889720.72738  22243374.402          48.000       -3462.759
 112270691.740 8  21364404.964          50.000         210.284
                  23634828.277          26.000       -3639.297
 122073618.42037  23229836.808          45.000         827.963
                  25246810.091          23.000        1938.940
                  24204394.576          30.000        1184.890
 199509050.894 6  37965311.466          41.000       -1293.486
 07  8 29 13 50 16.0010000  0  7G20G28G17G11G 4S29S37
 113811542.28238  21657616.527          49.000       -2851.744
 116893180.36737  22244032.051          47.000       -3455.469
 112270482.099 8  21364365.090          51.000         209.379
                  23635523.628          27.000       -3654.770
 122072788.51938  23229678.416          48.000         837.525
 199203511.86027  37907168.092          43.000       -1289.374
 199510341.659 7  37965557.270          44.000       -1292.513
 07  8 29 13 50 17.0010000  0  7G20G28G17G11G 4S29S37
 113814395.95128  21658160.552          49.000       -2858.421
                  22244689.071          46.000       -3450.908
 112270273.173 8  21364325.058          50.000         207.584
                  23636222.600          28.000       -3690.222
 122071947.32628  23229518.646          49.000         846.217
 199204798.03027  37907412.871          44.000       -1278.376
 199511629.306 7  37965802.466          44.000       -1283.580
 07  8 29 13 50 18.0010000  0  8G20G28G17G11G 4G13S29S37
 113817258.03238  21658705.903          49.000       -2867.222
                  22245342.327          38.000       -3430.961
 112270066.275 8  21364285.673          50.000         207.009
                  23636923.713          29.000       -3694.525
 122071097.22628  23229357.199          49.000         853.405
                  25245741.554          23.000        1917.664
                  37907656.080          35.000       -1262.924
                  37966046.403          38.000       -1284.474
 07  8 29 13 50 19.0010000  0  9G20G28G17G11G 4G13G23S29S37
 113820127.02128  21659252.582          49.000       -2869.618
                  22245995.929          39.000       -3420.615
 112269863.023 8  21364246.740          49.000         201.635
                  23637627.160          29.000       -3710.728
 122070243.29137  23229194.635          46.000         859.802
                  25245378.172          24.000        1919.771
                  24203506.619          34.000        1177.980
                  37907897.504          30.000       -1263.886
                  37966288.826          29.000       -1270.599
 07  8 29 13 50 20.0010000  0  9G20G28G17G11G 4G13G23S29S37
 113822999.70028  21659799.489          49.000       -2871.468
                  22246648.741          37.000       -3422.359
 112269661.132 8  21364208.332          50.000         202.088
                  23638329.661          34.000       -3691.993
 122069386.28428  23229031.596          49.000         855.267
                  25245011.705          23.000        1933.387
                  24203274.114          33.000        1182.126
                  37908139.291          27.000       -1271.248
                  37966532.672          29.000       -1280.278
 07  8 29 13 50 21.0010000  0  8G20G28G17G11G 4G23S29S37
 113825873.34328  21660346.535          50.000       -2873.997
 116910344.41336  22247298.920          39.000       -3417.521
 112269460.673 8  21364170.586          50.000         200.349
 124223949.31136  23639031.608          39.000       -3706.698
 122068529.64527  23228868.559          47.000         855.409
                  24203050.892          31.000        1185.005
                  37908382.095          29.000       -1268.125
                  37966775.392          29.000       -1267.616
 07  8 29 13 50 22.0010000  0  8G20G28G17G11G 4G23S29S37
 113828747.09128  21660893.634          49.000       -2874.095
                  22247949.134          40.000       -3415.715
 112269262.831 8  21364133.013          48.000         191.525
 124227651.13536  23639732.620          41.000       -3700.177
 122067676.37737  23228706.305          46.000         852.361
                  24202823.199          30.000        1224.988
 199211146.89535  37908620.968          32.000       -1229.596
                  37967018.842          35.000       -1262.151
 07  8 29 13 50 23.0010000  0  8G20G28G17G11G 4G23S29S37
 113831623.01528  21661440.732          49.000       -2876.911
 116917166.46938  22248597.114          48.000       -3411.056
 112269070.337 8  21364096.140          49.000         190.355
 124231352.79937  23640435.391          47.000       -3704.220
                  23228544.748          40.000         842.838
                  24202590.996          31.000        1244.898
 199212390.81936  37908857.950          36.000       -1253.331
                  37967256.802          34.000       -1238.588
 07  8 29 13 50 24.0010000  0  9G20G28G17G11G 4G13G23S29S37
 113834501.09228  21661988.337          48.000       -2879.266
 116920572.49628  22249245.619          49.000       -3404.529
                  21364060.402          41.000         190.167
                  23641138.814          36.000       -3691.794
                  23228383.088          39.000         841.744
                  25243537.146          24.000        1984.334
                  24202358.503          28.000        1234.028
                  37909098.438          33.000       -1237.634
                  37967490.722          31.000       -1240.358
 07  8 29 13 50 25.0010000  0  9G20G28G17G11G 4G13G23S29S37
 113837378.651 8  21662535.594          48.000       -2875.482
 116923973.87428  22249894.001          49.000       -3399.424
 112268707.53837  21364024.764          44.000         177.632
                  23641842.216          31.000       -3689.649
                  23228224.127          37.000         823.617
                  25243155.956          28.000        2011.292
                  24202125.057          29.000        1241.831
                  37909329.261          29.000       -1213.398
                  37967728.772          28.000       -1254.420
 07  8 29 13 50 26.0010000  0  9G20G28G17G11G 4G13G23S29S37
 113840251.75037  21663082.416          44.000       -2871.386
 116927374.43038  22250541.474          49.000       -3400.213
 112268533.49828  21363991.170          48.000         171.959
                  23642546.545          31.000       -3682.068
 122064324.07337  23228068.677          42.000         813.388
                  25242773.235          33.000        2003.946
                  24201888.245          37.000        1255.954
 199216079.12235  37909559.483          35.000       -1209.522
                  37967965.230          29.000       -1233.816
 07  8 29 13 50 27.0010000  0  9G20G28G17G11G 4G13G23S29S37
 113843122.07936  21663627.524          36.000       -2877.477
 116930776.60128  22251189.626          48.000       -3403.925
 112268363.48438  21363959.933          49.000         168.520
                  23643245.990          31.000       -3668.302
 122063511.00137  23227913.805          47.000         808.899
                  25242391.263          41.000        1994.118
                  24201652.161          39.000        1256.046
 199217294.02527  37909790.504          42.000       -1216.634
 199524212.56036  37968195.249          41.000       -1213.766
 07  8 29 13 50 28.0010000  0  9G20G28G17G11G 4G13G23S29S37
 113845991.77538  21664173.073          48.000       -2868.511
 116934179.47738  22251837.134          48.000       -3404.324
 112268195.55828  21363928.645          49.000         168.809
 124249754.43637  23643942.147          43.000       -3672.516
                  23227761.881          36.000         804.585
 132647630.72537  25242004.976          46.000        2014.520
 127179292.04338  24201414.665          49.000        1257.442
 199218507.137 7  37910021.372          42.000       -1212.993
 199525423.91027  37968424.686          43.000       -1210.678
 07  8 29 13 50 29.0010000  0  9G20G28G17G11G 4G13G23S29S37
 113848860.36228  21664718.235          50.000       -2869.891
 116937582.15528  22252484.921          50.000       -3403.041
 112268026.51328  21363896.955          50.000         170.075
 124253426.55828  23644639.806          48.000       -3673.708
                  23227608.306          42.000         815.459
 132645615.72027  25241620.006          46.000        2013.818
 127178035.39428  24201177.516          50.000        1256.690
 199219719.484 7  37910252.098          42.000       -1212.965
 199526635.286 7  37968654.697          43.000       -1212.146
 07  8 29 13 50 30.0010000  0  9G20G28G17G11G 4G13G23S29S37
 113851729.30628  21665264.986          50.000       -2867.891
 116940986.06628  22253132.620          50.000       -3405.075
 112267855.92128  21363864.534          49.000         172.312
 124257099.64528  23645339.508          48.000       -3672.754
                  23227453.292          42.000         805.291
 132643604.56027  25241236.902          47.000        2008.002
 127176782.40228  24200940.941          50.000        1250.512
 199220933.996 7  37910483.400          44.000       -1214.888
 199527848.679 7  37968885.580          44.000       -1215.171
 07  8 29 13 50 31.0010000  0  9G20G28G17G11G 4G13G23S29S37
 113854598.30628  21665811.631          50.000       -2868.863
 116944390.71628  22253780.285          50.000       -3403.951
 112267681.08728  21363831.381          49.000         178.159
 124260775.39728  23646039.923          48.000       -3677.445
 122060271.43438  23227297.537          49.000         820.952
 132641601.09527  25240856.187          47.000        1997.932
 127175536.58228  24200705.010          50.000        1241.008
 199222151.802 7  37910715.207          43.000       -1220.147
 199529065.802 7  37969117.125          43.000       -1219.884
 07  8 29 13 50 32.0010000  0  9G20G28G17G11G 4G13G23S29S37
 113857468.73728  21666358.258          50.000       -2871.094
 116947795.66328  22254428.072          50.000       -3404.671
 112267501.30228  21363797.005          50.000         182.645
 124264456.46528  23646740.599          48.000       -3684.875
 122059447.10728  23227140.820          48.000         830.029
 132639607.84327  25240477.530          45.000        1986.399
 127174301.08528  24200470.492          49.000        1228.119
 199223374.328 7  37910948.078          42.000       -1225.475
 199530287.899 7  37969349.804          43.000       -1225.520
 07  8 29 13 50 33.0010000  0  9G20G28G17G11G 4G13G23S29S37
 113860341.78628  21666905.165          50.000       -2873.260
 116951201.15028  22255076.050          50.000       -3407.088
 112267317.04928  21363761.915          49.000         186.909
 124268144.09327  23647441.956          47.000       -3690.073
 122058613.56028  23226983.039          48.000         838.160
 132637625.78427  25240100.689          46.000        1976.497
 127173077.31028  24200237.981          49.000        1218.176
 199224601.250 7  37911181.717          43.000       -1230.855
 199531515.890 7  37969583.512          44.000       -1231.293
 07  8 29 13 50 34.0010000  0  9G20G28G17G11G 4G13G23S29S37
 113863215.61128  21667452.072          50.000       -2872.987
 116954610.03628  22255724.812          50.000       -3413.270
 112267127.01228  21363725.761          50.000         194.516
 124271836.29928  23648144.274          48.000       -3691.581
 122057771.30928  23226823.216          48.000         847.512
 132635658.37225  25239726.638          32.000        1961.108
 127171866.35328  24200007.319          48.000        1203.385
 199225836.149 7  37911416.768          43.000       -1239.035
 199532752.463 7  37969818.668          42.000       -1241.625
 07  8 29 13 50 35.0010000  0  9G20G28G17G11G 4G13G23S29S37
 113866087.67828  21667998.981          50.000       -2869.484
 116958028.53928  22256375.526          51.000       -3425.496
 112266928.93828  21363688.194          50.000         203.175
 124275530.27828  23648846.872          48.000       -3691.633
 122056921.07728  23226661.419          48.000         852.558
                  25239356.849          25.000        1958.842
 127170672.03727  24199779.518          47.000        1187.671
 199227084.543 7  37911654.328          43.000       -1258.517
 199534003.760 7  37970056.787          44.000       -1258.937
 07  8 29 13 50 36.0010000  0  9G20G28G17G11G 4G13G23S29S37
 113868953.04828  21668544.163          50.000       -2861.718
 116961460.57628  22257028.961          50.000       -3440.119
 112266722.35928  21363648.776          50.000         209.862
 124279218.73328  23649549.439          49.000       -3682.952
 122056068.71826  23226499.324          40.000         851.324
                  25238991.535          24.000        1929.305
 127169489.70227  24199553.551          47.000        1178.516
 199228347.600 7  37911894.770          44.000       -1270.196
 199535269.637 7  37970297.821          43.000       -1272.991
 07  8 29 13 50 37.0010000  0  9G20G28G17G11G 4G13G23S29S37
 113871811.084 8  21669087.950          51.000       -2853.460
 116964907.195 8  22257684.823          50.000       -3452.349
 112266511.433 8  21363608.712          51.000         213.010
 124282897.756 8  23650250.034          49.000       -3673.063
                  23226338.165          29.000         836.129
                  25238631.146          24.000        1909.439
 127168312.098 8  24199329.054          48.000        1178.253
 199229622.247 7  37912137.359          42.000       -1280.227
 199536546.637 7  37970540.952          43.000       -1281.428
 07  8 29 13 50 38.0010000  0  8G20G28G17G11G 4G23S29S37
 113874664.380 8  21669631.159          51.000       -2852.070
 116968364.367 8  22258342.676          49.000       -3460.111
 112266298.971 8  21363567.965          50.000         212.571
 124286569.404 8  23650949.091          50.000       -3668.975
                  23226179.980          28.000         838.179
 127167136.279 8  24199105.272          49.000        1176.345
 199230904.694 7  37912381.451          42.000       -1285.048
 199537830.984 7  37970785.498          42.000       -1284.520
 07  8 29 13 50 39.0010000  0  8G20G28G17G11G 4G23S29S37
 113877515.559 8  21670173.670          50.000       -2848.875
                  22259002.065          36.000       -3466.953
 112266086.697 8  21363527.830          50.000         212.465
 124290236.855 8  23651646.979          49.000       -3664.792
                  23226021.915          25.000         835.806
 127165961.077 8  24198881.752          48.000        1175.847
 199232191.614 7  37912626.276          42.000       -1290.036
 199539119.452 7  37971030.689          42.000       -1289.778
 07  8 29 13 50 40.0010000  0  8G20G28G17G11G 4G23S29S37
 113880364.729 8  21670715.953          51.000       -2847.346
                  22259663.446          31.000       -3465.048
 112265876.020 8  21363487.675          50.000         207.522
 124293899.288 8  23652344.275          49.000       -3658.451
                  23225865.278          29.000         826.689
 127164783.430 8  24198657.850          49.000        1179.736
 199233481.608 7  37912871.870          43.000       -1291.553
 199540409.616 7  37971276.124          44.000       -1294.523
 07  8 29 13 50 41.0010000  0  8G20G28G17G11G 4G23S29S37
 113883212.609 8  21671257.782          50.000       -2848.486
                  22260324.527          28.000       -3472.997
 112265666.880 8  21363447.923          50.000         207.955
 124297558.157 8  23653041.028          50.000       -3656.152
                  23225707.493          31.000         827.088
 127163602.819 8  24198433.389          49.000        1182.746
 199234772.246 6  37913117.640          37.000       -1288.517
 199541699.670 7  37971521.687          42.000       -1286.155
 07  8 29 13 50 42.0010000  0  8G20G28G17G11G 4G23S29S37
 113886063.221 8  21671799.993          49.000       -2854.086
                  22260985.651          28.000       -3459.952
 112265459.844 8  21363408.380          50.000         204.382
 124301219.499 8  23653737.480          49.000       -3667.385
 122051100.71435  23225552.287          33.000         816.527
 127162421.728 8  24198208.593          48.000        1178.733
 199236061.00636  37913363.337          36.000       -1293.453
 199542987.615 6  37971766.774          41.000       -1288.730
 07  8 29 13 50 43.0010000  0  8G20G28G17G11G 4G23S29S37
 113888922.278 8  21672344.157          50.000       -2863.666
                  22261645.290          29.000       -3451.880
 112265254.339 8  21363369.606          51.000         205.385
 124304892.21238  23654436.390          48.000       -3681.226
                  23225396.127          33.000         822.872
 127161246.328 8  24197984.671          49.000        1175.635
                  37913608.205          26.000       -1276.084
                  37972011.029          24.000       -1277.989
 07  8 29 13 50 44.0010000  0  6G20G28G17G11G 4G23
 113891788.584 8  21672889.876          50.000       -2867.505
                  22262301.803          33.000       -3448.480
 112265050.085 8  21363330.848          49.000         202.246
 124308575.76428  23655137.399          50.000       -3685.822
 122049420.75036  23225232.576          36.000         848.374
 127160074.740 8  24197761.272          49.000        1171.363
 07  8 29 13 50 45.0010000  0  7G20G28G17G11G 4G13G23
 113894656.466 8  21673435.771          50.000       -2869.355
                  22262958.172          34.000       -3458.335
 112264847.136 8  21363292.212          49.000         198.753
 124312260.38428  23655838.132          50.000       -3680.885
                  23225069.326          34.000         840.061
                  25235727.047          23.000        1913.067
 127158901.86837  24197538.189          42.000        1174.912
 07  8 29 13 50 46.0010000  0  6G20G28G17G11G 4G23
 113897521.598 8  21673980.830          50.000       -2863.463
 116996079.92836  22263613.934          39.000       -3457.293
 112264644.49738  21363253.822          50.000         201.100
 124315939.54628  23656538.236          50.000       -3676.517
                  23224908.140          35.000         843.740
 127157723.26727  24197313.625          42.000        1181.731
 07  8 29 13 50 47.0010000  0  6G20G28G17G11G 4G23
 113900382.429 8  21674525.210          51.000       -2856.072
 116999541.16336  22264272.484          40.000       -3468.316
 112264442.41928  21363215.573          51.000         204.920
 124319611.16228  23657236.877          49.000       -3666.058
 122046865.73237  23224746.372          44.000         832.175
 127156542.70627  24197088.710          45.000        1182.407
 07  8 29 13 50 48.0010000  0  6G20G28G17G11G 4G23
 113903234.975 8  21675068.089          51.000       -2848.433
 117003016.11538  22264931.312          48.000       -3480.289
 112264239.66828  21363176.867          51.000         202.724
 124323269.27028  23657933.269          50.000       -3651.017
                  23224589.857          32.000         820.442
 127155357.83128  24196863.778          49.000        1188.173
 07  8 29 13 50 49.0010000  0  6G20G28G17G11G 4G23
 113906079.065 8  21675609.206          50.000       -2840.464
 117006500.89628  22265593.370          49.000       -3488.916
 112264038.58728  21363138.458          50.000         199.120
 124326912.20928  23658626.676          49.000       -3636.319
                  23224435.847          28.000         790.165
 127154163.42728  24196637.436          49.000        1200.483
 07  8 29 13 50 50.0010000  0  6G20G28G17G11G 4G23
 113908918.165 8  21676149.012          49.000       -2837.372
                  22266257.891          45.000       -3491.406
 112263838.84437  21363099.456          46.000         197.181
 124330545.15028  23659318.037          48.000       -3633.009
                  23224290.266          24.000         760.046
 127152960.44628  24196408.928          49.000        1205.306
 07  8 29 13 50 51.0010000  0  7G20G28G17G11G 4G13G23
 113911755.491 8  21676688.731          49.000       -2835.875
 117013465.67537  22266922.307          47.000       -3494.531
 112263642.75937  21363061.482          43.000         191.534
                  23660007.552          46.000       -3622.404
                  23224146.294          26.000         785.809
                  25233536.559          35.000        1921.912
 127151751.97928  24196179.598          49.000        1209.466
 07  8 29 13 50 52.0010000  0  7G20G28G17G11G 4G13G23
 113914592.872 8  21677228.745          49.000       -2837.630
 117016958.90637  22267586.235          43.000       -3495.332
 112263449.62137  21363024.785          42.000         194.223
 124337795.00838  23660695.839          48.000       -3626.176
                  23223996.023          24.000         812.649
 132601180.06736  25233165.588          39.000        1928.896
 127150539.37538  24195949.047          49.000        1211.821
 07  8 29 13 50 53.0010000  0  7G20G28G17G11G 4G13G23
 113917431.928 8  21677769.456          49.000       -2840.012
                  22268251.715          39.000       -3499.269
 112263257.87837  21362988.557          43.000         190.085
 124341423.27328  23661386.203          48.000       -3630.971
                  23223841.497          26.000         802.870
 132599254.40927  25232797.264          43.000        1922.791
 127149330.61628  24195718.928          49.000        1203.300
 07  8 29 13 50 54.0010000  0  7G20G28G17G11G 4G13G23
 113920273.022 7  21678310.238          47.000       -2841.479
 117023949.42436  22268917.233          40.000       -3494.454
 112263061.66737  21362950.691          47.000         193.150
 124345055.09538  23662078.226          48.000       -3631.842
                  23223690.975          27.000         812.504
 132597335.88436  25232432.029          40.000        1918.438
 127148128.76428  24195490.573          49.000        1199.972
 07  8 29 13 50 55.0010000  0  7G20G28G17G11G 4G13G23
 113923116.21038  21678851.646          49.000       -2847.570
 117027443.86235  22269582.594          35.000       -3489.317
 112262862.70037  21362912.060          46.000         203.139
 124348693.39527  23662771.449          47.000       -3642.178
                  23223537.030          26.000         812.484
 132595424.92836  25232068.692          38.000        1903.968
 127146936.10628  24195263.071          48.000        1191.057
 07  8 29 13 50 56.0010000  0  7G20G28G17G11G 4G13G23
 113925964.74128  21679393.666          50.000       -2850.367
 117030940.82635  22270247.796          32.000       -3491.777
 112262662.26428  21362874.437          49.000         202.022
 124352339.55128  23663465.809          49.000       -3648.447
                  23223386.767          25.000         816.325
                  25231705.657          33.000        1902.102
 127145752.35038  24195037.750          48.000        1180.451
 07  8 29 13 50 57.0010000  0  7G20G28G17G11G 4G13G23
 113928814.34528  21679936.002          50.000       -2847.719
                  22270911.602          38.000       -3492.242
 112262461.87128  21362836.971          50.000         199.942
 124355986.93528  23664159.979          49.000       -3646.739
                  23223228.580          27.000         813.831
                  25231344.124          31.000        1901.448
 127144571.10528  24194812.834          50.000        1180.683
 07  8 29 13 50 58.0010000  0  7G20G28G17G11G 4G13G23
 113931662.06628  21680477.937          50.000       -2846.052
 117037928.06037  22271577.376          43.000       -3502.273
 112262262.13928  21362799.331          49.000         200.528
 124359630.19328  23664853.069          49.000       -3640.256
                  23223074.317          33.000         805.977
                  25230981.651          30.000        1910.020
 127143388.72628  24194587.657          49.000        1183.346
 07  8 29 13 50 59.0010000  0  7G20G28G17G11G 4G13G23
 113934507.67628  21681019.348          50.000       -2845.365
 117041433.19537  22272244.654          43.000       -3504.558
 112262063.07428  21362761.707          50.000         198.660
 124363269.03828  23665545.826          49.000       -3638.350
 122037265.33736  23222919.480          38.000         801.292
                  25230619.138          33.000        1904.443
 127142205.12328  24194362.253          49.000        1183.418
 07  8 29 13 51  0.0010000  0  7G20G28G17G11G 4G13G23
 113937352.74728  21681560.549          51.000       -2844.923
 117044940.86328  22272913.293          48.000       -3507.871
 112261863.14928  21362724.016          51.000         200.416
 124366907.25128  23666238.216          49.000       -3637.431
 122036462.80838  23222763.405          48.000         802.408
 132585900.28236  25230258.038          39.000        1898.354
 127141023.51028  24194137.807          49.000        1181.239
 07  8 29 13 51  1.0010000  0  7G20G28G17G11G 4G13G23
 113940198.08828  21682101.959          51.000       -2845.783
 117048450.21128  22273581.862          49.000       -3509.952
 112261662.87828  21362686.149          50.000         200.641
 124370546.277 8  23666930.588          49.000       -3638.422
 122035660.53728  23222609.355          49.000         802.345
 132584005.80126  25229898.144          36.000        1894.564
 127139843.75228  24193913.188          49.000        1179.306
 07  8 29 13 51  2.0010000  0  7G20G28G17G11G 4G13G23
 113943043.82028  21682643.475          50.000       -2844.520
 117051961.28328  22274250.641          49.000       -3512.037
 112261463.00328  21362647.915          51.000         200.004
 124374184.676 8  23667622.769          49.000       -3637.557
 122034858.96128  23222456.647          48.000         799.973
 132582113.95835  25229537.691          34.000        1893.383
 127138665.00328  24193688.743          49.000        1179.681
 07  8 29 13 51  3.0010000  0  7G20G28G17G11G 4G13G23
 113945889.11228  21683185.024          50.000       -2845.410
 117055473.77728  22274919.141          49.000       -3512.543
 112261263.55728  21362609.786          50.000         199.662
 124377821.699 8  23668315.089          49.000       -3636.496
 122034058.87738  23222304.673          48.000         800.469
                  25229177.170          33.000        1894.812
 127137485.51628  24193464.368          49.000        1178.625
 07  8 29 13 51  4.0010000  0  7G20G28G17G11G 4G13G23
 113948734.98128  21683726.818          50.000       -2846.432
 117058985.74728  22275587.346          50.000       -3510.029
 112261063.71528  21362571.850          51.000         199.698
 124381459.713 8  23669007.513          49.000       -3639.760
 122033257.82938  23222151.932          48.000         801.992
                  25228817.245          28.000        1902.082
 127136306.99228  24193240.097          49.000        1176.583
 07  8 29 13 51  5.0010000  0  7G20G28G17G11G 4G13G23
 113951583.72128  21684268.646          50.000       -2850.619
 117062494.85828  22276255.289          50.000       -3507.724
 112260864.22628  21362533.843          51.000         199.346
 124385101.809 8  23669700.389          49.000       -3644.660
 122032453.68628  23221999.000          49.000         805.063
                  25228457.610          31.000        1892.935
 127135130.44128  24193016.227          49.000        1175.612
 07  8 29 13 51  6.0010000  0  7G20G28G17G11G 4G13G23
 113954436.28928  21684811.696          50.000       -2853.952
 117066000.03728  22276922.657          50.000       -3503.315
 112260666.14128  21362496.219          51.000         197.186
 124388748.630 8  23670394.348          49.000       -3648.858
 122031647.05227  23221845.596          47.000         807.420
                  25228097.684          31.000        1898.152
 127133954.88728  24192792.848          50.000        1177.205
 07  8 29 13 51  7.0010000  0  7G20G28G17G11G 4G13G23
 113957291.571 8  21685354.764          50.000       -2854.058
 117069502.157 8  22277588.819          50.000       -3502.116
 112260471.019 8  21362458.735          50.000         194.356
 124392397.149 8  23671088.832          49.000       -3648.072
 122030841.71936  23221692.345          37.000         800.026
                  25227735.332          32.000        1903.338
 127132776.242 8  24192568.248          50.000        1181.252
 07  8 29 13 51  8.0010000  0  7G20G28G17G11G 4G13G23
 113960144.591 8  21685897.484          50.000       -2850.124
 117073006.288 8  22278255.573          49.000       -3506.238
 112260279.103 8  21362422.472          50.000         189.359
 124396039.718 8  23671781.872          48.000       -3636.606
                  23221540.876          28.000         798.422
 132570735.79935  25227372.284          34.000        1912.780
 127131589.963 8  24192342.499          49.000        1193.552
 07  8 29 13 51  9.0010000  0  7G20G28G17G11G 4G13G23
 113962993.771 8  21686439.664          50.000       -2847.915
 117076514.662 8  22278923.322          49.000       -3509.541
 112260091.980 8  21362386.854          50.000         184.944
 124399672.532 8  23672472.780          48.000       -3631.635
                  23221391.291          26.000         792.726
                  25227007.751          33.000        1917.421
 127130392.187 8  24192114.708          50.000        1203.992
 07  8 29 13 51 10.0010000  0  7G20G28G17G11G 4G13G23
 113965841.569 8  21686981.423          50.000       -2846.937
 117080025.569 8  22279591.228          49.000       -3511.852
 112259908.961 8  21362352.004          50.000         180.394
 124403299.744 8  23673162.764          49.000       -3624.233
                  23221247.293          24.000         795.393
                  25226641.148          31.000        1941.531
                  24191885.867          44.000        1207.355
 07  8 29 13 51 11.0010000  0  7G20G28G17G11G 4G13G23
 113968688.953 8  21687523.427          50.000       -2846.984
 117083538.619 8  22280259.570          49.000       -3513.703
 112259728.266 7  21362317.748          46.000         176.602
 124406924.351 8  23673852.467          49.000       -3624.086
                  23221102.267          25.000         803.367
                  25226273.835          32.000        1932.789
 127128005.73236  24191655.245          40.000        1206.865
 07  8 29 13 51 12.0010000  0  7G20G28G17G11G 4G13G23
 113971536.646 8  21688065.361          50.000       -2847.156
 117087053.145 8  22280928.367          50.000       -3516.084
 112259548.00337  21362283.388          43.000         176.043
 124410548.544 8  23674541.733          48.000       -3624.119
                  23220961.436          24.000         783.456
 132563040.43535  25225907.900          32.000        1922.340
 127126798.84136  24191424.066          37.000        1211.992
 07  8 29 13 51 13.0010000  0  7G20G28G17G11G 4G13G23
 113974385.749 8  21688607.643          50.000       -2850.393
 117090567.456 8  22281596.991          49.000       -3511.552
 112259368.61437  21362249.239          47.000         178.344
 124414173.795 8  23675231.923          49.000       -3625.194
                  23220817.073          27.000         790.563
                  25225541.815          26.000        1930.863
                  24191193.688          39.000        1211.078
 07  8 29 13 51 14.0010000  0  7G20G28G17G11G 4G13G23
 113977236.995 8  21689150.152          50.000       -2852.378
 117094078.903 8  22282265.160          49.000       -3509.580
 112259190.47527  21362215.508          47.000         178.066
 124417801.696 8  23675922.304          48.000       -3632.460
                  23220668.668          35.000         768.835
                  25225174.853          25.000        1925.956
 127124367.86437  24190962.995          45.000        1209.189
 07  8 29 13 51 15.0010000  0  6G20G28G17G11G 4G23
 113980092.147 8  21689693.183          50.000       -2857.365
 117097585.392 8  22282932.303          50.000       -3502.138
 112259013.97237  21362181.811          44.000         177.661
 124421434.686 8  23676613.715          49.000       -3636.599
                  23220522.857          31.000         774.805
 127123160.31128  24190733.734          48.000        1208.357
 07  8 29 13 51 16.0010000  0  6G20G28G17G11G 4G23
 113982952.471 8  21690237.157          49.000       -2861.290
 117101086.566 8  22283598.727          50.000       -3499.269
 112258837.12828  21362148.272          50.000         176.630
 124425075.278 8  23677306.502          48.000       -3646.833
                  23220374.330          26.000         800.396
 127121956.77928  24190505.884          48.000        1201.549
 07  8 29 13 51 17.0010000  0  6G20G28G17G11G 4G23
 113985819.338 8  21690782.736          49.000       -2868.714
 117104583.322 8  22284264.002          49.000       -3493.769
 112258659.15428  21362114.401          50.000         178.003
 124428726.754 8  23678001.609          48.000       -3658.432
                  23220227.434          27.000         798.638
 127120763.13038  24190279.498          49.000        1190.409
 07  8 29 13 51 18.0010000  0  6G20G28G17G11G 4G23
 113988693.940 8  21691329.866          50.000       -2878.698
                  22284930.023          35.000       -3497.550
 112258480.00228  21362079.868          50.000         178.668
 124432390.807 7  23678699.333          47.000       -3674.131
                  23220074.609          32.000         809.474
 127119580.33228  24190053.827          48.000        1177.903
 07  8 29 13 51 19.0010000  0  6G20G28G17G11G 4G23
 113991577.372 8  21691878.760          50.000       -2885.758
                  22285593.922          31.000       -3481.649
 112258300.79428  21362046.172          50.000         180.685
 124436068.200 7  23679398.961          47.000       -3683.532
                  23219919.040          31.000         809.840
 127118406.80528  24189830.042          48.000        1169.207
 07  8 29 13 51 20.0010000  0  6G20G28G17G11G 4G23
 113994465.249 8  21692428.493          49.000       -2888.191
                  22286258.237          31.000       -3476.071
 112258120.96528  21362011.935          49.000         181.040
 124439752.816 8  23680100.005          48.000       -3685.383
                  23219763.160          36.000         816.669
 127117238.64827  24189607.080          47.000        1167.289
 07  8 29 13 51 21.0010000  0  6G20G28G17G11G 4G23
 113997353.798 8  21692978.192          50.000       -2888.235
 117118551.82035  22286919.565          33.000       -3477.248
 112257940.71628  21361977.366          50.000         180.299
 124443438.229 8  23680801.434          48.000       -3685.205
                  23219600.331          36.000         813.983
 127116072.54127  24189384.868          46.000        1166.008
 07  8 29 13 51 22.0010000  0  6G20G28G17G11G 4G23
 114000240.496 8  21693527.648          50.000       -2885.510
 117122031.77137  22287580.890          45.000       -3486.112
 112257760.55628  21361943.215          50.000         180.227
 124447119.94937  23681501.802          44.000       -3677.702
                  23219442.546          33.000         814.395
 127114904.21327  24189162.833          47.000        1169.719
 07  8 29 13 51 23.0010000  0  6G20G28G17G11G 4G23
 114003124.401 8  21694076.250          50.000       -2882.010
 117125517.96728  22288242.147          49.000       -3488.274
 112257580.97928  21361909.013          50.000         179.708
 124450794.60236  23682200.807          41.000       -3673.244
 122018171.88336  23219286.225          37.000         808.139
 127113732.40528  24188939.489          48.000        1173.344
 07  8 29 13 51 24.0010000  0  6G20G28G17G11G 4G23
 114006006.164 8  21694624.780          50.000       -2880.766
                  22288906.215          35.000       -3488.889
 112257402.59328  21361874.896          49.000         174.494
 124454467.38537  23682898.520          43.000       -3669.862
                  23219133.340          34.000         799.606
 127112555.93028  24188715.868          48.000        1181.791
 07  8 29 13 51 25.0010000  0  6G20G28G17G11G 4G23
 114008886.995 8  21695172.874          50.000       -2880.117
 117132487.44236  22289571.244          37.000       -3487.452
 112257226.898 7  21361841.652          47.000         173.143
 124458136.21437  23683597.036          46.000       -3667.844
                  23218980.201          31.000         809.859
 127111375.533 8  24188490.969          48.000        1179.555
 07  8 29 13 51 26.0010000  0  6G20G28G17G11G 4G23
 114011767.017 8  21695721.091          50.000       -2878.567
 117135970.74336  22290236.132          36.000       -3487.141
 112257051.558 7  21361808.254          44.000         176.286
 124461803.25728  23684295.900          49.000       -3666.690
                  23218828.883          29.000         791.823
 127110192.382 8  24188266.195          49.000        1187.222
 07  8 29 13 51 27.0010000  0  6G20G28G17G11G 4G23
 114014645.805 8  21696268.836          50.000       -2877.940
                  22290899.558          32.000       -3477.334
 112256878.14137  21361775.411          46.000         172.713
 124465466.12528  23684993.424          49.000       -3656.241
                  23218677.730          31.000         791.990
 127109003.327 8  24188040.270          50.000        1194.190
 07  8 29 13 51 28.0010000  0  6G20G28G17G11G 4G23
 114017521.878 8  21696816.040          50.000       -2877.168
 117142957.99836  22291563.812          38.000       -3494.078
 112256709.55428  21361743.265          50.000         165.981
 124469121.12728  23685688.799          48.000       -3652.745
                  23218528.563          32.000         785.818
                  24187812.793          49.000        1203.568
 07  8 29 13 51 29.0010000  0  7G20G28G17G11G 4G13G23
 114020400.176 8  21697363.731          50.000       -2881.217
                  22292228.718          33.000       -3491.098
 112256545.94628  21361711.819          49.000         162.600
 124472775.93628  23686384.065          48.000       -3661.032
 122013412.45535  23218380.410          33.000         785.921
                  25219692.634          28.000        1955.095
 127106610.34228  24187583.830          49.000        1206.825
 07  8 29 13 51 30.0010000  0  7G20G28G17G11G 4G13G23
 114023282.814 8  21697912.296          50.000       -2883.023
                  22292893.435          29.000       -3484.094
 112256384.68528  21361680.792          49.000         160.971
 124476435.67027  23687079.927          46.000       -3661.262
 122012630.10825  23218227.962          35.000         778.527
                  25219320.176          30.000        1954.841
 127105404.43628  24187354.621          48.000        1206.803
 07  8 29 13 51 31.0010000  0  7G20G28G17G11G 4G13G23
 114026166.273 8  21698461.210          50.000       -2883.726
 117153434.11035  22293557.326          34.000       -3490.706
 112256224.24528  21361650.376          49.000         160.789
 124480095.85528  23687776.226          48.000       -3661.583
                  23218079.395          32.000         788.561
                  25218950.248          28.000        1953.249
 127104198.07328  24187124.557          49.000        1207.244
 07  8 29 13 51 32.0010000  0  7G20G28G17G11G 4G13G23
 114029052.349 8  21699010.314          51.000       -2887.061
 117156919.13925  22294221.466          35.000       -3483.615
 112256063.53528  21361619.506          48.000         160.679
 124483759.89628  23688475.071          49.000       -3664.769
                  23217931.573          30.000         784.673
                  25218580.495          24.000        1952.627
 127102995.05927  24186894.125          47.000        1201.827
 07  8 29 13 51 33.0010000  0  7G20G28G17G11G 4G13G23
 114031940.033 8  21699559.664          50.000       -2888.867
 117160403.68826  22294885.238          37.000       -3483.833
 112255903.19428  21361588.707          49.000         160.594
 124487425.81028  23689173.078          48.000       -3667.355
                  23217780.350          30.000         785.862
                  25218212.609          28.000        1950.722
 127101793.91228  24186665.509          49.000        1199.839
 07  8 29 13 51 34.0010000  0  7G20G28G17G11G 4G13G23
 114034830.124 8  21700109.607          50.000       -2891.227
 117163887.30626  22295548.156          37.000       -3479.354
 112255742.93028  21361558.570          50.000         160.308
 124491095.10128  23689870.615          49.000       -3669.846
 122009496.13735  23217635.218          33.000         791.458
                  25217841.060          26.000        1952.841
 127100595.47128  24186437.242          48.000        1196.384
 07  8 29 13 51 35.0010000  0  7G20G28G17G11G 4G13G23
 114037721.312 8  21700659.672          49.000       -2891.601
                  22296213.809          28.000       -3486.840
 112255582.78228  21361528.870          51.000         160.111
 124494765.49428  23690568.832          48.000       -3671.514
 122008707.57726  23217481.761          37.000         790.525
                  25217470.575          28.000        1953.154
 127099398.90227  24186209.586          47.000        1196.400
 07  8 29 13 51 36.0010000  0  7G20G28G17G11G 4G13G23
 114040613.408 8  21701209.964          49.000       -2893.305
                  22296876.324          33.000       -3487.234
 112255422.75528  21361498.647          50.000         161.489
 124498436.81228  23691267.469          49.000       -3671.791
 122007918.44936  23217328.128          36.000         788.811
                  25217100.245          25.000        1950.185
 127098204.64128  24185982.435          48.000        1192.497
 07  8 29 13 51 37.0010000  0  7G20G28G17G11G 4G13G23
 114043505.785 8  21701760.449          49.000       -2891.920
 117174364.40435  22297540.182          32.000       -3488.380
 112255264.346 8  21361468.212          49.000         158.142
 124502107.919 8  23691965.741          49.000       -3668.646
                  23217178.163          33.000         794.153
                  25216726.337          25.000        1946.000
 127097011.034 8  24185755.095          48.000        1195.056
 07  8 29 13 51 38.0010000  0  7G20G28G17G11G 4G13G23
 114046398.157 8  21702310.428          49.000       -2892.407
                  22298205.611          27.000       -3488.158
 112255107.850 8  21361438.318          49.000         154.256
 124505776.323 7  23692663.855          47.000       -3668.036
 122006292.41736  23217025.521          41.000         779.770
                  25216355.626          25.000        1947.935
 127095814.002 8  24185528.401          50.000        1199.977
 07  8 29 13 51 39.0010000  0  7G20G28G17G11G 4G13G23
 114049291.278 8  21702861.191          50.000       -2893.916
 117181346.46535  22298868.945          33.000       -3489.829
 112254955.931 8  21361409.193          49.000         150.986
 124509442.292 8  23693361.899          49.000       -3665.992
 122005517.07836  23216877.490          38.000         777.434
                  25215983.938          26.000        1952.787
 127094609.931 8  24185298.828          48.000        1207.456
 07  8 29 13 51 40.0010000  0  7G20G28G17G11G 4G13G23
 114052185.925 8  21703412.530          49.000       -2896.442
 117184838.40835  22299532.612          32.000       -3490.176
 112254806.745 8  21361380.922          50.000         148.542
 124513108.437 8  23694059.297          49.000       -3666.682
                  23216729.984          32.000         778.774
                  25215611.970          25.000        1955.389
 127093402.813 8  24185069.200          49.000        1205.987
 07  8 29 13 51 41.0010000  0  7G20G28G17G11G 4G13G23
 114055082.423 8  21703963.136          49.000       -2897.373
 117188327.53735  22300195.841          33.000       -3493.322
 112254657.767 8  21361352.776          50.000         149.642
 124516776.963 7  23694757.741          47.000       -3669.060
 122003958.07835  23216581.428          35.000         774.921
                  25215242.543          26.000        1939.604
 127092198.543 8  24184840.043          48.000        1203.475
 07  8 29 13 51 42.0010000  0  7G20G28G17G11G 4G13G23
 114057979.642 8  21704514.737          49.000       -2897.910
 117191820.14636  22300856.978          36.000       -3491.585
 112254507.766 8  21361324.437          50.000         150.732
 124520446.826 7  23695456.098          47.000       -3670.597
 122003181.34835  23216436.138          35.000         775.731
                  25214871.522          24.000        1953.322
 127090999.187 8  24184611.932          48.000        1197.000
 07  8 29 13 51 43.0010000  0  6G20G28G17G11G 4G23
 114060877.886 8  21705066.286          50.000       -2898.605
                  22301530.329          27.000       -3494.559
 112254357.191 8  21361295.784          51.000         150.569
 124524118.342 7  23696153.809          47.000       -3671.838
                  23216294.095          26.000         781.237
 127089804.981 7  24184383.926          47.000        1193.405
 07  8 29 13 51 44.0010000  0  6G20G28G17G11G 4G23
 114063777.215 8  21705618.515          50.000       -2899.981
                  22302208.478          28.000       -3496.955
 112254207.211 8  21361267.217          51.000         149.469
 124527790.679 7  23696852.428          47.000       -3672.831
                  23216158.732          27.000         775.866
 127088612.461 7  24184156.147          47.000        1192.095
 07  8 29 13 51 45.0010000  0  6G20G28G17G11G 4G23
 114066677.711 8  21706170.762          50.000       -2901.132
                  22302880.485          28.000       -3499.638
 112254058.262 8  21361238.721          51.000         148.448
 124531463.738 7  23697551.484          47.000       -3673.516
                  23216018.450          27.000         775.662
 127087420.816 7  24183928.666          47.000        1191.261
 07  8 29 13 51 46.0010000  0  6G20G28G17G11G 4G23
 114069579.414 8  21706723.113          50.000       -2902.179
                  22303552.720          26.000       -3498.818
 112253910.375 8  21361210.416          51.000         147.544
 124535137.562 7  23698250.400          47.000       -3673.872
                  23215878.499          31.000         775.428
 127086230.097 7  24183702.022          47.000        1189.922
 07  8 29 13 51 47.0010000  0  6G20G28G17G11G 4G23
 114072482.225 8  21707275.429          50.000       -2902.916
                  22304218.620          27.000       -3500.659
 112253763.425 8  21361182.216          51.000         147.082
 124538812.025 7  23698949.333          47.000       -3674.367
                  23215733.434          29.000         773.181
 127085040.221 8  24183475.483          48.000        1189.544
 07  8 29 13 51 48.0010000  0  6G20G28G17G11G 4G23
 114075385.977 8  21707828.077          51.000       -2904.004
                  22304872.409          25.000       -3502.185
 112253617.257 8  21361154.348          51.000         146.091
 124542487.001 7  23699648.336          47.000       -3674.951
                  23215588.422          29.000         771.152
 127083851.005 8  24183249.224          48.000        1188.861
 07  8 29 13 51 49.0010000  0  7G20G28G17G11G 4G23S37
 114078290.958 8  21708380.935          51.000       -2905.500
                  22305523.459          28.000       -3502.473
 112253472.175 8  21361126.671          51.000         144.523
 124546162.769 7  23700347.689          47.000       -3675.324
                  23215444.860          31.000         772.967
 127082662.776 8  24183023.400          48.000        1188.090
 199628742.74327  37988086.819          43.000       -1269.913
 07  8 29 13 51 50.0010000  0  7G20G28G17G11G 4G23S37
 114081196.963 8  21708934.124          51.000       -2906.494
                  22306181.960          30.000       -3503.508
 112253327.973 8  21361099.187          51.000         143.934
 124549839.106 7  23701046.884          47.000       -3676.661
                  23215302.623          29.000         771.765
 127081475.296 8  24182797.681          48.000        1187.160
 199630013.000 7  37988328.626          43.000       -1271.023
 07  8 29 13 51 51.0010000  0  7G20G28G17G11G 4G23S37
 114084103.904 8  21709487.906          51.000       -2906.826
 117223263.59835  22306845.505          33.000       -3501.935
 112253184.543 8  21361071.633          51.000         143.090
 124553515.921 7  23701746.201          47.000       -3676.790
                  23215160.264          31.000         772.386
 127080288.477 8  24182571.980          48.000        1186.793
 199631283.846 7  37988570.521          43.000       -1270.199
 07  8 29 13 51 52.0010000  0  7G20G28G17G11G 4G23S37
 114087011.771 8  21710041.217          51.000       -2907.918
 117226768.34125  22307512.503          34.000       -3506.084
 112253041.884 8  21361044.288          51.000         142.521
 124557193.254 7  23702445.640          47.000       -3677.515
                  23215020.243          31.000         770.478
 127079102.385 8  24182346.749          48.000        1185.850
 199632555.056 7  37988812.468          45.000       -1270.782
 07  8 29 13 51 53.0010000  0  7G20G28G17G11G 4G23S37
 114089921.451 8  21710594.319          50.000       -2909.201
 117230273.45925  22308179.539          35.000       -3503.900
 112252901.698 8  21361018.181          52.000         138.472
 124560871.353 7  23703146.163          47.000       -3674.981
 121994985.79735  23214874.084          30.000         780.926
 127077915.097 8  24182121.766          49.000        1191.567
 199633825.005 7  37989054.155          44.000       -1266.963
 07  8 29 13 51 54.0010000  0  8G20G28G17G11G 4G13G23S37
 114092832.937 8  21711147.804          50.000       -2912.409
                  22308849.453          33.000       -3503.246
 112252764.680 8  21360992.179          51.000         135.666
 124564549.793 8  23703847.329          50.000       -3677.895
                  23214722.384          31.000         766.133
                  25210448.862          28.000        1936.348
 127076723.585 7  24181894.914          47.000        1194.036
 199635090.618 7  37989295.091          44.000       -1265.061
 07  8 29 13 51 55.0010000  0  8G20G28G17G11G 4G13G23S37
 114095746.334 8  21711702.005          50.000       -2913.663
 117237305.08735  22309517.448          33.000       -3500.190
 112252630.388 8  21360966.788          52.000         132.670
 124568228.933 7  23704548.146          47.000       -3680.402
 121993394.07135  23214571.159          35.000         763.564
                  25210062.917          24.000        1939.251
 127075529.087 8  24181667.835          49.000        1196.828
 199636352.833 7  37989535.347          42.000       -1259.876
 07  8 29 13 51 56.0010000  0  8G20G28G17G11G 4G13G23S37
 114098660.552 8  21712256.206          51.000       -2913.687
                  22310185.878          32.000       -3501.455
 112252498.421 8  21360941.834          51.000         132.182
 124571907.07137  23705248.616          43.000       -3679.568
                  23214425.273          33.000         757.876
                  25209697.697          25.000        1927.494
 127074331.901 8  24181440.163          49.000        1199.452
 199637613.108 7  37989775.305          42.000       -1260.525
 07  8 29 13 51 57.0010000  0  8G20G28G17G11G 4G13G23S37
 114101574.726 8  21712810.547          50.000       -2913.832
                  22310849.891          41.000       -3508.569
 112252368.486 8  21360917.211          51.000         129.804
                  23705948.407          40.000       -3672.072
 121991840.92135  23214275.640          33.000         766.036
                  25209329.485          23.000        1940.064
 127073131.333 8  24181211.968          50.000        1201.660
 199638871.362 7  37990014.846          43.000       -1256.581
 07  8 29 13 51 58.0010000  0  7G20G28G17G11G 4G23S37
 114104488.102 8  21713364.732          50.000       -2911.561
 117247795.28538  22311513.630          49.000       -3503.379
 112252240.045 8  21360892.763          50.000         128.900
                  23706647.778          40.000       -3668.248
 121991082.99235  23214126.943          33.000         754.541
 127071927.829 8  24180982.638          49.000        1204.699
 199640128.471 7  37990254.210          43.000       -1258.417
 07  8 29 13 51 59.0010000  0  7G20G28G17G11G 4G23S37
 114107401.020 8  21713919.335          50.000       -2911.459
 117251300.28128  22312180.158          49.000       -3504.997
 112252111.515 8  21360868.088          50.000         129.340
                  23707346.310          37.000       -3670.719
                  23213973.679          39.000         759.170
 127070725.289 8  24180753.568          49.000        1202.191
                  37990493.872          36.000       -1254.603
 07  8 29 13 52  0.0010000  0  7G20G28G17G11G 4G23S37
 114110313.663 8  21714473.833          51.000       -2912.236
 117254807.65827  22312847.749          47.000       -3510.436
 112251983.277 8  21360843.518          50.000         127.549
                  23708047.929          39.000       -3676.115
                  23213824.250          35.000         751.789
 127069523.349 8  24180524.674          49.000        1202.409
                  37990733.078          28.000       -1258.776
 07  8 29 13 52  1.0010000  0  7G20G28G17G11G 4G23S37
 114113225.215 8  21715027.737          51.000       -2912.405
                  22313516.687          35.000       -3506.617
 112251855.772 8  21360819.733          51.000         128.173
 124590291.50637  23708744.213          45.000       -3668.056
 121988718.17935  23213681.329          34.000         741.197
 127068319.652 8  24180295.326          49.000        1204.287
                  37990972.618          28.000       -1257.707
 07  8 29 13 52  2.0010000  0  7G20G28G17G11G 4G23S37
 114116135.583 8  21715581.643          51.000       -2910.324
                  22314188.131          32.000       -3519.247
 112251728.778 8  21360795.599          51.000         128.075
 124593957.82228  23709440.006          48.000       -3666.209
                  23213535.640          39.000         749.625
 127067114.518 8  24180065.630          49.000        1205.871
                  37991210.953          26.000       -1257.374
 07  8 29 13 52  3.0010000  0  7G20G28G17G11G 4G23S37
 114119046.243 8  21716135.495          51.000       -2911.140
                  22314857.087          33.000       -3515.376
 112251602.457 8  21360771.482          51.000         126.009
 124597623.89128  23710137.474          49.000       -3664.479
 121987179.67437  23213388.638          43.000         744.758
 127065909.212 8  24179836.054          48.000        1205.037
 199646421.17936  37991450.857          36.000       -1262.650
 07  8 29 13 52  4.0010000  0  7G20G28G17G11G 4G23S37
 114121958.351 8  21716689.487          51.000       -2912.664
                  22315526.496          33.000       -3512.432
 112251477.381 8  21360747.488          51.000         124.369
 124601290.81328  23710835.638          49.000       -3669.243
 121986437.31336  23213244.463          40.000         740.550
 127064704.006 8  24179606.619          49.000        1205.938
 199647680.59037  37991690.240          43.000       -1259.728
 07  8 29 13 52  5.0010000  0  7G20G28G17G11G 4G23S37
 114124873.390 8  21717244.507          51.000       -2917.068
 117272406.53535  22316197.037          35.000       -3515.596
 112251353.600 8  21360723.842          51.000         123.482
 124604961.26627  23711534.206          47.000       -3668.785
 121985692.04335  23213102.245          34.000         745.410
 127063500.072 8  24179377.636          49.000        1203.173
 199648939.081 7  37991929.745          43.000       -1258.969
 07  8 29 13 52  6.0010000  0  7G20G28G17G11G 4G23S37
 114127792.907 8  21717799.945          51.000       -2922.375
                  22316861.979          40.000       -3512.264
 112251230.837 8  21360700.686          51.000         122.490
 124608637.37627  23712233.955          47.000       -3680.724
 121984944.12936  23212958.072          39.000         748.254
 127062299.796 8  24179149.682          49.000        1197.062
 199650197.699 7  37992169.441          42.000       -1257.351
 07  8 29 13 52  7.0010000  0  7G20G28G17G11G 4G23S37
 114130718.142 8  21718356.727          51.000       -2928.135
 117279383.17438  22317524.724          48.000       -3502.492
 112251108.664 8  21360677.093          50.000         121.609
 124612321.74927  23712935.556          47.000       -3686.354
                  23212815.299          32.000         758.603
 127061105.243 8  24178922.757          48.000        1190.959
 199651456.300 7  37992409.085          43.000       -1258.717
 07  8 29 13 52  8.0010000  0  7G20G28G17G11G 4G23S37
 114133649.872 8  21718914.731          49.000       -2933.263
 117282883.89028  22318188.253          50.000       -3498.487
 112250987.300 8  21360654.268          51.000         121.321
 124616015.33728  23713638.342          48.000       -3697.580
                  23212673.253          29.000         757.118
 127059917.262 8  24178697.822          50.000        1185.570
 199652715.342 7  37992648.781          43.000       -1258.171
 07  8 29 13 52  9.0010000  0  7G20G28G17G11G 4G23S37
 114136587.391 8  21719473.501          50.000       -2940.555
 117286381.32428  22318853.718          49.000       -3495.596
 112250866.009 8  21360631.094          50.000         121.181
 124619717.62927  23714342.472          47.000       -3706.501
                  23212532.046          28.000         755.754
 127058736.458 8  24178473.478          49.000        1177.163
 199653975.452 7  37992888.721          43.000       -1260.783
 07  8 29 13 52 10.0010000  0  7G20G28G17G11G 4G23S37
 114139528.743 8  21720033.042          51.000       -2941.730
 117289876.81328  22319519.444          50.000       -3493.633
 112250744.612 8  21360607.606          48.000         122.187
 124623425.69927  23715047.669          46.000       -3710.560
                  23212386.851          31.000         777.474
 127057560.705 8  24178250.096          49.000        1172.516
 199655236.471 7  37993128.747          44.000       -1263.460
 07  8 29 13 52 11.0010000  0  7G20G28G17G11G 4G23S37
 114142472.437 8  21720593.105          51.000       -2945.467
 117293371.03528  22320184.699          50.000       -3494.623
 112250623.684 8  21360584.850          50.000         120.166
 124627136.87627  23715753.827          46.000       -3711.074
 121981121.58136  23212235.659          37.000         769.708
 127056387.106 8  24178027.153          48.000        1174.600
 199656497.315 7  37993368.759          44.000       -1260.665
 07  8 29 13 52 12.0010000  0  7G20G28G17G11G 4G23S37
 114145418.202 8  21721153.536          51.000       -2946.702
 117296864.00128  22320849.361          50.000       -3491.574
 112250503.598 8  21360562.043          50.000         119.999
 124630850.19628  23716460.070          48.000       -3714.888
                  23212089.024          32.000         767.112
 127055214.427 7  24177804.173          44.000        1172.253
 199657757.453 7  37993608.525          43.000       -1259.804
 07  8 29 13 52 13.0010000  0  7G20G28G17G11G 4G23S37
 114148365.432 8  21721714.141          51.000       -2947.583
 117300355.83228  22321513.656          50.000       -3492.401
 112250384.234 8  21360539.305          51.000         119.147
 124634565.074 8  23717166.821          48.000       -3716.104
                  23211945.263          29.000         751.144
 127054040.90836  24177580.897          38.000        1170.739
 199659016.208 7  37993848.361          43.000       -1258.569
 07  8 29 13 52 14.0010000  0  8G20G28G17G11G 4G13G23S37
 114151314.155 8  21722275.391          51.000       -2951.524
 117303847.04128  22322178.126          50.000       -3491.468
 112250265.669 8  21360516.618          50.000         116.130
 124638281.291 8  23717873.782          49.000       -3716.177
                  23211805.013          27.000         743.784
                  25202967.369          31.000        1958.631
 127052868.89236  24177356.208          39.000        1169.954
 199660274.093 7  37994087.865          43.000       -1259.105
 07  8 29 13 52 15.0010000  0  8G20G28G17G11G 4G13G23S37
 114154264.206 8  21722836.748          51.000       -2950.293
 117307337.93628  22322842.211          50.000       -3492.073
 112250147.870 8  21360494.213          50.000         117.745
 124641998.549 8  23718581.178          49.000       -3717.932
                  23211665.574          27.000         759.491
                  25202588.035          34.000        1954.266
                  24177131.750          39.000        1179.964
 199661531.912 7  37994327.143          43.000       -1258.280
 07  8 29 13 52 16.0010000  0  8G20G28G17G11G 4G13G23S37
 114157214.939 8  21723398.505          51.000       -2950.241
 117310829.05228  22323506.750          50.000       -3490.913
 112250030.538 8  21360471.963          50.000         115.856
 124645716.215 8  23719288.837          49.000       -3718.619
                  23211521.363          26.000         752.524
 132438529.66435  25202214.253          34.000        1958.977
 127050517.57837  24176909.692          43.000        1170.336
 199662789.813 7  37994566.560          43.000       -1258.598
 07  8 29 13 52 17.0010000  0  8G20G28G17G11G 4G13G23S37
 114160165.816 8  21723960.140          51.000       -2950.469
 117314321.14228  22324170.818          49.000       -3493.341
 112249915.416 8  21360449.870          49.000         113.887
 124649431.925 8  23719996.060          48.000       -3714.953
                  23211383.278          26.000         750.273
                  25201842.039          34.000        1958.766
 127049342.98727  24176686.717          47.000        1180.619
 199664046.503 7  37994805.716          44.000       -1255.416
 07  8 29 13 52 18.0010000  0  8G20G28G17G11G 4G13G23S37
 114163115.134 8  21724521.201          50.000       -2946.577
 117317814.91328  22324835.880          49.000       -3494.138
 112249803.725 8  21360428.806          49.000         109.757
 124653142.254 8  23720702.554          49.000       -3704.425
                  23211238.736          30.000         744.406
                  25201465.833          35.000        1967.284
 127048161.01628  24176462.502          50.000        1187.933
 199665299.420 7  37995044.263          43.000       -1250.412
 07  8 29 13 52 19.0010000  0  8G20G28G17G11G 4G13G23S37
 114166061.433 8  21725081.720          49.000       -2945.317
 117321311.007 8  22325501.325          49.000       -3497.390
 112249695.042 8  21360408.109          51.000         106.557
 124656845.014 8  23721407.335          48.000       -3701.000
                  23211093.114          29.000         744.334
                  25201090.461          35.000        1965.736
 127046970.31928  24176235.861          49.000        1194.949
 199666548.568 7  37995281.918          43.000       -1247.827
 07  8 29 13 52 20.0010000  0  8G20G28G17G11G 4G13G23S37
 114169006.141 8  21725642.064          49.000       -2944.983
 117324809.289 8  22326166.771          49.000       -3499.091
 112249589.279 8  21360388.111          51.000         105.013
 124660542.750 8  23722111.191          49.000       -3696.433
                  23210934.592          45.000         780.252
 132430628.61835  25200710.732          31.000        1979.561
 127045773.16028  24176007.980          50.000        1197.358
 199667795.167 7  37995519.085          43.000       -1244.902
 07  8 29 13 52 21.0010000  0  8G20G28G17G11G 4G13G23S37
 114171951.509 8  21726202.513          49.000       -2945.659
 117328307.367 8  22326832.323          50.000       -3497.573
 112249484.969 8  21360368.182          50.000         104.210
 124664239.869 8  23722815.097          48.000       -3697.632
 121973432.12738  23210772.484          49.000         745.618
 132428647.60135  25200332.116          32.000        1983.543
 127044574.22828  24175780.238          50.000        1198.996
 199669039.787 7  37995755.903          43.000       -1243.274
 07  8 29 13 52 22.0010000  0  8G20G28G17G11G 4G13G23S37
 114174899.400 8  21726763.640          49.000       -2949.191
 117331803.809 8  22327497.788          50.000       -3494.567
 112249381.613 8  21360348.428          50.000         103.467
 124667939.870 8  23723519.020          48.000       -3702.124
 121972685.83828  23210632.150          49.000         747.662
                  25199954.999          27.000        1980.559
 127043376.47528  24175552.459          50.000        1195.695
 199670283.384 7  37995992.510          43.000       -1243.219
 07  8 29 13 52 23.0010000  0  8G20G28G17G11G 4G13G23S37
 114177850.591 8  21727325.100          49.000       -2952.539
 117335297.839 8  22328162.834          50.000       -3492.960
 112249278.433 8  21360329.128          50.000         103.067
 124671644.541 8  23724224.077          48.000       -3707.436
 121971936.07428  23210489.391          49.000         751.604
                  25199577.620          29.000        1978.649
 127042182.01528  24175325.099          49.000        1193.448
 199671526.511 7  37996229.275          44.000       -1242.155
 07  8 29 13 52 24.0010000  0  8G20G28G17G11G 4G13G23S37
 114180803.038 8  21727886.753          49.000       -2950.836
 117338791.603 8  22328827.705          50.000       -3493.780
 112249175.308 8  21360309.567          50.000         104.529
 124675350.667 8  23724929.363          48.000       -3705.529
 121971185.07628  23210346.910          49.000         750.171
                  25199201.097          31.000        1980.254
 127040989.03228  24175098.333          49.000        1192.224
 199672769.832 7  37996465.795          43.000       -1243.979
 07  8 29 13 52 25.0010000  0  8G20G28G17G11G 4G13G23S37
 114183754.834 8  21728448.493          49.000       -2951.492
 117342287.522 8  22329492.889          49.000       -3495.624
 112249071.951 8  21360289.918          50.000         103.531
 124679055.514 8  23725634.474          49.000       -3704.827
 121970435.22328  23210203.993          49.000         751.148
 132420708.41536  25198823.108          37.000        1980.210
 127039796.567 8  24174871.306          49.000        1193.035
 199674014.591 7  37996702.734          43.000       -1244.356
 07  8 29 13 52 26.0010000  0  8G20G28G17G11G 4G13G23S37
 114186706.951 8  21729010.320          49.000       -2952.000
 117345783.391 8  22330158.108          49.000       -3496.064
 112248968.958 8  21360270.583          50.000         102.509
 124682760.263 8  23726339.219          48.000       -3703.467
 121969685.76728  23210062.191          49.000         748.437
 132418729.18236  25198444.525          36.000        1980.496
 127038603.722 8  24174644.279          49.000        1193.937
 199675258.859 7  37996939.515          42.000       -1245.453
 07  8 29 13 52 27.0010000  0  8G20G28G17G11G 4G13G23S37
 114189659.188 8  21729572.112          49.000       -2952.070
 117349279.376 8  22330823.311          49.000       -3495.888
 112248866.731 8  21360250.933          50.000         102.285
 124686464.191 8  23727044.173          48.000       -3702.965
 121968937.65528  23209920.251          49.000         748.112
 132416748.25226  25198067.898          36.000        1982.023
 127037409.527 8  24174416.921          49.000        1195.855
 199676502.136 7  37997176.089          42.000       -1241.840
 07  8 29 13 52 28.0010000  0  8G20G28G17G11G 4G13G23S37
 114192612.637 8  21730134.270          49.000       -2953.749
 117352775.284 8  22331488.722          49.000       -3496.607
 112248765.589 8  21360231.546          50.000         100.277
 124690168.763 8  23727748.951          48.000       -3705.319
 121968190.08928  23209778.224          49.000         747.716
 132414765.96836  25197690.624          37.000        1981.867
 127036215.205 8  24174189.544          49.000        1194.568
 199677744.955 7  37997412.714          43.000       -1242.589
 07  8 29 13 52 29.0010000  0  8G20G28G17G11G 4G13G23S37
 114195567.072 8  21730696.673          49.000       -2955.398
 117356270.701 8  22332153.611          49.000       -3495.047
 112248664.976 8  21360212.560          50.000         100.735
 124693874.057 8  23728453.871          48.000       -3704.750
 121967442.45628  23209635.776          49.000         744.378
 132412783.27026  25197310.838          39.000        1983.413
 127035020.972 8  24173962.272          49.000        1194.232
 199678987.020 7  37997648.990          43.000       -1242.074
 07  8 29 13 52 30.0010000  0  8G20G28G17G11G 4G13G23S37
 114198522.180 8  21731259.041          49.000       -2954.363
 117359765.78837  22332818.917          44.000       -3496.786
 112248564.291 8  21360193.662          50.000         101.665
 124697580.078 8  23729159.086          48.000       -3705.002
 121966694.24027  23209493.437          47.000         749.524
                  25196933.913          40.000        1982.333
 127033827.377 8  24173735.488          49.000        1192.714
 199680228.424 7  37997885.353          42.000       -1241.894
 07  8 29 13 52 31.0010000  0  8G20G28G17G11G 4G13G23S37
 114201476.852 8  21731820.729          48.000       -2954.135
 117363262.96337  22333484.311          46.000       -3499.376
 112248462.631 8  21360174.013          50.000         101.887
 124701285.614 8  23729864.215          48.000       -3704.907
                  23209351.062          38.000         752.398
 132408797.30036  25196556.461          37.000        1972.895
 127032635.849 8  24173508.670          49.000        1190.754
 199681471.833 7  37998122.117          42.000       -1244.979
 07  8 29 13 52 32.0010000  0  8G20G28G17G11G 4G13G23S37
 114204429.342 8  21732382.698          49.000       -2950.033
 117366766.38437  22334150.889          43.000       -3506.624
 112248360.443 8  21360154.468          50.000         101.582
 124704987.404 8  23730568.508          48.000       -3698.476
                  23209209.972          29.000         740.808
 132406821.77435  25196180.498          35.000        1977.181
 127031445.047 8  24173281.853          49.000        1193.391
 199682718.227 7  37998359.491          42.000       -1246.606
 07  8 29 13 52 33.0010000  0  8G20G28G17G11G 4G13G23S37
 114207378.594 8  21732944.176          50.000       -2949.415
                  22334820.240          31.000       -3518.150
 112248259.505 8  21360135.395          50.000         100.738
 124708682.579 8  23731272.260          49.000       -3693.277
                  23209071.810          26.000         717.720
                  25195805.544          30.000        1974.804
 127030250.141 8  24173054.128          49.000        1195.505
 199683965.475 7  37998596.866          43.000       -1248.974
 07  8 29 13 52 34.0010000  0  8G20G28G17G11G 4G13G23S37
 114210328.033 8  21733505.531          50.000       -2951.494
                  22335488.136          40.000       -3501.622
 112248158.710 8  21360116.182          50.000         100.441
 124712377.413 8  23731975.345          49.000       -3698.001
                  23208934.802          25.000         746.498
                  25195430.257          31.000        1967.686
 127029055.50637  24172826.560          42.000        1194.872
 199685212.812 7  37998834.224          42.000       -1246.835
 07  8 29 13 52 35.0010000  0  8G20G28G17G11G 4G13G23S37
 114213282.612 8  21734067.966          50.000       -2958.631
                  22336152.707          40.000       -3509.101
 112248057.870 7  21360097.093          46.000         102.706
 124716077.01637  23732678.812          46.000       -3706.281
                  23208792.481          28.000         753.316
 132400901.00336  25195053.874          38.000        1970.108
 127027867.54538  24172599.441          49.000        1184.087
 199686461.294 7  37999071.896          43.000       -1249.140
 07  8 29 13 52 36.0010000  0  8G20G28G17G11G 4G13G23S37
 114216242.054 8  21734630.979          48.000       -2963.203
 117380776.11937  22336819.152          42.000       -3498.333
                  21360077.566          47.000         103.264
 124719787.78528  23733383.450          48.000       -3711.767
                  23208652.287          28.000         756.588
 132398930.93537  25194678.240          44.000        1966.790
 127026686.78528  24172374.854          50.000        1178.033
 199687711.566 7  37999309.794          44.000       -1250.565
 07  8 29 13 52 37.0010000  0  8G20G28G17G11G 4G13G23S37
 114219204.879 8  21735194.725          50.000       -2964.975
 117384276.43337  22337484.076          43.000       -3495.650
 112247860.04037  21360057.673          45.000         103.406
 124723504.41028  23734091.315          49.000       -3719.544
                  23208512.872          26.000         742.313
 132396965.33027  25194304.891          44.000        1962.990
 127025512.41028  24172151.925          49.000        1170.747
 199688963.679 7  37999548.006          43.000       -1252.703
 07  8 29 13 52 38.0010000  0  8G20G28G17G11G 4G13G23S37
 114222170.176 8  21735758.889          50.000       -2966.832
 117387776.45628  22338149.591          48.000       -3499.595
                  21360037.744          40.000         101.581
 124727224.88528  23734799.863          48.000       -3721.216
                  23208371.721          26.000         754.734
 132395002.93627  25193932.190          45.000        1964.741
 127024342.71628  24171930.342          50.000        1171.027
 199690217.383 7  37999786.724          42.000       -1254.688
 07  8 29 13 52 39.0010000  0  8G20G28G17G11G 4G13G23S37
 114225135.067 8  21736323.528          49.000       -2961.951
 117391278.21928  22338816.799          48.000       -3504.229
 112247645.60937  21360016.873          44.000         101.637
                  23735508.237          48.000       -3722.803
                  23208228.593          26.000         750.226
 132393040.00236  25193559.087          41.000        1964.797
 127023171.80038  24171707.521          48.000        1173.283
 199691471.021 7  38000025.513          42.000       -1255.566
 07  8 29 13 52 40.0010000  0  8G20G28G17G11G 4G13G23S37
 114228096.514 8  21736886.752          49.000       -2958.890
 117394784.52128  22339484.634          48.000       -3510.021
 112247543.68538  21359996.806          48.000         102.604
 124734647.22638  23736214.330          48.000       -3708.203
                  23208087.484          25.000         733.486
 132391075.48235  25193184.884          33.000        1964.417
 127021995.52428  24171483.776          50.000        1177.439
 199692724.246 7  38000263.934          42.000       -1257.576
 07  8 29 13 52 41.0010000  0  8G20G28G17G11G 4G13G23S37
 114231054.453 8  21737449.488          49.000       -2956.169
 117398296.26528  22340153.360          49.000       -3512.297
 112247442.36128  21359978.535          50.000         100.771
 124738352.52028  23736919.514          48.000       -3701.406
                  23207944.156          26.000         754.865
                  25192810.941          30.000        1959.544
 127020816.16928  24171259.403          48.000        1181.569
 199693978.512 6  38000502.532          41.000       -1255.243
 07  8 29 13 52 42.0010000  0  8G20G28G17G11G 4G13G23S37
 114234008.166 8  21738011.702          49.000       -2949.740
 117401812.78628  22340822.678          49.000       -3518.722
 112247341.66028  21359960.055          50.000         100.242
 124742050.04128  23737623.808          48.000       -3691.860
                  23207799.315          32.000         743.905
                  25192437.874          24.000        1961.375
 127019631.51528  24171033.687          49.000        1189.297
 199695232.827 7  38000741.409          42.000       -1252.658
 07  8 29 13 52 43.0010000  0  7G20G28G17G11G 4G23S37
 114236955.275 8  21738572.746          50.000       -2942.457
                  22341493.774          36.000       -3531.245
 112247241.15728  21359941.017          49.000         100.791
 124745736.59028  23738325.538          48.000       -3680.366
                  23207652.064          39.000         728.351
 127018439.85428  24170806.313          48.000        1194.731
                  38000979.730          29.000       -1244.042
 07  8 29 13 52 44.0010000  0  6G20G28G17G11G 4G23
 114239895.697 8  21739132.307          49.000       -2937.439
 117408872.46436  22342165.711          40.000       -3534.134
 112247140.83628  21359922.171          49.000         100.406
 124749411.85228  23739024.562          48.000       -3672.137
 121956277.37037  23207508.045          43.000         720.735
 127017242.57427  24170577.891          47.000        1198.529
 07  8 29 13 52 45.0010000  0  6G20G28G17G11G 4G23
 114242832.026 8  21739690.924          49.000       -2934.563
                  22342839.736          30.000       -3551.861
 112247040.83928  21359903.307          50.000          99.733
 124753079.73228  23739722.329          48.000       -3665.951
                  23207371.830          32.000         725.590
 127016042.05027  24170348.998          46.000        1203.241
 07  8 29 13 52 46.0010000  0  6G20G28G17G11G 4G23
 114245767.782 8  21740249.872          49.000       -2935.229
                  22343514.571          33.000       -3552.195
 112246941.68028  21359884.600          50.000         100.056
 124756745.57528  23740419.971          48.000       -3664.594
 121954832.59336  23207233.165          39.000         710.182
 127014840.16027  24170120.086          47.000        1202.317
 07  8 29 13 52 47.0010000  0  6G20G28G17G11G 4G23
 114248704.756 8  21740808.574          49.000       -2938.917
                  22344188.223          30.000       -3542.244
 112246843.00628  21359865.736          50.000          99.949
 124760412.48128  23741117.909          48.000       -3668.333
                  23207095.959          32.000         723.932
 127013639.40428  24169891.278          48.000        1201.014
 07  8 29 13 52 48.0010000  0  6G20G28G17G11G 4G23
 114251644.797 8  21741368.202          50.000       -2940.778
                  22344863.358          28.000       -3533.577
 112246745.92928  21359847.185          49.000          96.242
 124764082.55927  23741816.352          47.000       -3673.299
                  23206958.973          30.000         719.584
 127012439.56928  24169662.802          48.000        1198.624
 07  8 29 13 52 49.0010000  0  7G20G28G17G11G 4G13G23
 114254591.912 8  21741929.293          50.000       -2950.490
                  22345539.324          25.000       -3541.323
 112246651.991 8  21359828.931          49.000          93.394
 124767761.41338  23742516.591          48.000       -3682.921
                  23206821.609          30.000         729.733
 132373288.24036  25189799.267          36.000        1975.317
 127011243.158 8  24169435.477          48.000        1195.666
 07  8 29 13 52 50.0010000  0  7G20G28G17G11G 4G13G23
 114257546.033 8  21742491.432          50.000       -2954.705
                  22346215.786          27.000       -3530.007
 112246559.729 8  21359811.254          49.000          91.025
 124771449.16227  23743218.225          45.000       -3692.597
                  23206682.637          33.000         734.484
 132371312.13635  25189427.421          32.000        1978.191
 127010049.850 8  24169208.884          49.000        1192.090
 07  8 29 13 52 51.0010000  0  7G20G28G17G11G 4G13G23
 114260502.187 8  21743053.765          50.000       -2956.375
                  22346887.199          28.000       -3532.519
 112246468.876 8  21359793.943          49.000          90.322
 124775138.82827  23743920.302          47.000       -3686.994
                  23206544.290          28.000         728.526
                  25189055.637          25.000        1958.206
 127008856.988 8  24168982.102          48.000        1195.411
 07  8 29 13 52 52.0010000  0  7G20G28G17G11G 4G13G23
 114263457.795 8  21743616.099          50.000       -2955.749
                  22347558.406          29.000       -3528.519
 112246378.525 8  21359776.859          49.000          89.524
 124778826.69927  23744622.429          47.000       -3686.794
                  23206407.428          27.000         730.057
                  25188690.761          25.000        1935.453
 127007663.383 8  24168755.145          48.000        1194.351
 07  8 29 13 52 53.0010000  0  7G20G28G17G11G 4G13G23
 114266411.713 8  21744178.381          50.000       -2952.794
                  22348229.732          34.000       -3532.982
 112246288.802 8  21359759.635          49.000          89.876
 124782510.80228  23745323.197          48.000       -3682.187
                  23206271.695          26.000         716.581
                  25188327.131          26.000        1929.648
 127006468.830 8  24168527.402          48.000        1194.915
 07  8 29 13 52 54.0010000  0  7G20G28G17G11G 4G13G23
 114269363.950 8  21744740.156          50.000       -2951.490
 117444244.85737  22348896.799          47.000       -3539.334
 112246199.332 8  21359742.761          49.000          89.797
 124786191.57228  23746023.475          48.000       -3678.902
                  23206135.481          27.000         722.583
                  25187960.482          24.000        1920.777
 127005274.029 8  24168300.078          48.000        1194.755
 07  8 29 13 52 55.0010000  0  7G20G28G17G11G 4G13G23
 114272314.100 8  21745301.443          50.000       -2949.057
 117447786.94228  22349566.239          49.000       -3545.001
 112246109.378 8  21359725.782          49.000          91.041
 124789868.75128  23746723.178          48.000       -3675.401
                  23205997.835          28.000         724.816
                  25187597.165          23.000        1913.942
 127004079.619 8  24168072.580          48.000        1195.284
 07  8 29 13 52 56.0010000  0  7G20G28G17G11G 4G13G23
 114275261.385 8  21745862.155          50.000       -2944.639
 117451334.92028  22350240.984          49.000       -3551.497
 112246018.735 8  21359708.699          50.000          92.412
 124793541.32028  23747422.044          49.000       -3669.748
 121947616.72536  23205860.025          38.000         709.519
                  25187227.551          24.000        1955.261
 127002885.474 8  24167845.116          48.000        1193.908
 07  8 29 13 52 57.0010000  0  7G20G28G17G11G 4G13G23
 114278203.867 8  21746422.030          50.000       -2939.377
 117454891.14528  22350917.631          49.000       -3559.544
 112245924.947 8  21359690.797          50.000          96.042
 124797208.10428  23748119.654          48.000       -3662.965
 121946906.31927  23205724.192          47.000         710.323
                  25186852.239          24.000        1974.687
 127001693.995 7  24167618.191          46.000        1189.121
 07  8 29 13 52 58.0010000  0  7G20G28G17G11G 4G13G23
 114281140.124 8  21746980.683          50.000       -2933.771
 117458456.86728  22351596.161          50.000       -3570.961
 112245825.198 8  21359671.551          50.000         102.183
 124800869.10528  23748815.884          48.000       -3660.001
 121946195.29528  23205588.954          49.000         712.499
                  25186475.170          25.000        1964.128
 127000508.338 7  24167392.889          47.000        1182.266
 07  8 29 13 52 59.0010000  0  7G20G28G17G11G 4G13G23
 114284072.085 8  21747538.568          49.000       -2930.300
 117462031.16528  22352275.932          50.000       -3577.645
 112245719.341 8  21359651.259          50.000         108.318
 124804527.47227  23749511.764          47.000       -3658.501
 121945480.54828  23205453.909          49.000         718.558
                  25186101.163          35.000        1925.903
 126999331.483 8  24167169.731          48.000        1171.977
 07  8 29 13 53  0.0010000  0  7G20G28G17G11G 4G13G23
 114287002.372 8  21748096.137          49.000       -2930.844
 117465611.46728  22352957.309          49.000       -3581.842
 112245608.614 8  21359630.391          50.000         113.732
 124808186.36928  23750207.783          48.000       -3660.452
 121944760.86528  23205317.642          48.000         723.448
                  25185709.839          43.000        1919.913
 126998163.993 8  24166948.529          49.000        1163.114
 07  8 29 13 53  1.0010000  0  7G20G28G17G11G 4G13G23
 114289933.198 8  21748653.811          50.000       -2931.059
 117469195.317 8  22353639.332          50.000       -3583.796
 112245494.070 8  21359608.579          50.000         117.461
 124811848.559 7  23750904.917          47.000       -3664.647
 121944035.16728  23205180.259          48.000         729.970
 132349826.00827  25185334.637          45.000        1907.330
 126997006.126 8  24166728.321          49.000        1154.199
 07  8 29 13 53  2.0010000  0  7G20G28G17G11G 4G13G23
 114292865.373 8  21749211.833          49.000       -2933.466
 117472779.585 8  22354321.112          50.000       -3583.306
 112245375.301 8  21359585.982          51.000         120.577
 124815515.751 8  23751602.680          48.000       -3670.296
 121943301.57528  23205040.922          48.000         737.515
 132347922.92927  25184972.856          45.000        1899.247
 126995857.514 8  24166509.789          49.000        1145.749
 07  8 29 13 53  3.0010000  0  7G20G28G17G11G 4G13G23
 114295800.595 8  21749770.448          50.000       -2937.316
 117476362.520 8  22355002.998          49.000       -3581.302
 112245253.685 8  21359562.810          50.000         124.363
 124819189.779 8  23752302.501          48.000       -3676.923
 121942559.92527  23204899.891          45.000         743.077
 132346027.33627  25184610.867          45.000        1892.816
 126994717.858 8  24166293.159          50.000        1136.933
 07  8 29 13 53  4.0010000  0  7G20G28G17G11G 4G13G23
 114298737.866 8  21750329.588          50.000       -2937.941
 117479945.11937  22355684.619          46.000       -3585.811
 112245130.83038  21359539.758          48.000         123.541
 124822867.145 8  23753002.567          48.000       -3679.999
 121941815.77236  23204757.340          41.000         742.311
 132344134.70627  25184251.724          45.000        1892.634
 126993582.195 8  24166077.229          50.000        1136.003
 07  8 29 13 53  5.0010000  0  7G20G28G17G11G 4G13G23
 114301676.277 8  21750888.868          50.000       -2937.539
 117483527.79637  22356366.417          45.000       -3585.560
 112245008.75628  21359516.618          49.000         121.049
 124826545.822 8  23753703.141          48.000       -3679.282
 121941069.38137  23204614.300          42.000         740.428
 132342242.92427  25183892.528          46.000        1891.253
 126992447.987 8  24165860.845          49.000        1132.396
 07  8 29 13 53  6.0010000  0  7G20G28G17G11G 4G13G23
 114304616.011 8  21751448.199          49.000       -2938.362
 117487111.43037  22357048.303          44.000       -3581.736
 112244887.69037  21359493.653          46.000         120.268
 124830226.009 7  23754403.732          44.000       -3680.761
                  23204473.440          38.000         734.916
 132340351.96327  25183533.490          45.000        1892.772
 126991315.101 8  24165645.301          50.000        1133.862
 07  8 29 13 53  7.0010000  0  7G20G28G17G11G 4G13G23
 114307555.64637  21752007.583          43.000       -2937.919
                  22357730.469          44.000       -3576.232
 112244767.02638  21359470.689          49.000         120.661
                  23755106.449          31.000       -3690.859
                  23204332.550          41.000         743.996
 132338460.52327  25183173.963          46.000        1891.677
                  24165429.705          47.000        1137.133
 07  8 29 13 53  8.0010000  0  7G20G28G17G11G 4G13G23
                  21752566.673          42.000       -2933.338
 117494244.52437  22358411.442          47.000       -3588.559
 112244648.36137  21359448.229          46.000         115.865
                  23755806.001          32.000       -3669.442
 121938841.07237  23204190.014          43.000         735.196
                  25182813.862          40.000        1896.097
 126989056.54336  24165214.072          40.000        1135.913
 07  8 29 13 53  9.0010000  0  7G20G28G17G11G 4G13G23
 114313439.14837  21753124.309          47.000       -2940.478
                  22359093.902          44.000       -3588.706
 112244532.34037  21359424.845          46.000         116.148
                  23756506.065          32.000       -3680.631
 121938107.27136  23204050.416          41.000         744.876
 132334679.26035  25182452.276          34.000        1895.186
                  24164997.025          39.000        1133.464
 07  8 29 13 53 10.0010000  0  7G20G28G17G11G 4G13G23
 114316378.20928  21753683.310          49.000       -2938.448
 117501417.61437  22359776.467          47.000       -3588.267
                  21359402.056          39.000         117.568
                  23757207.282          34.000       -3685.307
                  23203911.436          35.000         727.868
                  25182091.859          34.000        1895.682
                  24164779.895          34.000        1141.696
 07  8 29 13 53 11.0010000  0  7G20G28G17G11G 4G13G23
 114319316.73027  21754243.166          47.000       -2936.848
 117505007.94228  22360459.085          49.000       -3587.935
                  21359378.077          41.000         110.467
 124848623.14436  23757903.170          41.000       -3665.839
                  23203773.943          37.000         722.907
                  25181731.639          29.000        1908.794
                  24164562.242          31.000        1150.237
 07  8 29 13 53 12.0010000  0  7G20G28G17G11G 4G13G23
 114322255.23038  21754803.247          49.000       -2939.126
 117508597.78528  22361142.697          50.000       -3589.429
                  21359358.843          43.000         100.312
 124852285.86337  23758596.085          46.000       -3660.652
                  23203637.426          39.000         710.303
                  25181370.517          27.000        1890.210
 126984478.73835  24164342.949          32.000        1159.743
 07  8 29 13 53 13.0010000  0  7G20G28G17G11G 4G13G23
 114325195.06827  21755363.259          47.000       -2941.599
 117512185.51828  22361826.520          49.000       -3586.422
 112244094.18737  21359341.041          45.000          93.271
 124855946.08737  23759291.387          43.000       -3664.629
 121935230.13236  23203502.863          39.000         699.449
                  25181009.392          27.000        1907.917
                  24164122.398          33.000        1168.059
 07  8 29 13 53 14.0010000  0  7G20G28G17G11G 4G13G23
 114328137.00428  21755923.394          48.000       -2941.061
                  22362509.713          50.000       -3585.677
 112244005.36937  21359324.876          44.000          77.267
 124859605.95836  23759987.722          38.000       -3661.073
 121934527.12737  23203369.822          42.000         697.928
                  25180641.414          29.000        1940.959
                  24163899.573          31.000        1159.658
 07  8 29 13 53 15.0010000  0  7G20G28G17G11G 4G13G23
 114331080.99628  21756483.684          50.000       -2944.826
 117519365.90136  22363191.809          41.000       -3581.938
 112243923.46538  21359307.971          49.000          90.128
                  23760684.561          37.000       -3661.523
                  23203236.309          44.000         694.838
                  25180271.642          27.000        1935.404
                  24163680.689          32.000        1142.298
 07  8 29 13 53 16.0010000  0  7G20G28G17G11G 4G13G23
 114334027.73628  21757044.375          49.000       -2948.376
 117522948.88236  22363872.943          41.000       -3581.742
 112243836.15528  21359291.130          51.000          85.272
 124866907.23935  23761382.549          35.000       -3671.665
                  23203105.936          47.000         688.784
                  25179906.212          25.000        1922.830
                  24163462.152          33.000        1168.872
 07  8 29 13 53 17.0010000  0  7G20G28G17G11G 4G13G23
 114336977.63728  21757605.801          48.000       -2947.924
 117526528.01937  22364554.376          43.000       -3578.797
 112243750.39828  21359275.704          50.000          84.687
                  23762084.719          31.000       -3696.769
 121932440.81538  23202972.113          49.000         696.835
                  25179542.771          25.000        1908.990
                  24163234.920          33.000        1181.464
 07  8 29 13 53 18.0010000  0  7G20G28G17G11G 4G13G23
 114339930.27138  21758167.609          49.000       -2953.302
                  22365235.875          38.000       -3581.844
 112243665.78128  21359260.052          49.000          85.915
                  23762787.182          29.000       -3683.557
 121931743.93728  23202839.789          49.000         697.751
                  25179175.350          24.000        1937.307
 126977470.12135  24163009.232          32.000        1170.038
 07  8 29 13 53 19.0010000  0  7G20G28G17G11G 4G13G23
 114342885.85228  21758729.802          50.000       -2954.567
 117533686.30537  22365916.993          45.000       -3579.361
 112243582.34328  21359244.659          50.000          83.034
                  23763489.481          29.000       -3689.750
 121931046.10028  23202708.057          49.000         696.586
                  25178804.692          26.000        1943.150
                  24162784.353          33.000        1174.498
 07  8 29 13 53 20.0010000  0  7G20G28G17G11G 4G13G23
 114345845.17327  21759292.848          46.000       -2962.368
                  22366596.807          45.000       -3565.345
 112243501.21328  21359229.581          51.000          79.582
                  23764192.654          28.000       -3693.902
 121930347.80728  23202575.766          49.000         696.440
                  25178429.148          27.000        1946.902
                  24162562.240          32.000        1157.418
 07  8 29 13 53 21.0010000  0  7G20G28G17G11G 4G13G23
                  21759856.906          38.000       -2971.392
 117540833.54237  22367276.946          45.000       -3565.945
 112243424.50628  21359215.166          50.000          75.927
                  23764898.302          27.000       -3704.088
 121929649.09528  23202443.129          49.000         699.541
                  25178058.691          25.000        1932.494
                  24162340.571          27.000        1160.610
 07  8 29 13 53 22.0010000  0  6G20G28G17G11G 4G23
                  21760421.963          35.000       -2967.156
 117544401.12028  22367956.545          49.000       -3564.746
 112243350.51028  21359201.222          50.000          72.496
                  23765604.613          24.000       -3713.501
 121928948.97228  23202310.281          49.000         701.978
                  24162120.135          27.000        1147.552
 07  8 29 13 53 23.0010000  0  6G20G28G17G11G 4G23
                  21760987.447          41.000       -2986.897
 117547960.98028  22368633.844          49.000       -3554.699
 112243279.67528  21359187.732          49.000          70.711
                  23766311.594          24.000       -3705.660
 121928244.00228  23202176.283          48.000         707.599
                  24161902.500          26.000        1158.171
 07  8 29 13 53 24.0010000  0  6G20G28G17G11G 4G23
                  21761556.115          42.000       -2985.869
 117551513.01927  22369309.885          46.000       -3549.875
 112243210.67528  21359174.644          50.000          68.433
                  23767014.495          25.000       -3690.777
 121927530.72628  23202040.925          49.000         716.169
                  24161682.106          28.000        1164.942
 07  8 29 13 53 25.0010000  0  6G20G28G17G11G 4G23
 114360734.81036  21762124.259          41.000       -2986.475
 117555065.99136  22369986.430          40.000       -3549.442
 112243142.846 8  21359161.974          49.000          67.448
                  23767716.916          25.000       -3697.473
                  23201904.742          44.000         713.887
                  24161456.879          30.000        1171.323
 07  8 29 13 53 26.0010000  0  6G20G28G17G11G 4G23
                  21762694.935          35.000       -2982.139
                  22370660.964          40.000       -3561.041
 112243075.702 8  21359148.991          50.000          66.789
                  23768428.780          23.000       -3743.800
                  23201769.538          40.000         714.059
                  24161232.765          30.000        1169.964
 07  8 29 13 53 27.0010000  0  6G20G28G17G11G 4G23
                  21763260.691          37.000       -2976.886
                  22371338.765          40.000       -3561.166
 112243009.980 8  21359136.392          48.000          67.192
                  23769145.640          23.000       -3775.607
                  23201635.114          40.000         700.830
                  24161008.193          33.000        1156.852
 07  8 29 13 53 28.0010000  0  6G20G28G17G11G 4G23
                  21763828.119          41.000       -2977.222
                  22372017.104          41.000       -3570.653
 112242944.64437  21359123.897          47.000          64.944
                  23769864.240          24.000       -3776.570
                  23201502.612          39.000         694.175
                  24160781.731          39.000        1173.061
 07  8 29 13 53 29.0010000  0  7G20G28G17G11G 4G13G23
                  21764395.560          38.000       -2992.110
 117569309.97036  22372695.885          41.000       -3563.543
 112242880.89837  21359111.508          43.000          66.635
                  23770579.046          23.000       -3793.577
                  23201370.864          39.000         696.641
                  25175074.373          26.000        1933.259
                  24160550.746          39.000        1183.814
 07  8 29 13 53 30.0010000  0  6G20G28G17G 4G13G23
 114375656.45336  21764963.836          37.000       -2964.937
 117572878.97536  22373375.712          41.000       -3559.174
 112242816.38738  21359099.327          49.000          64.841
                  23201239.164          37.000         689.331
                  25174704.795          26.000        1932.876
                  24160326.070          33.000        1170.895
 07  8 29 13 53 31.0010000  0  7G20G28G17G11G 4G13G23
                  21765529.459          41.000       -2987.308
 117576457.02237  22374056.525          42.000       -3578.234
 112242751.29228  21359087.147          50.000          65.172
                  23771922.590          30.000       -3704.224
 121922646.91937  23201108.320          44.000         682.053
                  25174334.619          25.000        1922.813
                  24160103.835          30.000        1155.027
 07  8 29 13 53 32.0010000  0  7G20G28G17G11G 4G13G23
 114381596.47438  21766094.188          48.000       -2973.707
 117580041.49637  22374738.233          45.000       -3584.342
 112242685.39928  21359074.757          51.000          65.624
                  23772623.760          28.000       -3697.714
 121921962.09837  23200978.370          44.000         686.741
                  25173967.431          26.000        1920.547
                  24159883.546          31.000        1161.500
 07  8 29 13 53 33.0010000  0  7G20G28G17G11G 4G13G23
 114384571.84127  21766660.254          46.000       -2977.742
 117583626.77536  22375419.651          41.000       -3573.818
 112242620.28728  21359062.472          49.000          65.597
                  23773330.398          28.000       -3720.255
 121921276.11628  23200848.558          48.000         686.453
                  25173598.711          26.000        1928.050
                  24159659.071          32.000        1172.211
 07  8 29 13 53 34.0010000  0  7G20G28G17G11G 4G13G23
                  21767227.560          41.000       -2980.833
 117587203.60037  22376100.313          44.000       -3576.524
                  21359049.872          46.000          62.897
                  23774043.176          26.000       -3749.132
 121920587.33038  23200718.189          48.000         691.547
                  25173221.816          28.000        1959.678
                  24159435.240          31.000        1180.671
 07  8 29 13 53 35.0010000  0  7G20G28G17G11G 4G13G23
                  21767795.580          41.000       -2986.103
                  22376781.136          41.000       -3570.279
 112242492.48638  21359036.278          48.000          62.058
                  23774755.291          27.000       -3731.005
                  23200586.216          42.000         698.724
                  25172846.720          25.000        1952.515
                  24159212.531          29.000        1155.870
 07  8 29 13 53 36.0010000  0  7G20G28G17G11G 4G13G23
                  21768364.659          45.000       -3005.899
 117594348.91136  22377460.599          40.000       -3557.982
 112242432.43128  21359024.934          49.000          58.441
                  23775459.211          27.000       -3697.742
                  23200451.749          43.000         710.000
                  25172474.972          25.000        1935.288
                  24158992.757          30.000        1141.885
 07  8 29 13 53 37.0010000  0  7G20G28G17G11G 4G13G23
                  21768936.070          42.000       -2995.842
 117597910.87037  22378137.613          47.000       -3563.519
 112242373.24728  21359014.971          50.000          60.615
                  23776160.605          28.000       -3698.145
 121918496.23836  23200318.532          40.000         705.630
                  25172105.947          26.000        1922.642
                  24158776.425          30.000        1137.076
 07  8 29 13 53 38.0010000  0  7G20G28G17G11G 4G13G23
 114399524.18336  21769505.807          41.000       -2984.161
 117601473.77728  22378815.764          50.000       -3563.366
 112242314.94437  21359004.115          47.000          56.527
                  23776864.991          29.000       -3722.083
                  23200184.305          40.000         706.620
                  25171736.595          26.000        1920.374
                  24158559.607          31.000        1138.828
 07  8 29 13 53 39.0010000  0  7G20G28G17G11G 4G13G23
                  21770075.273          36.000       -2993.533
                  22379495.047          43.000       -3567.238
 112242257.16428  21358993.262          50.000          58.126
                  23777572.090          28.000       -3726.756
                  23200049.102          42.000         709.662
                  25171371.047          24.000        1918.348
                  24158340.245          34.000        1151.214
 07  8 29 13 53 40.0010000  0  7G20G28G17G11G 4G13G23
 114405518.86537  21770646.524          46.000       -2994.203
 117608605.97237  22380173.734          42.000       -3579.007
 112242199.26328  21358982.269          48.000          60.313
                  23778279.075          32.000       -3706.295
 121916386.32137  23199917.032          43.000         692.769
                  25170999.832          26.000        1926.421
                  24158118.923          37.000        1150.307
 07  8 29 13 53 41.0010000  0  7G20G28G17G11G 4G13G23
                  21771217.022          36.000       -2997.425
 117612188.26537  22380855.597          47.000       -3589.408
 112242140.02928  21358971.119          51.000          62.844
 124959365.50936  23778976.748          40.000       -3671.913
                  23199787.516          37.000         690.815
                  25170629.925          27.000        1933.435
                  24157892.179          40.000        1161.134
 07  8 29 13 53 42.0010000  0  7G20G28G17G11G 4G13G23
                  21771788.068          36.000       -2986.067
 117615785.83138  22381540.234          49.000       -3602.475
                  21358959.483          46.000          68.937
 124963051.08337  23779669.323          46.000       -3689.039
 121915010.88638  23199655.312          48.000         687.040
                  25170259.528          25.000        1937.551
                  24157670.205          36.000        1142.173
 07  8 29 13 53 43.0010000  0  7G20G28G17G11G 4G13G23
 114414487.72237  21772353.144          46.000       -2977.001
 117619394.96428  22382227.978          51.000       -3613.152
                  21358946.711          41.000          74.964
                  23780367.350          38.000       -3688.211
                  23199524.789          42.000         698.495
                  25169889.492          25.000        1926.138
                  24157448.952          39.000        1136.981
 07  8 29 13 53 44.0010000  0  7G20G28G17G11G 4G13G23
 114417462.56128  21772917.833          48.000       -2976.045
 117623012.38838  22382917.172          49.000       -3620.290
                  21358932.718          39.000          79.483
 124970345.93536  23781066.200          37.000       -3677.256
 121913638.05136  23199394.103          39.000         695.187
                  25169522.233          26.000        1921.677
                  24157232.151          34.000        1137.984
 07  8 29 13 53 45.0010000  0  7G20G28G17G11G 4G13G23
 114420437.32228  21773484.285          48.000       -2974.638
 117626633.03338  22383606.473          49.000       -3619.507
                  21358918.214          40.000          72.686
                  23781768.774          38.000       -3696.630
                  23199262.264          42.000         687.854
                  25169152.874          26.000        1903.339
                  24157017.595          34.000        1122.569
 07  8 29 13 53 46.0010000  0  7G20G28G17G11G 4G13G23
 114423412.80528  21774051.138          48.000       -2974.062
 117630251.82928  22384295.269          48.000       -3616.066
 112241794.53038  21358903.415          48.000          68.236
 124977702.81637  23782466.108          42.000       -3680.248
 121912258.52436  23199131.498          37.000         704.446
                  25168788.600          26.000        1900.280
                  24156802.352          39.000        1137.267
 07  8 29 13 53 47.0010000  0  7G20G28G17G11G 4G13G23
                  21774618.323          43.000       -2974.066
 117633864.49328  22384983.072          48.000       -3608.507
 112241730.21737  21358891.371          47.000          59.931
                  23783165.462          40.000       -3676.833
                  23199001.083          36.000         679.403
                  25168425.829          28.000        1904.550
 126943674.54437  24156578.228          47.000        1155.162
 07  8 29 13 53 48.0010000  0  7G20G28G17G11G 4G13G23
 114429370.21837  21775185.224          44.000       -2983.709
 117637470.75637  22385669.376          45.000       -3598.128
 112241672.11228  21358881.386          49.000          52.074
                  23783868.524          34.000       -3694.904
 121910897.56936  23198872.631          39.000         676.363
                  25168061.244          26.000        1909.411
 126942517.22828  24156354.239          48.000        1160.400
 07  8 29 13 53 49.0010000  0  7G20G28G17G11G 4G13G23
 114432357.56637  21775753.138          42.000       -2992.427
 117641071.70437  22386354.680          45.000       -3599.711
 112241618.27628  21358871.404          49.000          49.432
                  23784572.327          34.000       -3692.598
 121910221.82737  23198743.447          43.000         676.097
                  25167693.707          25.000        1910.151
 126941356.22727  24156131.906          44.000        1161.874
 07  8 29 13 53 50.0010000  0  7G20G28G17G11G 4G13G23
 114435354.49937  21776323.515          42.000       -2994.641
 117644666.79137  22387038.907          42.000       -3590.026
 112241565.64637  21358860.584          46.000          47.508
                  23785275.132          35.000       -3698.736
 121909545.40128  23198615.205          48.000         676.663
                  25167324.655          27.000        1915.807
 126940193.70027  24155910.237          43.000        1162.413
 07  8 29 13 53 51.0010000  0  7G20G28G17G11G 4G13G23
 114438351.56937  21776892.077          47.000       -2998.459
 117648256.67436  22387721.560          39.000       -3588.745
 112241517.00537  21358851.005          47.000          50.824
                  23785977.975          31.000       -3697.642
 121908867.39528  23198487.366          48.000         678.825
                  25166953.545          27.000        1925.362
 126939031.43837  24155688.880          44.000        1161.018
 07  8 29 13 53 52.0010000  0  7G20G28G17G11G 4G13G23
 114441350.92837  21777462.683          42.000       -2994.853
 117651851.08637  22388406.200          42.000       -3593.165
 112241468.86528  21358842.576          49.000          49.708
                  23786684.491          31.000       -3720.836
                  23198359.312          44.000         668.435
                  25166585.007          27.000        1909.106
 126937869.89127  24155467.751          46.000        1161.584
 07  8 29 13 53 53.0010000  0  7G20G28G17G11G 4G13G23
 114444345.00736  21778032.258          39.000       -2994.176
 117655451.06536  22389089.460          40.000       -3601.240
 112241419.93728  21358834.008          48.000          48.458
                  23787390.566          32.000       -3708.148
 121907528.83337  23198231.439          47.000         672.992
                  25166212.818          26.000        1925.182
 126936708.03137  24155246.812          43.000        1156.310
 07  8 29 13 53 54.0010000  0  7G20G28G17G11G 4G13G23
 114447334.89336  21778600.842          41.000       -2985.431
 117659057.90237  22389774.883          45.000       -3611.923
 112241368.97337  21358823.625          45.000          50.326
 125007271.43635  23788092.889          34.000       -3697.331
 121906859.17328  23198103.999          48.000         670.368
                  25165838.816          26.000        1947.267
 126935547.59737  24155026.068          43.000        1159.391
 07  8 29 13 53 55.0010000  0  7G20G28G17G11G 4G13G23
                  21779169.123          41.000       -2992.356
 117662674.70036  22390463.139          38.000       -3608.667
                  21358812.578          42.000          46.143
                  23788794.200          35.000       -3687.998
 121906191.13127  23197976.802          46.000         665.262
                  25165465.290          26.000        1936.564
 126934391.02837  24154804.903          46.000        1158.331
 07  8 29 13 53 56.0010000  0  7G20G28G17G11G 4G13G23
 114453297.99336  21779738.608          37.000       -3001.957
 117666288.16538  22391149.489          48.000       -3613.266
 112241263.15936  21358802.284          40.000          49.746
 125014609.88937  23789489.314          42.000       -3682.318
 121905523.53637  23197849.643          45.000         667.794
                  25165092.208          24.000        1947.526
 126933232.78627  24154582.831          45.000        1155.286
 07  8 29 13 53 57.0010000  0  7G20G28G17G11G 4G13G23
 114456288.27728  21780306.284          49.000       -2991.966
 117669899.12728  22391836.926          48.000       -3605.916
 112241212.54438  21358792.371          50.000          48.248
 125018295.37428  23790185.750          48.000       -3686.980
 121904856.83337  23197722.990          46.000         669.585
                  25164718.093          27.000        1947.202
 126932072.91427  24154362.507          47.000        1161.637
 07  8 29 13 53 58.0010000  0  7G20G28G17G11G 4G13G23
 114459283.23228  21780876.939          50.000       -2997.920
 117673504.43837  22392523.733          47.000       -3601.763
 112241166.93828  21358784.203          50.000          44.528
 125021985.26128  23790886.374          48.000       -3693.505
 121904189.36528  23197595.935          48.000         669.012
                  25164343.978          27.000        1948.449
 126930911.21427  24154142.023          47.000        1161.507
 07  8 29 13 53 59.0010000  0  7G20G28G17G11G 4G13G23
 114462284.96828  21781449.477          50.000       -3006.604
 117677101.55227  22393208.920          45.000       -3590.797
 112241124.32328  21358777.606          49.000          41.178
 125025683.35027  23791590.679          46.000       -3702.024
 121903518.45328  23197468.271          48.000         672.497
                  25163966.970          29.000        1959.017
 126929750.06427  24153921.522          47.000        1160.071
 07  8 29 13 54  0.0010000  0  7G20G28G17G11G 4G13G23
 114465295.33628  21782022.556          49.000       -3016.501
                  22393891.679          41.000       -3585.087
 112241084.39128  21358770.957          49.000          39.872
 125029392.51637  23792296.795          47.000       -3720.330
 121902841.63727  23197339.788          45.000         681.095
                  25163590.024          24.000        1949.547
 126928592.74836  24153701.978          41.000        1155.063
 07  8 29 13 54  1.0010000  0  7G20G28G17G11G 4G13G23
 114468313.62538  21782597.259          50.000       -3022.720
                  22394572.623          43.000       -3582.604
 112241046.21028  21358763.959          48.000          39.758
                  23793005.011          42.000       -3723.912
                  23197209.472          34.000         687.835
                  25163215.004          27.000        1955.657
 126927438.78737  24153481.666          46.000        1146.703
 07  8 29 13 54  2.0010000  0  7G20G28G17G11G 4G13G23
 114471336.73928  21783172.627          50.000       -3024.048
 117687847.07837  22395252.782          46.000       -3576.116
 112241008.71828  21358757.240          49.000          37.473
 125036806.87136  23793713.262          41.000       -3726.753
 121901465.22136  23197077.584          41.000         688.193
                  25162841.426          26.000        1945.900
 126926290.22937  24153262.841          46.000        1147.410
 07  8 29 13 54  3.0010000  0  7G20G28G17G11G 4G13G23
 114474361.63828  21783748.257          50.000       -3024.955
 117691423.98228  22395933.411          48.000       -3575.041
 112240972.22828  21358750.399          49.000          35.811
 125040537.32437  23794421.548          43.000       -3729.329
 121900776.89236  23196946.358          41.000         687.061
                  25162472.894          26.000        1942.743
 126925142.92836  24153044.765          39.000        1147.060
 07  8 29 13 54  4.0010000  0  7G20G28G17G11G 4G13G23
 114477387.24228  21784323.801          50.000       -3025.000
 117695001.29328  22396615.085          48.000       -3578.032
 112240936.54828  21358743.628          49.000          35.961
 125044265.89737  23795130.725          46.000       -3728.391
 121900089.95127  23196816.004          45.000         685.453
                  25162099.443          24.000        1946.915
 126923994.87135  24152827.058          34.000        1150.040
 07  8 29 13 54  5.0010000  0  6G20G28G17G11G 4G23
                  21784899.746          46.000       -3022.564
 117698579.24337  22397296.235          45.000       -3584.227
 112240901.43528  21358736.770          49.000          34.438
                  23795840.897          37.000       -3727.875
                  23196685.810          41.000         691.256
                  24152608.596          39.000        1143.434
 07  8 29 13 54  6.0010000  0  6G20G28G17G11G 4G23
 114483445.75637  21785475.497          45.000       -3026.063
 117702158.05238  22397977.737          48.000       -3580.041
 112240867.12728  21358730.139          48.000          35.472
                  23796552.342          35.000       -3726.933
 121898719.21436  23196555.016          37.000         678.977
                  24152393.955          38.000        1135.046
 07  8 29 13 54  7.0010000  0  6G20G28G17G11G 4G23
 114486472.47837  21786051.564          47.000       -3026.299
 117705734.15037  22398657.950          44.000       -3569.911
 112240834.365 8  21358723.943          48.000          32.063
                  23797259.445          41.000       -3720.755
 121898035.46936  23196425.396          40.000         679.192
                  24152174.088          38.000        1149.195
 07  8 29 13 54  8.0010000  0  7G20G28G17G11G 4G13G23
 114489498.08737  21786627.280          45.000       -3028.438
 117709308.73238  22399337.351          48.000       -3585.790
 112240801.754 8  21358717.852          49.000          30.216
 125059168.76536  23797968.552          39.000       -3719.612
                  23196296.404          35.000         679.859
                  25160596.299          28.000        1947.680
                  24151953.062          37.000        1145.851
 07  8 29 13 54  9.0010000  0  7G20G28G17G11G 4G13G23
 114492520.73338  21787202.337          48.000       -3021.276
 117712895.54628  22400020.316          48.000       -3588.713
 112240770.133 8  21358711.518          49.000          31.664
                  23798675.883          41.000       -3710.928
                  23196166.277          36.000         677.470
                  25160218.069          28.000        1956.342
                  24151735.057          37.000        1146.998
 07  8 29 13 54 10.0010000  0  6G20G28G17G11G 4G23
 114495541.27528  21787777.446          48.000       -3017.895
                  22400704.572          39.000       -3594.157
 112240739.417 8  21358705.638          49.000          31.891
                  23799382.895          37.000       -3714.534
 121896004.90436  23196038.574          41.000         670.911
                  24151514.210          38.000        1156.491
 07  8 29 13 54 11.0010000  0  7G20G28G17G11G 4G23G 1
 114498559.14028  21788351.768          50.000       -3016.330
                  22401388.912          39.000       -3609.818
 112240709.531 8  21358699.791          49.000          29.804
                  23800088.588          36.000       -3696.316
                  23195912.198          37.000         667.413
 126915899.67836  24151292.699          41.000        1162.094
                  26341713.703          30.000       -2750.032
 07  8 29 13 54 12.0010000  0  7G20G28G17G11G 4G23G 1
 114501574.54828  21788925.462          48.000       -3014.267
                  22402074.152          39.000       -3596.913
 112240679.878 8  21358694.085          49.000          31.241
 125074018.62436  23800794.431          37.000       -3699.221
                  23195785.909          41.000         663.298
 126914739.50827  24151071.308          47.000        1161.302
                  26342240.195          33.000       -2747.409
 07  8 29 13 54 13.0010000  0  7G20G28G17G11G 4G23G 1
 114504588.14437  21789499.155          45.000       -3014.292
                  22402759.455          39.000       -3601.657
 112240650.180 8  21358688.797          49.000          30.210
 125077724.06436  23801499.944          38.000       -3696.847
 121894014.08936  23195659.815          38.000         666.098
 126913579.09627  24150850.946          47.000        1160.248
                  26342763.823          31.000       -2747.089
 07  8 29 13 54 14.0010000  0  7G20G28G17G11G 4G23G 1
 114507599.13437  21790071.994          45.000       -3012.823
 117730907.79537  22403446.920          46.000       -3610.302
 112240619.502 8  21358683.126          50.000          30.314
                  23802201.339          40.000       -3696.058
                  23195535.777          36.000         661.919
 126912420.33228  24150631.020          48.000        1156.042
                  26343286.894          30.000       -2745.299
 07  8 29 13 54 15.0010000  0  7G20G28G17G11G 4G23G 1
 114510611.48438  21790645.198          50.000       -3014.389
 117734519.64438  22404135.331          48.000       -3611.166
 112240588.025 8  21358677.385          50.000          31.243
 125085104.46638  23802904.126          48.000       -3701.787
 121892701.90837  23195409.961          44.000         661.976
 126911265.46727  24150411.320          47.000        1152.286
                  26343811.061          29.000       -2752.883
 07  8 29 13 54 16.0010000  0  7G20G28G17G11G 4G23G 1
 114513629.26728  21791219.378          48.000       -3020.637
 117738127.81928  22404822.767          48.000       -3605.922
 112240558.206 8  21358671.539          50.000          29.624
 125088809.44736  23803609.410          39.000       -3707.115
 121892039.25428  23195284.460          48.000         664.741
 126910113.63727  24150191.971          45.000        1152.660
                  26344334.842          24.000       -2765.141
 07  8 29 13 54 17.0010000  0  7G20G28G17G11G 4G23G 1
 114516653.59828  21791795.197          50.000       -3028.194
 117741730.00628  22405509.261          49.000       -3599.393
 112240530.397 8  21358666.356          50.000          27.952
 125092525.32937  23804315.877          42.000       -3719.560
 121891371.74728  23195158.315          49.000         671.282
 126908965.59236  24149973.805          41.000        1142.608
                  26344862.643          24.000       -2761.088
 07  8 29 13 54 18.0010000  0  6G20G28G17G11G 4G23
 114519685.81828  21792372.326          50.000       -3035.224
 117745325.25328  22406193.522          50.000       -3591.802
 112240503.724 8  21358661.085          50.000          26.528
 125096250.96528  23805025.276          48.000       -3731.186
 121890696.78228  23195030.687          49.000         679.133
                  24149757.105          38.000        1134.874
 07  8 29 13 54 19.0010000  0  6G20G28G17G11G 4G23
 114522725.79928  21792950.221          48.000       -3045.468
 117748914.68328  22406876.455          50.000       -3587.350
 112240477.138 8  21358655.920          50.000          26.601
 125099988.20237  23805737.327          45.000       -3745.680
 121890012.97528  23194901.192          49.000         685.882
 126906695.68735  24149541.246          31.000        1136.981
 07  8 29 13 54 20.0010000  0  6G20G28G17G11G 4G23
 114525770.61638  21793529.603          49.000       -3045.351
 117752501.17128  22407559.038          49.000       -3586.424
 112240450.173 8  21358650.842          50.000          27.405
 125103732.88438  23806448.912          48.000       -3746.184
 121889322.65827  23194770.597          46.000         694.347
                  24149327.269          33.000        1129.582
 07  8 29 13 54 21.0010000  0  6G20G28G17G11G 4G23
 114528815.82528  21794109.073          49.000       -3044.331
 117756090.40828  22408241.898          49.000       -3591.142
 112240421.874 8  21358645.399          51.000          29.544
 125107479.17127  23807161.439          47.000       -3745.546
 121888630.13737  23194638.970          45.000         693.442
 126904452.05235  24149114.286          31.000        1120.853
