     2.11           OBSERVATION DATA    M (MIXED)           RINEX VERSION / TYPE
teqc  2007Jun25                         20070906 02:02:29UTCPGM / RUN BY / DATE
MSXP|IAx86-PII|bcc32 5.0|MSWin95->XP|486/DX+                COMMENT
-Unknown-                                                   MARKER NAME
-Unknown-           -Unknown-                               OBSERVER / AGENCY
-Unknown-           U-BLOX              -Unknown-           REC # / TYPE / VERS
-Unknown-           -Unknown-                               ANT # / TYPE
        0.0000        0.0000        0.0000                  APPROX POSITION XYZ
        0.0000        0.0000        0.0000                  ANTENNA: DELTA H/E/N
     1     0                                                WAVELENGTH FACT L1/2
     4    L1    C1    S1    D1                              # / TYPES OF OBSERV
 SNR is mapped to RINEX snr flag value [0-9]                COMMENT
  L1 & L2: min(max(int(snr_dBHz/6), 0), 9)                  COMMENT
  2007     8    29    13    23   14.0010000     GPS         TIME OF FIRST OBS
    14                                                      LEAP SECONDS
                                                            END OF HEADER
 07  8 29 13 23 14.0010000  0  9G20G28G17G11G 4G19G 1S37S29
 110033064.343 8  20938598.136          48.000       -1804.410
 112103995.203 8  21332688.163          50.000       -2450.217
 113086414.205 8  21519633.714          52.000         776.564
 118475664.789 8  22545172.358          50.000       -3416.780
 123722287.360 8  23543575.174          49.000        1222.067
 135043412.547 6  25697977.235          38.000       -4019.428
 134416424.527 6  25578590.253          39.000       -1612.253
 197556811.236 7  37593810.369          42.000       -1179.930
 197245742.770 7  37534625.703          42.000       -1181.429
 07  8 29 13 23 15.0010000  0  9G20G28G17G11G 4G19G 1S37S29
 110034868.581 8  20938941.556          48.000       -1804.576
 112106446.196 8  21333154.625          50.000       -2451.045
 113085637.901 8  21519486.050          52.000         776.257
 118479081.452 8  22545822.466          50.000       -3416.487
 123721065.672 8  23543342.667          49.000        1222.153
 135047432.675 6  25698742.165          38.000       -4019.963
 134418036.719 6  25578897.045          39.000       -1612.563
 197557990.588 7  37594034.674          43.000       -1179.256
 197246924.385 7  37534850.479          42.000       -1182.058
 07  8 29 13 23 16.0010000  0  9G20G28G17G11G 4G19G 1S37S29
 110036673.282 8  20939284.942          48.000       -1804.928
 112108897.646 8  21333621.121          50.000       -2451.547
 113084861.685 8  21519338.351          52.000         776.386
 118482498.039 8  22546472.696          50.000       -3416.369
 123719844.018 8  23543110.038          49.000        1222.189
 135051452.770 6  25699506.712          38.000       -4020.538
 134419649.264 6  25579203.803          39.000       -1612.591
 197559169.653 7  37594258.910          42.000       -1178.186
 197248105.869 7  37535075.361          42.000       -1179.759
 07  8 29 13 23 17.0010000  0  9G20G28G17G11G 4G19G 1S37S29
 110038478.528 8  20939628.414          48.000       -1805.230
 112111349.620 8  21334087.775          50.000       -2452.156
 113084085.634 8  21519190.600          52.000         776.332
 118485914.658 8  22547122.559          50.000       -3416.120
 123718622.479 8  23542877.706          49.000        1221.663
 135055472.909 6  25700271.764          37.000       -4020.274
 134421262.244 6  25579510.595          39.000       -1612.374
 197560348.811 7  37594483.267          43.000       -1178.829
 197249287.247 7  37535300.172          42.000       -1182.026
 07  8 29 13 23 18.0010000  0  9G20G28G17G11G 4G19G 1S37S29
 110040284.280 8  20939971.904          48.000       -1805.805
 112113802.094 8  21334554.498          50.000       -2452.163
 113083309.711 8  21519043.006          52.000         776.002
 118489331.272 8  22547772.719          50.000       -3416.569
 123717401.023 8  23542645.164          49.000        1221.852
 135059493.064 6  25701037.061          37.000       -4020.933
 134422875.671 6  25579818.207          39.000       -1613.010
 197561527.965 7  37594707.589          44.000       -1179.172
 197250468.207 7  37535525.001          43.000       -1179.642
 07  8 29 13 23 19.0010000  0  9G20G28G17G11G 4G19G 1S37S29
 110042090.694 8  20940315.725          48.000       -1806.524
 112116255.191 8  21335021.152          50.000       -2453.203
 113082534.068 8  21518894.976          52.000         776.117
 118492748.007 8  22548422.879          50.000       -3416.538
 123716179.798 8  23542412.797          49.000        1221.858
 135063513.373 6  25701801.625          37.000       -4020.872
 134424489.653 6  25580125.732          39.000       -1613.580
 197562707.079 7  37594931.860          43.000       -1177.323
 197251649.503 7  37535749.776          42.000       -1182.619
 07  8 29 13 23 20.0010000  0  9G20G28G17G11G 4G19G 1S37S29
 110043897.461 8  20940659.268          48.000       -1806.983
 112118708.636 8  21335487.822          50.000       -2453.925
 113081758.392 8  21518747.486          52.000         775.481
 118496164.594 8  22549073.039          50.000       -3417.233
 123714958.513 8  23542180.133          49.000        1221.270
 135067533.507 6  25702566.415          37.000       -4020.915
 134426103.883 6  25580434.007          40.000       -1614.598
 197563885.968 7  37595156.060          43.000       -1178.380
 197252830.623 7  37535974.536          42.000       -1180.863
 07  8 29 13 23 21.0010000  0  9G20G28G17G11G 4G19G 1S37S29
 110045704.927 8  20941003.368          48.000       -1807.625
 112121162.763 8  21335954.790          50.000       -2453.788
 113080983.030 8  21518599.858          52.000         775.296
 118499581.345 8  22549723.235          50.000       -3416.570
 123713737.475 8  23541947.714          49.000        1221.201
 135071553.871 6  25703331.171          36.000       -4020.157
 134427718.731 6  25580742.545          40.000       -1615.012
 197565064.906 7  37595380.609          43.000       -1178.666
 197254011.428 7  37536199.330          42.000       -1179.253
 07  8 29 13 23 22.0010000  0  9G20G28G17G11G 4G19G 1S37S29
 110047512.850 8  20941347.294          48.000       -1807.861
 112123617.325 8  21336421.967          50.000       -2454.500
 113080207.756 8  21518452.525          52.000         775.159
 118502998.047 8  22550373.517          49.000       -3416.419
 123712516.471 8  23541715.347          49.000        1221.356
 135075574.181 5  25704095.124          35.000       -4020.160
 134429333.931 6  25581051.134          41.000       -1615.143
 197566243.657 7  37595604.845          44.000       -1178.110
 197255192.267 7  37536423.914          43.000       -1180.313
 07  8 29 13 23 23.0010000  0  9G20G28G17G11G 4G19G 1S37S29
 110049321.197 8  20941691.151          48.000       -1808.439
 112126072.295 8  21336889.005          49.000       -2455.087
 113079432.521 8  21518305.158          52.000         775.547
 118506414.661 8  22551023.608          49.000       -3416.041
 123711295.467 8  23541482.805          49.000        1221.139
 135079594.364 6  25704859.305          37.000       -4019.427
 134430949.461 6  25581359.252          41.000       -1615.941
 197567422.298 7  37595829.098          42.000       -1176.662
 197256372.853 6  37536648.830          41.000       -1178.628
 07  8 29 13 23 24.0010000  0  9G20G28G17G11G 4G19G 1S37S29
 110051130.040 8  20942035.321          48.000       -1808.888
 112128527.766 8  21337356.444          50.000       -2455.207
 113078657.412 8  21518157.721          52.000         775.062
 118509831.236 8  22551673.035          49.000       -3416.060
 123710074.545 8  23541250.211          49.000        1221.070
 135083614.596 6  25705623.641          38.000       -4020.469
 134432565.460 6  25581667.127          41.000       -1615.463
 197568600.796 7  37596053.263          43.000       -1179.037
 197257553.107 6  37536873.466          41.000       -1180.433
 07  8 29 13 23 25.0010000  0  9G20G28G17G11G 4G19G 1S37S29
 110052939.439 8  20942379.335          48.000       -1809.541
 112130983.772 8  21337823.638          50.000       -2455.706
 113077882.480 8  21518010.511          53.000         774.975
 118513247.839 8  22552322.916          49.000       -3416.600
 123708853.733 8  23541017.983          49.000        1221.124
 135087634.906 6  25706388.641          40.000       -4020.085
 134434181.850 7  25581975.489          42.000       -1616.553
 197569778.732 7  37596277.464          43.000       -1177.677
 197258733.522 7  37537098.138          42.000       -1180.859
 07  8 29 13 23 26.0010000  0  9G20G28G17G11G 4G19G 1S37S29
 110054749.373 8  20942723.889          48.000       -1809.985
 112133440.295 8  21338291.199          50.000       -2456.789
 113077107.696 8  21517862.760          53.000         774.609
 118516664.470 8  22552973.006          49.000       -3416.270
 123707633.026 8  23540785.634          49.000        1220.736
 135091655.215 6  25707153.659          40.000       -4020.265
 134435798.729 7  25582283.084          42.000       -1617.215
 197570956.596 7  37596501.681          43.000       -1178.411
 197259914.069 7  37537322.862          42.000       -1179.421
 07  8 29 13 23 27.0010000  0  9G20G28G17G11G 4G19G 1S37S29
 110056559.879 8  20943068.461          48.000       -1810.613
 112135897.386 8  21338758.725          50.000       -2457.515
 113076333.116 8  21517715.236          52.000         774.818
 118520081.161 8  22553623.044          49.000       -3416.668
 123706412.501 8  23540553.179          49.000        1220.380
 135095675.596 6  25707918.589          40.000       -4020.702
 134437416.083 6  25582590.784          41.000       -1617.214
 197572134.576 7  37596725.830          42.000       -1175.699
 197261094.412 7  37537547.534          42.000       -1179.854
 07  8 29 13 23 28.0010000  0  9G20G28G17G11G 4G19G 1S37S29
 110058370.970 8  20943413.242          48.000       -1810.945
 112138355.028 8  21339226.181          50.000       -2457.887
 113075558.735 8  21517567.781          52.000         774.445
 118523497.918 8  22554273.309          48.000       -3416.413
 123705192.108 8  23540320.760          49.000        1220.561
 135099696.093 6  25708683.432          40.000       -4020.014
 134439033.933 6  25582898.588          41.000       -1617.747
 197573312.699 7  37596950.013          44.000       -1177.229
 197262275.140 7  37537772.274          43.000       -1181.932
 07  8 29 13 23 29.0010000  0  9G20G28G17G11G 4G19G 1S37S29
 110060182.578 7  20943757.744          47.000       -1811.834
 112140813.187 8  21339693.934          50.000       -2457.896
 113074784.502 8  21517420.519          53.000         774.366
 118526914.681 8  22554923.365          48.000       -3416.171
 123703971.803 8  23540088.585          49.000        1221.176
 135103716.584 6  25709448.659          40.000       -4020.373
 134440652.190 7  25583206.846          42.000       -1617.933
 197574490.607 7  37597174.283          42.000       -1177.410
 197263455.648 7  37537996.963          43.000       -1182.226
 07  8 29 13 23 30.0010000  0  9G20G28G17G11G 4G19G 1S37S29
 110061994.407 8  20944102.560          48.000       -1812.066
 112143271.534 8  21340161.617          50.000       -2458.553
 113074010.104 8  21517273.274          52.000         774.557
 118530331.146 8  22555573.420          48.000       -3416.291
 123702751.284 8  23539856.444          49.000        1220.690
 135107736.811 6  25710213.991          39.000       -4019.429
 134442270.590 6  25583515.051          41.000       -1618.765
 197575668.223 7  37597398.344          43.000       -1175.993
 197264635.193 7  37538221.532          42.000       -1177.519
 07  8 29 13 23 31.0010000  0  9G20G28G17G11G 4G19G 1S37S29
 110063806.841 7  20944447.359          47.000       -1812.637
 112145730.475 8  21340629.527          49.000       -2458.816
 113073235.932 8  21517125.628          52.000         774.132
 118533747.699 8  22556223.493          48.000       -3416.798
 123701530.968 8  23539624.286          48.000        1220.110
 135111757.132 6  25710979.602          39.000       -4020.086
 134443889.547 6  25583823.187          41.000       -1618.810
 197576845.966 7  37597622.265          43.000       -1177.786
 197265814.825 7  37538446.150          42.000       -1180.949
 07  8 29 13 23 32.0010000  0  9G20G28G17G11G 4G19G 1S37S29
 110065619.788 8  20944792.646          48.000       -1813.201
 112148189.901 8  21341097.263          49.000       -2459.764
 113072461.887 8  21516978.243          52.000         774.228
 118537164.225 8  22556873.514          48.000       -3416.486
 123700310.707 8  23539391.989          48.000        1220.583
 135115777.463 6  25711745.160          40.000       -4020.369
 134445508.889 6  25584131.183          41.000       -1619.455
 197578023.098 7  37597846.134          43.000       -1176.957
 197266994.683 7  37538670.490          42.000       -1180.184
 07  8 29 13 23 33.0010000  0  9G20G28G17G11G 4G19G 1S37S29
 110067433.181 8  20945137.916          48.000       -1813.825
 112150649.757 8  21341565.399          49.000       -2460.203
 113071687.907 8  21516830.963          52.000         774.139
 118540580.674 8  22557523.500          48.000       -3416.724
 123699090.463 8  23539159.360          48.000        1220.268
 135119797.734 6  25712510.544          39.000       -4020.764
 134447128.584 6  25584439.337          41.000       -1619.346
 197579200.097 7  37598070.195          42.000       -1177.260
 197268174.161 6  37538894.935          41.000       -1178.069
 07  8 29 13 23 34.0010000  0  9G20G28G17G11G 4G19G 1S37S29
 110069247.114 8  20945483.220          48.000       -1814.200
 112153110.142 8  21342033.589          49.000       -2460.204
 113070914.093 8  21516683.823          52.000         773.815
 118543997.172 8  22558173.520          48.000       -3416.169
 123697870.356 8  23538927.150          48.000        1220.113
 135123818.077 6  25713275.544          39.000       -4020.430
 134448748.747 6  25584747.838          40.000       -1621.082
 197580377.058 6  37598294.011          41.000       -1177.756
 197269353.524 6  37539119.361          41.000       -1182.439
 07  8 29 13 23 35.0010000  0  9G20G28G17G11G 4G19G 1S37S29
 110071061.515 7  20945828.455          47.000       -1814.581
 112155570.990 8  21342502.092          49.000       -2460.736
 113070140.367 8  21516536.474          52.000         774.105
 118547413.604 8  22558823.366          48.000       -3416.300
 123696650.261 8  23538694.696          48.000        1220.165
 135127838.359 6  25714041.051          39.000       -4019.307
 134450369.301 6  25585056.062          39.000       -1620.553
 197581553.787 7  37598517.880          43.000       -1176.810
 197270532.815 7  37539343.825          42.000       -1178.716
 07  8 29 13 23 36.0010000  0  9G20G28G17G11G 4G19G 1S37S29
 110072876.472 8  20946174.179          48.000       -1814.763
 112158032.349 8  21342970.194          49.000       -2461.358
 113069366.801 8  21516389.194          52.000         773.840
 118550830.075 8  22559473.474          48.000       -3416.165
 123695430.287 8  23538462.625          48.000        1220.033
 135131858.735 6  25714805.545          36.000       -4019.540
 134451990.301 6  25585363.394          38.000       -1622.278
 197582730.423 7  37598741.872          43.000       -1175.308
 197271711.726 7  37539568.321          42.000       -1178.962
 07  8 29 13 23 37.0010000  0  9G20G28G17G11G 4G19G 1S37S29
 110074691.826 8  20946519.606          48.000       -1815.744
 112160494.117 8  21343438.523          49.000       -2461.821
 113068593.268 8  21516241.879          52.000         773.888
 118554246.419 8  22560123.443          48.000       -3416.221
 123694210.301 7  23538230.485          47.000        1220.173
 135135879.033 5  25715570.179          35.000       -4018.900
 134453611.670 6  25585670.798          37.000       -1620.154
 197583907.092 7  37598965.635          43.000       -1176.386
 197272890.686 7  37539792.661          42.000       -1180.278
 07  8 29 13 23 38.0010000  0  9G20G28G17G11G 4G19G 1S37S29
 110076507.808 8  20946865.277          48.000       -1815.684
 112162956.479 8  21343907.288          49.000       -2462.252
 113067819.988 8  21516094.965          52.000         773.290
 118557662.889 8  22560773.428          49.000       -3416.184
 123692990.525 8  23537998.188          48.000        1219.891
 135139899.260 6  25716334.533          36.000       -4019.785
 134455233.530 6  25585978.532          38.000       -1621.981
 197585083.915 7  37599189.609          42.000       -1177.091
 197274069.564 7  37540016.897          42.000       -1177.713
 07  8 29 13 23 39.0010000  0  9G20G28G17G11G 4G19G 1S37S29
 110078324.291 8  20947211.018          48.000       -1816.498
 112165419.343 8  21344376.105          50.000       -2463.173
 113067046.829 8  21515947.685          53.000         773.358
 118561079.327 8  22561423.641          48.000       -3416.397
 123691770.821 7  23537765.716          47.000        1219.276
 135143919.680 5  25717098.800          35.000       -4020.443
 134456855.819 6  25586285.463          36.000       -1624.028
 197586260.600 7  37599413.583          42.000       -1176.178
 197275248.067 7  37540241.202          42.000       -1178.323
 07  8 29 13 23 40.0010000  0  9G20G28G17G11G 4G19G 1S37S29
 110080141.419 8  20947556.881          49.000       -1816.860
 112167882.796 8  21344844.713          49.000       -2463.658
 113066273.941 8  21515800.388          51.000         772.948
 118564495.869 8  22562073.906          48.000       -3416.300
 123690551.326 7  23537533.331          45.000        1219.885
 135147940.094 5  25717862.910          33.000       -4021.187
 134458478.643 6  25586594.105          38.000       -1624.758
 197587437.165 7  37599637.434          43.000       -1175.892
 197276426.768 6  37540465.489          41.000       -1179.059
 07  8 29 13 23 41.0010000  0  9G20G28G17G11G 4G19G 1S37S29
 110081958.949 8  20947902.901          48.000       -1817.644
 112170346.706 8  21345313.547          50.000       -2464.366
 113065501.085 8  21515653.352          52.000         772.738
 118567912.362 8  22562724.258          48.000       -3416.204
 123689331.825 7  23537301.226          47.000        1219.192
 135151960.607 6  25718627.945          36.000       -4020.211
 134460101.808 6  25586902.748          38.000       -1622.971
 197588613.641 7  37599861.128          44.000       -1177.713
 197277605.305 7  37540689.742          42.000       -1179.147
 07  8 29 13 23 42.0010000  0  9G20G28G17G11G 4G19G 1S37S29
 110083776.952 8  20948248.852          49.000       -1817.983
 112172811.034 8  21345782.609          50.000       -2464.157
 113064728.323 8  21515506.526          53.000         772.988
 118571328.772 8  22563374.348          49.000       -3415.966
 123688112.385 7  23537068.667          47.000        1220.130
 135155981.032 6  25719393.800          39.000       -4019.088
 134461725.353 6  25587211.215          38.000       -1624.389
 197589789.869 7  37600085.014          43.000       -1176.780
 197278783.791 7  37540913.855          42.000       -1178.984
 07  8 29 13 23 43.0010000  0  9G20G28G17G11G 4G19G 1S37S29
 110085595.628 8  20948594.732          49.000       -1818.726
 112175275.991 8  21346251.584          50.000       -2465.265
 113063955.837 8  21515359.525          53.000         772.452
 118574745.315 8  22564024.421          49.000       -3416.379
 123686893.149 8  23536836.544          48.000        1219.081
 135160001.568 6  25720159.323          38.000       -4020.549
 134463349.460 6  25587520.363          39.000       -1624.072
 197590965.866 7  37600308.831          43.000       -1177.462
 197279962.057 7  37541138.248          42.000       -1177.966
 07  8 29 13 23 44.0010000  0  9G20G28G17G11G 4G19G 1S37S29
 110087414.700 8  20948940.805          49.000       -1819.181
 112177741.350 8  21346720.959          50.000       -2465.628
 113063183.383 8  21515212.403          52.000         772.669
 118578161.752 8  22564674.302          49.000       -3416.194
 123685673.924 8  23536604.090          48.000        1219.657
 135164021.993 6  25720924.795          38.000       -4020.982
 134464973.887 6  25587829.545          39.000       -1625.127
 197592141.692 7  37600532.543          43.000       -1174.998
 197281140.114 7  37541362.361          42.000       -1178.797
 07  8 29 13 23 45.0010000  0  9G20G28G17G11G 4G19G 1S37S29
 110089234.361 8  20949286.860          48.000       -1819.948
 112180207.276 8  21347190.283          49.000       -2465.789
 113062411.144 8  21515065.385          52.000         772.696
 118581578.256 8  22565324.428          49.000       -3416.406
 123684454.831 7  23536371.862          47.000        1219.002
 135168042.638 5  25721689.271          35.000       -4020.308
 134466598.792 6  25588138.902          39.000       -1625.938
 197593317.303 7  37600756.202          42.000       -1176.507
 197282318.078 7  37541586.527          42.000       -1177.466
 07  8 29 13 23 46.0010000  0  9G20G28G17G11G 4G19G 1S37S29
 110091054.579 8  20949633.456          48.000       -1820.613
 112182673.726 8  21347659.519          49.000       -2466.702
 113061639.071 8  21514918.454          52.000         772.002
 118584994.804 8  22565974.518          49.000       -3416.549
 123683235.870 7  23536139.512          46.000        1218.564
 135172063.234 5  25722453.818          35.000       -4019.990
 134468224.172 6  25588448.207          39.000       -1626.805
 197594492.914 7  37600980.019          43.000       -1175.182
 197283495.595 7  37541810.658          42.000       -1177.212
 07  8 29 13 23 47.0010000  0  9G20G28G17G11G 4G19G 1S37S29
 110092875.364 8  20949979.930          48.000       -1820.807
 112185140.732 8  21348128.528          49.000       -2467.153
 113060867.190 8  21514771.715          52.000         771.966
 118588411.390 8  22566624.940          48.000       -3416.333
 123682017.047 7  23535907.617          46.000        1219.191
 135176083.869 5  25723219.481          34.000       -4020.606
 134469850.008 6  25588757.705          39.000       -1625.601
 197595668.581 7  37601203.731          44.000       -1175.760
 197284673.481 7  37542034.736          43.000       -1176.501
 07  8 29 13 23 48.0010000  0  9G20G28G17G11G 4G19G 1S37S29
 110094696.458 8  20950326.473          48.000       -1821.316
 112187608.035 8  21348597.991          49.000       -2467.301
 113060095.232 8  21514624.819          52.000         771.692
 118591827.762 8  22567274.978          49.000       -3416.182
 123680798.119 7  23535675.232          46.000        1218.611
 135180104.333 5  25723984.412          34.000       -4018.460
 134471476.093 6  25589067.079          39.000       -1626.487
 197596844.060 7  37601427.512          44.000       -1175.419
 197285851.235 7  37542258.814          43.000       -1177.548
 07  8 29 13 23 49.0010000  0  9G20G28G17G11G 4G19G 1S37S29
 110096518.257 8  20950673.122          49.000       -1821.676
 112190076.016 8  21349067.454          49.000       -2467.866
 113059323.616 8  21514478.237          52.000         771.502
 118595244.326 8  22567925.243          49.000       -3416.678
 123679579.483 7  23535443.144          47.000        1218.351
 135184125.050 5  25724749.412          35.000       -4019.441
 134473102.778 6  25589376.629          39.000       -1626.806
 197598019.621 7  37601651.172          43.000       -1175.513
 197287028.989 7  37542482.997          42.000       -1177.361
 07  8 29 13 23 50.0010000  0  9G20G28G17G11G 4G19G 1S37S29
 110098340.485 8  20951019.927          48.000       -1822.256
 112192544.405 8  21349537.266          49.000       -2468.594
 113058552.028 8  21514331.131          52.000         771.299
 118598660.797 8  22568575.298          49.000       -3416.334
 123678360.837 7  23535210.759          46.000        1218.515
 135188145.624 5  25725515.685          35.000       -4021.103
 134474729.821 6  25589686.126          39.000       -1626.359
 197599194.709 7  37601874.866          43.000       -1176.002
 197288206.699 7  37542707.023          42.000       -1178.103
 07  8 29 13 23 51.0010000  0  9G20G28G17G11G 4G19G 1S37S29
 110100163.314 8  20951366.680          48.000       -1822.688
 112195013.377 8  21350007.183          49.000       -2468.763
 113057780.676 8  21514184.323          52.000         771.588
 118602077.328 8  22569225.651          49.000       -3416.194
 123677142.350 7  23534978.427          46.000        1218.770
 135192166.330 6  25726281.628          37.000       -4020.111
 134476357.327 6  25589995.954          39.000       -1627.595
 197600369.907 7  37602098.526          42.000       -1175.243
 197289384.315 7  37542931.153          42.000       -1179.037
 07  8 29 13 23 52.0010000  0  9G20G28G17G11G 4G19G 1S37S29
 110101986.804 8  20951713.486          48.000       -1823.415
 112197483.010 8  21350476.803          49.000       -2469.326
 113057009.621 8  21514037.584          52.000         771.366
 118605494.025 8  22569875.846          48.000       -3416.307
 123675924.088 7  23534746.060          45.000        1218.430
 135196187.207 6  25727046.942          37.000       -4021.421
 134477985.460 6  25590305.521          40.000       -1627.559
 197601545.331 7  37602322.098          43.000       -1174.658
 197290561.783 7  37543155.092          42.000       -1176.850
 07  8 29 13 23 53.0010000  0  9G20G28G17G11G 4G19G 1S37S29
 110103810.740 8  20952060.396          48.000       -1824.039
 112199953.073 8  21350946.947          49.000       -2470.115
 113056238.644 8  21513890.635          52.000         771.109
 118608910.672 8  22570526.495          48.000       -3416.401
 123674705.882 7  23534513.623          45.000        1218.175
 135200208.078 6  25727813.618          36.000       -4019.413
 134479613.985 6  25590615.436          40.000       -1628.622
 197602720.282 6  37602545.565          41.000       -1175.301
 197291738.981 6  37543379.310          41.000       -1177.887
 07  8 29 13 23 54.0010000  0  9G20G28G17G11G 4G19G 1S37S29
 110105635.139 8  20952407.184          48.000       -1824.946
 112202423.577 8  21351417.073          49.000       -2471.010
 113055467.733 8  21513743.722          51.000         770.872
 118612327.247 8  22571177.178          49.000       -3416.571
 123673487.649 7  23534281.360          45.000        1217.856
 135204228.845 6  25728579.350          37.000       -4021.298
 134481242.818 6  25590924.916          38.000       -1629.124
 197603894.978 7  37602769.138          44.000       -1173.698
 197292916.140 7  37543603.126          42.000       -1177.848
 07  8 29 13 23 55.0010000  0  9G20G28G17G11G 4G19G 1S37S29
 110107460.182 8  20952754.652          48.000       -1825.443
 112204894.731 8  21351887.251          49.000       -2471.015
 113054697.130 8  21513596.931          52.000         770.609
 118615743.938 8  22571827.321          49.000       -3416.555
 123672269.663 7  23534049.395          46.000        1217.776
 135208249.760 6  25729344.508          36.000       -4020.113
 134482872.291 6  25591234.151          39.000       -1629.604
 197605069.400 7  37602992.640          43.000       -1174.843
 197294093.315 7  37543827.205          42.000       -1177.279
 07  8 29 13 23 56.0010000  0  9G20G28G17G11G 4G19G 1S37S29
 110109285.799 8  20953101.964          48.000       -1825.415
 112207366.413 8  21352357.936          49.000       -2471.760
 113053926.676 8  21513450.366          52.000         770.810
 118619160.662 8  22572477.568          49.000       -3416.670
 123671051.831 7  23533817.569          46.000        1217.869
 135212270.720 6  25730109.927          37.000       -4019.833
 134484502.209 6  25591544.852          39.000       -1629.025
 197606243.904 7  37603215.951          43.000       -1173.812
 197295270.441 7  37544051.319          42.000       -1175.065
 07  8 29 13 23 57.0010000  0  9G20G28G17G11G 4G19G 1S37S29
 110111111.833 8  20953449.799          49.000       -1826.216
 112209838.509 8  21352828.237          49.000       -2472.037
 113053156.294 8  21513303.470          51.000         770.496
 118622577.320 8  22573127.990          49.000       -3416.678
 123669833.994 7  23533585.690          46.000        1217.574
 135216291.641 6  25730874.996          38.000       -4021.681
 134486132.480 6  25591854.576          39.000       -1630.187
 197607418.127 7  37603439.296          42.000       -1173.850
 197296447.342 7  37544275.414          42.000       -1176.700
 07  8 29 13 23 58.0010000  0  9G20G28G17G11G 4G19G 1S37S29
 110112938.518 8  20953797.337          49.000       -1826.748
 112212311.238 8  21353298.799          50.000       -2472.777
 113052386.159 8  21513157.098          52.000         770.441
 118625994.110 8  22573777.487          48.000       -3416.745
 123668616.383 7  23533353.812          46.000        1217.908
 135220312.738 6  25731640.450          38.000       -4019.840
 134487763.203 6  25592164.962          39.000       -1631.568
 197608592.350 7  37603662.781          44.000       -1174.505
 197297623.884 7  37544499.405          43.000       -1177.389
 07  8 29 13 23 59.0010000  0  9G20G28G17G11G 4G19G 1S37S29
 110114765.655 8  20954144.858          48.000       -1827.098
 112214784.403 8  21353769.797          50.000       -2473.245
 113051616.113 8  21513010.847          52.000         770.012
 118629410.796 8  22574427.752          49.000       -3416.656
 123667398.783 7  23533122.439          46.000        1217.665
 135224333.736 6  25732406.671          38.000       -4021.374
 134489394.405 5  25592474.913          33.000       -1630.664
 197609766.524 7  37603886.109          42.000       -1172.944
 197298800.305 6  37544723.082          41.000       -1176.104
 07  8 29 13 24  0.0010000  0  9G20G28G17G11G 4G19G 1S37S29
 110116593.210 8  20954492.274          48.000       -1827.645
 112217257.952 8  21354240.534          50.000       -2474.018
 113050846.116 8  21512864.248          52.000         769.945
 118632827.415 8  22575078.174          49.000       -3416.842
 123666181.177 7  23532890.717          46.000        1217.195
 135228354.679 6  25733171.933          39.000       -4020.715
 134491025.865 5  25592785.667          34.000       -1630.320
 197610940.598 7  37604109.455          44.000       -1173.131
 197299976.318 7  37544946.899          43.000       -1175.848
 07  8 29 13 24  1.0010000  0  9G20G28G17G11G 4G19G 1S37S29
 110118421.382 8  20954840.406          48.000       -1828.000
 112219732.119 8  21354711.289          50.000       -2474.125
 113050076.362 8  21512717.876          52.000         769.959
 118636244.128 8  22575728.177          49.000       -3416.671
 123664963.781 7  23532658.944          45.000        1217.764
 135232375.765 6  25733938.033          39.000       -4020.724
 134492657.915 5  25593096.367          35.000       -1633.038
 197612114.738 7  37604332.974          43.000       -1173.575
 197301152.552 7  37545170.680          42.000       -1177.293
 07  8 29 13 24  2.0010000  0  9G20G28G17G11G 4G19G 1S37S29
 110120250.083 8  20955187.996          48.000       -1829.336
 112222206.782 8  21355182.287          50.000       -2474.563
 113049306.756 8  21512571.102          52.000         769.788
 118639660.841 8  22576378.442          49.000       -3416.733
 123663746.478 7  23532427.153          45.000        1218.151
 135236396.841 6  25734703.713          38.000       -4021.529
 134494290.351 6  25593406.440          36.000       -1631.542
 197613288.592 7  37604556.494          43.000       -1173.801
 197302328.736 7  37545394.427          42.000       -1174.396
 07  8 29 13 24  3.0010000  0  9G20G28G17G11G 4G19G 1S37S29
 110122079.268 8  20955536.268          48.000       -1829.263
 112224681.907 8  21355653.303          50.000       -2475.525
 113048537.261 8  21512424.747          52.000         769.598
 118643077.521 8  22577028.672          49.000       -3416.903
 123662529.208 7  23532195.379          46.000        1217.245
 135240417.905 6  25735468.731          38.000       -4021.832
 134495923.283 6  25593718.380          38.000       -1631.840
 197614462.491 7  37604780.101          43.000       -1173.583
 197303505.135 7  37545618.365          42.000       -1175.988
 07  8 29 13 24  4.0010000  0  9G20G28G17G11G 4G19G 1S37S29
 110123909.005 8  20955884.277          48.000       -1830.036
 112227157.600 8  21356124.354          50.000       -2475.921
 113047767.947 8  21512277.781          52.000         769.366
 118646494.246 8  22577679.060          49.000       -3416.508
 123661312.093 7  23531963.448          46.000        1217.961
 135244438.974 6  25736233.452          38.000       -4021.631
 134497556.578 6  25594029.378          39.000       -1632.947
 197615636.190 7  37605003.376          42.000       -1174.888
 197304681.319 7  37545842.042          43.000       -1176.015
 07  8 29 13 24  5.0010000  0  9G20G28G17G11G 4G19G 1S37S29
 110125739.182 8  20956232.688          48.000       -1830.804
 112229633.695 8  21356595.650          50.000       -2476.248
 113046998.683 8  21512131.793          52.000         769.727
 118649910.898 8  22578329.237          49.000       -3416.198
 123660094.961 7  23531732.093          46.000        1217.357
 135248459.989 6  25736998.853          39.000       -4020.849
 134499190.286 6  25594340.236          40.000       -1633.294
 197616809.786 7  37605226.775          42.000       -1173.602
 197305857.586 7  37546066.016          42.000       -1175.888
 07  8 29 13 24  6.0010000  0  9G20G28G17G11G 4G19G 1S37S29
 110127569.926 8  20956581.203          48.000       -1831.361
 112232110.335 8  21357067.242          50.000       -2476.398
 113046229.600 8  21511985.367          52.000         768.744
 118653327.567 8  22578979.676          49.000       -3417.263
 123658877.994 7  23531500.650          46.000        1216.975
 135252481.092 6  25737763.661          41.000       -4021.310
 134500824.418 6  25594651.094          40.000       -1634.655
 197617983.507 7  37605450.120          44.000       -1172.416
 197307033.169 7  37546289.519          43.000       -1174.255
 07  8 29 13 24  7.0010000  0  9G20G28G17G11G 4G19G 1S37S29
 110129401.222 8  20956930.086          48.000       -1831.642
 112234587.531 8  21357538.589          49.000       -2477.099
 113045460.711 8  21511839.030          52.000         769.252
 118656744.302 8  22579629.767          49.000       -3416.550
 123657661.149 7  23531268.999          46.000        1217.533
 135256502.189 6  25738528.766          41.000       -4021.767
 134502459.069 6  25594962.266          40.000       -1634.320
 197619157.141 7  37605673.587          43.000       -1173.850
 197308208.659 7  37546513.247          42.000       -1176.530
 07  8 29 13 24  8.0010000  0  9G20G28G17G11G 4G19G 1S37S29
 110131233.018 8  20957278.427          48.000       -1831.753
 112237065.223 8  21358009.867          50.000       -2478.097
 113044691.948 8  21511692.745          52.000         768.572
 118660160.999 8  22580280.032          49.000       -3416.840
 123656444.402 7  23531037.085          46.000        1216.658
 135260523.347 7  25739293.644          42.000       -4022.090
 134504094.060 6  25595273.316          40.000       -1635.405
 197620330.461 7  37605896.898          43.000       -1173.994
 197309384.050 6  37546737.047          41.000       -1176.079
 07  8 29 13 24  9.0010000  0  9G20G28G17G11G 4G19G 1S37S29
 110133065.399 8  20957626.803          48.000       -1832.123
 112239543.478 8  21358481.616          49.000       -2478.514
 113043923.383 8  21511546.634          52.000         768.898
 118663577.767 8  22580930.332          49.000       -3416.534
 123655227.761 7  23530805.067          45.000        1216.628
 135264544.582 7  25740058.505          42.000       -4021.068
 134505729.575 6  25595584.540          40.000       -1636.311
 197621503.720 7  37606120.156          42.000       -1173.476
 197310559.496 6  37546960.759          41.000       -1174.983
 07  8 29 13 24 10.0010000  0  9G20G28G17G11G 4G19G 1S37S29
 110134898.264 8  20957975.667          48.000       -1833.109
 112242022.194 8  21358953.190          49.000       -2479.105
 113043154.946 8  21511400.349          52.000         768.580
 118666994.496 8  22581580.649          49.000       -3416.367
 123654011.229 7  23530573.660          45.000        1216.610
 135268565.806 7  25740823.191          42.000       -4020.865
 134507365.509 6  25595895.294          40.000       -1636.010
 197622676.869 7  37606343.414          43.000       -1174.071
 197311735.190 6  37547184.365          41.000       -1176.396
 07  8 29 13 24 11.0010000  0  9G20G28G17G11G 4G19G 1S37S29
 110136731.741 8  20958324.636          48.000       -1833.667
 112244501.517 8  21359424.730          49.000       -2479.449
 113042386.750 8  21511253.837          52.000         768.062
 118670411.331 8  22582230.669          49.000       -3417.139
 123652794.907 7  23530342.218          45.000        1216.786
 135272587.134 7  25741588.173          43.000       -4021.022
 134509001.971 6  25596206.605          40.000       -1636.792
 197623850.183 7  37606566.934          44.000       -1173.602
 197312911.248 7  37547408.095          43.000       -1176.287
 07  8 29 13 24 12.0010000  0  9G20G28G17G11G 4G19G 1S37S29
 110138565.686 8  20958673.868          48.000       -1833.623
 112246981.291 8  21359896.601          49.000       -2479.422
 113041618.637 8  21511107.586          52.000         768.391
 118673828.126 8  22582880.586          49.000       -3416.498
 123651578.607 7  23530111.020          45.000        1216.385
 135276608.529 7  25742353.400          44.000       -4020.377
 134510638.786 6  25596518.476          39.000       -1636.237
 197625023.217 7  37606790.210          44.000       -1171.813
 197314086.947 7  37547632.190          43.000       -1176.255
 07  8 29 13 24 13.0010000  0  9G20G28G17G11G 4G19G 1S37S29
 110140400.010 8  20959022.924          48.000       -1834.540
 112249461.429 8  21360368.281          49.000       -2479.916
 113040850.546 8  21510961.615          52.000         768.501
 118677244.773 8  22583530.746          49.000       -3416.454
 123650362.268 7  23529879.560          45.000        1217.033
 135280629.747 7  25743119.343          44.000       -4021.182
 134512275.926 6  25596829.979          40.000       -1637.426
 197626195.793 7  37607013.485          43.000       -1172.367
 197315261.952 7  37547855.624          42.000       -1173.584
 07  8 29 13 24 14.0010000  0  9G20G28G17G11G 4G19G 1S37S29
 110142235.024 8  20959372.190          48.000       -1835.328
 112251942.206 8  21360840.309          49.000       -2481.197
 113040082.742 8  21510815.365          52.000         767.869
 118680661.580 8  22584180.871          49.000       -3416.564
 123649146.155 7  23529648.135          46.000        1216.004
 135284651.070 7  25743885.093          44.000       -4022.196
 134513913.655 6  25597141.605          39.000       -1638.652
 197627368.776 7  37607236.690          42.000       -1174.287
 197316437.183 7  37548079.405          42.000       -1174.824
 07  8 29 13 24 15.0010000  0  9G20G28G17G11G 4G19G 1S37S29
 110144070.522 8  20959721.334          48.000       -1835.718
 112254423.474 8  21361312.581          50.000       -2481.249
 113039315.075 8  21510669.237          52.000         768.241
 118684078.365 8  22584830.839          49.000       -3416.686
 123647930.108 7  23529416.920          46.000        1215.906
 135288672.465 7  25744650.372          43.000       -4021.359
 134515551.770 6  25597453.562          39.000       -1638.828
 197628541.755 7  37607460.105          43.000       -1174.989
 197317611.919 7  37548302.942          42.000       -1174.831
 07  8 29 13 24 16.0010000  0  9G20G28G17G11G 4G19G 1S37S29
 110145906.516 8  20960070.966          48.000       -1835.827
 112256905.220 8  21361785.011          50.000       -2481.994
 113038547.524 8  21510523.545          52.000         767.776
 118687495.149 8  22585480.720          49.000       -3416.931
 123646714.144 7  23529185.617          46.000        1216.030
 135292693.904 6  25745415.983          40.000       -4021.635
 134517190.293 6  25597765.799          39.000       -1638.577
 197629714.430 7  37607683.277          42.000       -1172.942
 197318786.786 6  37548526.497          41.000       -1174.966
 07  8 29 13 24 17.0010000  0  9G20G28G17G11G 4G19G 1S37S29
 110147743.089 8  20960420.459          48.000       -1836.661
 112259387.517 8  21362257.475          50.000       -2482.701
 113037780.166 8  21510377.382          52.000         767.132
 118690911.962 8  22586130.933          48.000       -3416.507
 123645498.356 7  23528953.913          46.000        1216.411
 135296715.227 6  25746181.001          41.000       -4020.849
 134518829.322 6  25598077.616          40.000       -1639.764
 197630886.681 7  37607906.378          42.000       -1172.623
 197319961.445 6  37548750.122          41.000       -1173.715
 07  8 29 13 24 18.0010000  0  9G20G28G17G11G 4G19G 1S37S29
 110149580.206 8  20960770.126          48.000       -1837.559
 112261870.338 8  21362729.852          50.000       -2483.288
 113037013.006 8  21510231.515          52.000         767.014
 118694328.823 8  22586780.726          48.000       -3416.907
 123644282.678 7  23528722.732          46.000        1215.382
 135300736.726 6  25746945.949          39.000       -4020.694
 134520468.809 6  25598389.679          39.000       -1639.144
 197632059.009 7  37608129.566          44.000       -1173.137
 197321135.921 7  37548973.694          42.000       -1173.774
 07  8 29 13 24 19.0010000  0  9G20G28G17G11G 4G19G 1S37S29
 110151417.908 8  20961119.601          48.000       -1837.624
 112264353.720 8  21363202.247          49.000       -2483.375
 113036246.028 8  21510085.492          52.000         767.443
 118697745.735 8  22587430.904          48.000       -3416.685
 123643067.133 7  23528491.884          46.000        1215.825
 135304758.336 6  25747711.106          40.000       -4020.957
 134522108.780 6  25598702.125          39.000       -1639.813
 197633231.414 7  37608352.720          43.000       -1172.618
 197322309.902 7  37549196.970          42.000       -1172.782
 07  8 29 13 24 20.0010000  0  9G20G28G17G11G 4G19G 1S37S29
 110153256.078 8  20961469.146          48.000       -1838.360
 112266837.560 8  21363675.148          50.000       -2484.157
 113035479.154 8  21509939.503          52.000         766.771
 118701162.597 8  22588081.099          48.000       -3417.317
 123641851.626 7  23528260.703          46.000        1215.322
 135308779.830 6  25748476.786          39.000       -4022.317
 134523749.148 6  25599014.448          38.000       -1641.582
 197634403.770 7  37608575.699          43.000       -1171.731
 197323484.009 7  37549420.349          42.000       -1175.056
 07  8 29 13 24 21.0010000  0  9G20G28G17G11G 4G19G 1S37S29
 110155094.931 8  20961819.093          48.000       -1838.937
 112269322.055 8  21364147.944          49.000       -2484.966
 113034712.595 8  21509794.021          52.000         766.773
 118704579.635 8  22588731.277          48.000       -3417.394
 123640636.389 7  23528029.627          46.000        1215.557
 135312801.560 6  25749241.996          40.000       -4021.197
 134525390.116 6  25599326.057          37.000       -1641.060
 197635575.983 7  37608798.712          42.000       -1173.276
 197324658.464 7  37549643.800          42.000       -1173.536
 07  8 29 13 24 22.0010000  0  9G20G28G17G11G 4G19G 1S37S29
 110156934.224 8  20962169.196          48.000       -1839.429
 112271806.974 8  21364620.757          49.000       -2484.796
 113033946.090 8  21509648.015          52.000         766.726
 118707996.585 8  22589381.629          48.000       -3417.339
 123639421.174 7  23527798.761          47.000        1215.314
 135316823.252 6  25750007.031          39.000       -4021.460
 134527031.454 6  25599637.386          37.000       -1641.919
 197636748.173 7  37609021.796          44.000       -1172.488
 197325832.742 7  37549867.146          42.000       -1173.135
 07  8 29 13 24 23.0010000  0  9G20G28G17G11G 4G19G 1S37S29
 110158774.063 8  20962519.631          48.000       -1840.041
 112274292.433 8  21365093.553          49.000       -2485.686
 113033179.773 8  21509502.288          52.000         766.397
 118711413.573 8  22590031.894          48.000       -3417.043
 123638206.074 7  23527567.493          46.000        1214.988
 135320844.934 6  25750772.659          40.000       -4020.978
 134528673.259 6  25599949.222          36.000       -1640.648
 197637920.039 7  37609244.688          44.000       -1171.441
 197327007.301 7  37550090.787          42.000       -1173.760
 07  8 29 13 24 24.0010000  0  9G20G28G17G11G 4G19G 1S37S29
 110160614.370 8  20962870.014          48.000       -1840.350
 112276778.339 8  21365566.611          49.000       -2485.892
 113032413.544 8  21509356.701          52.000         766.356
 118714830.501 8  22590681.932          48.000       -3416.802
 123636991.013 7  23527336.469          46.000        1215.161
 135324866.648 6  25751538.375          41.000       -4020.802
 134530315.434 6  25600261.039          36.000       -1641.943
 197639091.667 7  37609467.563          44.000       -1170.571
 197328181.618 7  37550314.116          42.000       -1172.631
 07  8 29 13 24 25.0010000  0  9G20G28G17G11G 4G19G 1S37S29
 110162455.261 8  20963220.048          48.000       -1841.107
 112279264.811 8  21366039.826          49.000       -2486.518
 113031647.519 8  21509210.380          52.000         765.989
 118718247.501 8  22591332.232          48.000       -3416.335
 123635776.129 7  23527105.394          47.000        1215.144
 135328888.351 6  25752303.375          40.000       -4021.680
 134531958.082 6  25600573.136          37.000       -1641.756
 197640263.274 7  37609690.628          43.000       -1171.003
 197329355.593 7  37550537.495          42.000       -1174.905
 07  8 29 13 24 26.0010000  0  9G20G28G17G11G 4G19G 1S37S29
 110164296.499 8  20963570.500          48.000       -1841.243
 112281751.615 8  21366512.866          49.000       -2486.704
 113030881.488 8  21509064.514          52.000         766.177
 118721664.335 8  22591982.724          48.000       -3416.583
 123634561.156 7  23526874.300          47.000        1214.763
 135332909.971 6  25753069.055          40.000       -4021.755
 134533600.968 6  25600885.442          36.000       -1643.587
 197641434.677 7  37609913.572          43.000       -1171.764
 197330529.387 7  37550760.894          42.000       -1172.701
 07  8 29 13 24 27.0010000  0  9G20G28G17G11G 4G19G 1S37S29
 110166138.349 8  20963921.127          48.000       -1842.339
 112284239.013 8  21366986.098          49.000       -2487.584
 113030115.684 8  21508918.822          52.000         766.024
 118725081.257 8  22592632.989          48.000       -3416.716
 123633346.371 7  23526643.312          47.000        1215.002
 135336931.686 6  25753834.212          40.000       -4021.366
 134535244.415 6  25601197.086          36.000       -1643.103
 197642605.980 7  37610136.411          42.000       -1171.698
 197331702.767 7  37550984.133          42.000       -1174.755
 07  8 29 13 24 28.0010000  0  9G20G28G17G11G 4G19G 1S37S29
 110167980.617 8  20964271.720          48.000       -1842.369
 112286726.807 8  21367459.505          49.000       -2488.103
 113029349.917 8  21508773.217          52.000         765.630
 118728498.080 8  22593283.463          48.000       -3416.753
 123632131.591 7  23526412.044          47.000        1215.222
 135340953.339 6  25754599.265          39.000       -4021.933
 134536888.203 6  25601509.689          36.000       -1643.344
 197643777.240 7  37610359.286          44.000       -1170.060
 197332875.916 6  37551207.304          41.000       -1174.447
 07  8 29 13 24 29.0010000  0  9G20G28G17G11G 4G19G 1S37S29
 110169823.480 8  20964622.364          48.000       -1843.090
 112289215.180 8  21367932.999          49.000       -2488.562
 113028584.371 8  21508627.194          51.000         765.923
 118731914.981 8  22593933.518          48.000       -3416.610
 123630916.971 7  23526180.951          47.000        1214.556
 135344975.103 6  25755364.247          40.000       -4021.636
 134538532.537 6  25601823.060          36.000       -1642.925
 197644948.334 7  37610582.073          44.000       -1171.635
 197334049.142 7  37551430.458          43.000       -1174.397
 07  8 29 13 24 30.0010000  0  9G20G28G17G11G 4G19G 1S37S29
 110171666.839 8  20964973.166          49.000       -1843.018
 112291704.033 8  21368406.685          49.000       -2488.785
 113027818.958 8  21508481.519          52.000         765.286
 118735331.859 8  22594583.905          49.000       -3416.807
 123629702.422 7  23525950.154          47.000        1214.526
 135348996.850 6  25756129.719          41.000       -4021.399
 134540177.213 6  25602136.378          37.000       -1645.707
 197646119.236 7  37610804.859          44.000       -1172.162
 197335222.120 7  37551653.525          43.000       -1172.014
 07  8 29 13 24 31.0010000  0  9G20G28G17G11G 4G19G 1S37S29
 110173510.633 8  20965324.089          48.000       -1844.088
 112294193.287 8  21368880.458          49.000       -2489.439
 113027053.593 8  21508335.880          51.000         764.972
 118738748.622 8  22595234.380          49.000       -3416.826
 123628487.885 7  23525719.026          47.000        1214.599
 135353018.498 6  25756894.771          41.000       -4021.916
 134541822.241 6  25602450.691          39.000       -1644.856
 197647290.088 7  37611027.577          43.000       -1171.072
 197336394.944 7  37551876.469          42.000       -1171.743
 07  8 29 13 24 32.0010000  0  9G20G28G17G11G 4G19G 1S37S29
 110175354.983 8  20965675.170          48.000       -1844.456
 112296683.087 8  21369354.301          49.000       -2489.725
 113026288.455 8  21508190.031          51.000         764.913
 118742165.473 8  22595884.854          48.000       -3416.592
 123627273.496 7  23525488.020          47.000        1214.348
 135357040.234 6  25757660.277          40.000       -4021.484
 134543467.781 6  25602764.743          39.000       -1645.383
 197648461.011 7  37611250.381          42.000       -1170.932
 197337568.000 7  37552099.586          42.000       -1174.501
 07  8 29 13 24 33.0010000  0  9G20G28G17G11G 4G19G 1S37S29
 110177199.884 8  20966026.111          48.000       -1844.953
 112299173.421 8  21369828.354          49.000       -2490.493
 113025523.493 8  21508044.566          51.000         765.009
 118745582.334 8  22596534.962          48.000       -3417.157
 123626059.212 7  23525257.188          47.000        1213.924
 135361062.009 6  25758425.155          39.000       -4021.204
 134545113.745 6  25603078.061          40.000       -1645.375
 197649632.089 7  37611473.098          42.000       -1171.879
 197338741.115 7  37552322.863          42.000       -1172.243
 07  8 29 13 24 34.0010000  0  9G20G28G17G11G 4G19G 1S37S29
 110179045.204 8  20966377.523          48.000       -1845.675
 112301664.146 8  21370302.494          49.000       -2490.546
 113024758.575 8  21507899.206          51.000         764.999
 118748999.108 8  22597184.791          48.000       -3416.475
 123624844.933 8  23525026.374          48.000        1214.512
 135365083.707 6  25759190.365          41.000       -4021.297
 134546760.051 6  25603392.008          41.000       -1646.740
 197650802.903 7  37611695.781          44.000       -1170.207
 197339913.532 7  37552545.982          42.000       -1170.170
 07  8 29 13 24 35.0010000  0  9G20G28G17G11G 4G19G 1S37S29
 110180890.959 8  20966728.622          48.000       -1846.087
 112304155.306 8  21370776.406          49.000       -2491.596
 113023993.729 8  21507753.845          51.000         764.751
 118752415.777 8  22597835.108          48.000       -3416.919
 123623630.671 8  23524795.438          48.000        1214.497
 135369105.344 6  25759955.120          41.000       -4022.661
 134548406.704 6  25603706.565          41.000       -1647.538
 197651973.413 7  37611918.481          44.000       -1170.061
 197341085.667 7  37552768.837          42.000       -1173.348
 07  8 29 13 24 36.0010000  0  9G20G28G17G11G 4G19G 1S37S29
 110182737.364 8  20967079.737          48.000       -1846.313
 112306647.089 8  21371250.738          49.000       -2491.697
 113023229.158 8  21507608.415          51.000         764.718
 118755832.600 8  22598484.884          48.000       -3416.248
 123622416.613 7  23524564.764          47.000        1214.073
 135373127.135 6  25760720.243          41.000       -4021.765
 134550053.903 6  25604020.721          41.000       -1647.123
 197653143.709 7  37612141.163          44.000       -1169.818
 197342258.447 6  37552992.096          41.000       -1173.541
 07  8 29 13 24 37.0010000  0  9G20G28G17G11G 4G19G 1S37S29
 110184584.127 8  20967431.062          48.000       -1847.196
 112309139.224 8  21371725.035          49.000       -2492.339
 113022464.570 8  21507462.688          51.000         764.473
 118759249.253 8  22599135.010          48.000       -3416.590
 123621202.516 7  23524333.863          47.000        1214.417
 135377148.794 7  25761485.051          42.000       -4021.576
 134551701.404 6  25604334.685          41.000       -1647.999
 197654313.569 7  37612363.758          43.000       -1169.298
 197343431.007 6  37553215.093          41.000       -1171.571
 07  8 29 13 24 38.0010000  0  9G20G28G17G11G 4G19G 1S37S29
 110186431.435 8  20967782.283          48.000       -1847.092
 112311631.872 8  21372199.122          49.000       -2492.809
 113021700.142 8  21507317.258          51.000         764.729
 118762665.927 8  22599785.641          48.000       -3416.667
 123619988.507 8  23524103.101          48.000        1213.887
 135381170.508 7  25762250.470          42.000       -4022.100
 134553349.363 6  25604648.789          41.000       -1647.958
 197655483.402 7  37612586.405          43.000       -1170.664
 197344602.784 6  37553438.263          41.000       -1171.916
 07  8 29 13 24 39.0010000  0  9G20G28G17G11G 4G19G 1S37S29
 110188279.239 8  20968134.096          48.000       -1848.022
 112314124.982 8  21372673.366          49.000       -2493.223
 113020935.847 8  21507171.950          52.000         764.506
 118766082.596 8  22600435.766          48.000       -3416.460
 123618774.587 8  23523872.304          48.000        1214.136
 135385192.212 7  25763015.679          42.000       -4021.570
 134554997.701 7  25604962.981          42.000       -1647.908
 197656653.395 7  37612809.193          43.000       -1167.519
 197345774.936 7  37553661.224          42.000       -1173.691
 07  8 29 13 24 40.0010000  0  9G20G28G17G11G 4G19G 1S37S29
 110190127.627 8  20968485.631          48.000       -1848.516
 112316618.693 8  21373147.873          49.000       -2493.200
 113020171.761 8  21507026.572          52.000         764.654
 118769499.331 8  22601086.049          48.000       -3416.320
 123617560.821 8  23523641.612          48.000        1214.592
 135389213.975 6  25763781.081          41.000       -4021.183
 134556646.569 7  25605276.840          42.000       -1648.329
 197657823.299 7  37613031.875          44.000       -1169.240
 197346947.248 7  37553884.325          43.000       -1173.293
 07  8 29 13 24 41.0010000  0  9G20G28G17G11G 4G19G 1S37S29
 110191976.390 8  20968837.322          48.000       -1849.365
 112319112.734 8  21373622.326          49.000       -2494.219
 113019407.669 8  21506881.317          52.000         764.047
 118772915.912 8  22601736.506          48.000       -3416.552
 123616346.994 8  23523410.746          48.000        1214.352
 135393235.590 7  25764545.924          42.000       -4021.979
 134558295.700 7  25605591.363          42.000       -1648.426
 197658992.746 7  37613254.348          44.000       -1168.993
 197348119.009 7  37554106.990          43.000       -1172.219
 07  8 29 13 24 42.0010000  0  9G20G28G17G11G 4G19G 1S37S29
 110193825.516 8  20969188.979          48.000       -1849.144
 112321607.139 8  21374097.025          49.000       -2494.329
 113018643.577 8  21506735.764          51.000         764.068
 118776332.344 8  22602386.614          48.000       -3416.146
 123615133.128 8  23523179.967          48.000        1214.135
 135397257.134 6  25765311.343          41.000       -4020.974
 134559945.119 7  25605905.309          42.000       -1648.573
 197660162.029 7  37613476.646          43.000       -1168.149
 197349290.307 7  37554330.109          42.000       -1170.646
 07  8 29 13 24 43.0010000  0  9G20G28G17G11G 4G19G 1S37S29
 110195675.127 8  20969540.950          48.000       -1849.459
 112324101.996 8  21374571.757          49.000       -2495.053
 113017879.596 8  21506590.648          51.000         764.063
 118779748.743 8  22603036.756          48.000       -3416.512
 123613919.334 8  23522948.926          48.000        1213.603
 135401278.628 7  25766076.203          42.000       -4021.267
 134561594.944 7  25606218.994          42.000       -1649.939
 197661330.743 7  37613699.049          43.000       -1169.377
 197350461.120 7  37554552.896          42.000       -1171.071
 07  8 29 13 24 44.0010000  0  9G20G28G17G11G 4G19G 1S37S29
 110197525.222 8  20969892.833          48.000       -1850.407
 112326597.315 8  21375046.560          49.000       -2495.485
 113017115.719 8  21506445.340          52.000         763.531
 118783165.104 8  22603686.881          48.000       -3416.850
 123612705.584 8  23522718.077          48.000        1213.738
 135405300.083 6  25766840.976          41.000       -4022.362
 134563245.150 7  25606533.708          42.000       -1651.287
 197662499.271 7  37613921.330          43.000       -1169.086
 197351632.319 7  37554775.858          42.000       -1170.952
 07  8 29 13 24 45.0010000  0  9G20G28G17G11G 4G19G 1S37S29
 110199375.874 8  20970244.909          48.000       -1850.639
 112329093.174 8  21375521.136          49.000       -2496.042
 113016352.029 8  21506299.945          52.000         763.669
 118786581.503 8  22604336.990          49.000       -3416.087
 123611491.939 8  23522487.402          48.000        1213.411
 135409321.615 6  25767606.169          41.000       -4020.810
 134564895.841 6  25606847.673          41.000       -1650.324
 197663667.925 7  37614143.628          43.000       -1169.248
 197352803.634 7  37554998.714          42.000       -1171.473
 07  8 29 13 24 46.0010000  0  9G20G28G17G11G 4G19G 1S37S29
 110201226.994 8  20970597.106          48.000       -1851.211
 112331589.484 8  21375996.323          49.000       -2496.087
 113015588.439 8  21506154.724          52.000         763.881
 118789997.858 8  22604986.958          49.000       -3416.336
 123610278.377 8  23522256.361          48.000        1213.367
 135413343.131 7  25768371.099          42.000       -4021.222
 134566546.939 6  25607161.620          40.000       -1650.180
 197664836.359 7  37614366.032          44.000       -1167.691
 197353974.767 7  37555221.605          43.000       -1172.648
 07  8 29 13 24 47.0010000  0  9G20G28G17G11G 4G19G 1S37S29
 110203078.682 8  20970949.583          48.000       -1851.864
 112334086.346 8  21376471.579          49.000       -2496.826
 113014825.052 8  21506009.521          52.000         763.341
 118793414.263 8  22605637.205          49.000       -3416.288
 123609064.941 8  23522025.704          49.000        1213.442
 135417364.691 7  25769136.204          42.000       -4021.396
 134568198.506 6  25607475.549          40.000       -1652.078
 197666004.528 7  37614588.173          42.000       -1168.190
 197355145.773 7  37555444.288          42.000       -1171.844
 07  8 29 13 24 48.0010000  0  9G20G28G17G11G 4G19G 1S37S29
 110204930.865 8  20971302.164          48.000       -1852.566
 112336583.681 8  21376946.626          49.000       -2497.570
 113014061.775 8  21505864.544          52.000         763.427
 118796830.651 8  22606287.557          49.000       -3416.283
 123607851.566 8  23521794.890          49.000        1213.699
 135421386.268 6  25769901.622          41.000       -4021.910
 134569850.480 6  25607789.757          40.000       -1653.191
 197667172.885 7  37614810.540          44.000       -1169.882
 197356316.366 7  37555667.058          43.000       -1170.087
 07  8 29 13 24 49.0010000  0  9G20G28G17G11G 4G19G 1S37S29
 110206783.627 8  20971654.676          48.000       -1852.681
 112339081.578 8  21377422.022          49.000       -2498.380
 113013298.719 8  21505719.009          52.000         762.921
 118800247.077 8  22606938.084          48.000       -3416.242
 123606638.350 8  23521564.233          49.000        1212.841
 135425407.921 6  25770666.867          41.000       -4020.314
 134571502.955 6  25608103.704          40.000       -1652.941
 197668341.070 7  37615032.909          43.000       -1168.797
 197357487.119 7  37555889.757          42.000       -1171.251
 07  8 29 13 24 50.0010000  0  9G20G28G17G11G 4G19G 1S37S29
 110208636.818 7  20972007.118          47.000       -1853.120
 112341579.889 8  21377897.541          49.000       -2498.106
 113012535.707 8  21505574.103          51.000         763.293
 118803663.449 8  22607588.209          48.000       -3415.868
 123605425.151 8  23521333.611          48.000        1213.439
 135429429.498 6  25771432.059          40.000       -4021.371
 134573155.800 6  25608418.261          40.000       -1653.526
 197669509.152 7  37615255.050          42.000       -1168.051
 197358657.354 6  37556112.370          41.000       -1169.573
 07  8 29 13 24 51.0010000  0  9G20G28G17G11G 4G19G 1S37S29
 110210490.527 7  20972359.804          47.000       -1854.097
 112344078.700 8  21378373.146          48.000       -2498.979
 113011772.849 8  21505428.969          51.000         762.666
 118807079.793 8  22608238.230          48.000       -3416.283
 123604212.040 8  23521103.059          48.000        1213.053
 135433451.074 6  25772197.094          40.000       -4021.364
 134574809.057 6  25608733.569          40.000       -1653.205
 197670677.376 7  37615477.244          42.000       -1168.379
 197359827.666 6  37556335.175          41.000       -1168.929
 07  8 29 13 24 52.0010000  0  9G20G28G17G11G 4G19G 1S37S29
 110212344.804 7  20972712.647          47.000       -1854.199
 112346578.068 8  21378848.700          48.000       -2498.978
 113011010.190 8  21505283.557          51.000         762.692
 118810496.214 8  22608888.495          48.000       -3416.436
 123602999.062 8  23520872.280          48.000        1213.261
 135437472.766 6  25772962.548          40.000       -4021.590
 134576462.805 6  25609048.301          40.000       -1654.278
 197671845.727 6  37615699.683          41.000       -1166.350
 197360998.127 7  37556557.980          42.000       -1168.632
 07  8 29 13 24 53.0010000  0  9G20G28G17G11G 4G19G 1S37S29
 110214199.614 8  20973065.665          48.000       -1855.158
 112349077.943 8  21379324.549          49.000       -2499.995
 113010247.690 8  21505138.545          51.000         762.260
 118813912.630 8  22609538.516          48.000       -3415.746
 123601786.210 8  23520641.658          49.000        1212.833
 135441494.458 6  25773728.194          40.000       -4020.711
 134578116.977 6  25609362.893          41.000       -1654.664
 197673013.847 7  37615921.998          42.000       -1167.385
 197362167.960 6  37556780.644          41.000       -1169.841
 07  8 29 13 24 54.0010000  0  9G20G28G17G11G 4G19G 1S37S29
 110216054.827 7  20973418.491          47.000       -1855.396
 112351578.197 8  21379800.277          49.000       -2500.707
 113009485.229 8  21504993.447          51.000         762.459
 118817328.935 8  22610188.623          48.000       -3416.011
 123600573.336 8  23520410.948          49.000        1212.777
 135445516.073 6  25774494.118          40.000       -4021.630
 134579771.452 6  25609677.084          41.000       -1655.468
 197674181.482 7  37616144.140          44.000       -1166.308
 197363337.550 7  37557003.448          42.000       -1170.026
 07  8 29 13 24 55.0010000  0  9G20G28G17G11G 4G19G 1S37S29
 110217910.442 8  20973771.508          48.000       -1855.586
 112354078.860 8  21380275.987          49.000       -2500.826
 113008722.806 8  21504848.296          51.000         762.490
 118820745.142 8  22610839.080          48.000       -3415.659
 123599360.451 8  23520180.274          49.000        1213.400
 135449537.545 6  25775259.555          40.000       -4020.800
 134581426.263 6  25609992.462          41.000       -1655.139
 197675348.776 7  37616366.228          43.000       -1167.274
 197364506.777 7  37557225.956          42.000       -1168.835
 07  8 29 13 24 56.0010000  0  9G20G28G17G11G 4G19G 1S37S29
 110219766.713 7  20974124.456          47.000       -1856.196
 112356580.139 8  21380751.889          49.000       -2500.991
 113007960.659 8  21504703.354          52.000         762.429
 118824161.452 8  22611488.874          48.000       -3415.880
 123598147.797 8  23519949.722          49.000        1213.141
 135453559.210 6  25776025.131          41.000       -4020.730
 134583081.653 7  25610307.578          42.000       -1654.742
 197676516.058 7  37616588.387          43.000       -1167.445
 197365676.401 6  37557448.515          41.000       -1171.350
 07  8 29 13 24 57.0010000  0  9G20G28G17G11G 4G19G 1S37S29
 110221623.540 8  20974478.189          48.000       -1856.717
 112359081.958 8  21381227.983          49.000       -2501.801
 113007198.688 8  21504558.256          51.000         762.168
 118827577.819 8  22612138.895          48.000       -3415.667
 123596935.265 8  23519719.012          49.000        1212.364
 135457580.940 6  25776790.811          41.000       -4021.734
 134584737.527 7  25610622.659          42.000       -1655.707
 197677683.495 7  37616810.440          42.000       -1168.955
 197366845.859 7  37557671.059          42.000       -1169.217
 07  8 29 13 24 58.0010000  0  9G20G28G17G11G 4G19G 1S37S29
 110223480.824 8  20974831.800          48.000       -1857.355
 112361584.240 8  21381704.601          49.000       -2502.549
 113006436.810 8  21504413.244          52.000         761.792
 118830994.140 8  22612789.020          49.000       -3416.157
 123595722.760 8  23519488.407          49.000        1212.385
 135461602.644 6  25777556.317          39.000       -4022.430
 134586393.759 6  25610937.513          41.000       -1655.901
 197678850.948 7  37617032.582          42.000       -1167.763
 197368015.725 7  37557894.020          42.000       -1170.105
 07  8 29 13 24 59.0010000  0  9G20G28G17G11G 4G19G 1S37S29
 110225338.587 8  20975185.621          48.000       -1857.385
 112364086.968 8  21382181.044          49.000       -2502.753
 113005675.060 8  21504268.163          52.000         761.883
 118834410.402 8  22613438.901          48.000       -3416.072
 123594510.332 8  23519257.908          49.000        1212.367
 135465624.308 7  25778322.033          42.000       -4021.374
 134588050.388 6  25611252.646          41.000       -1656.683
 197680018.164 7  37617254.881          44.000       -1166.379
 197369185.002 7  37558116.616          43.000       -1166.830
 07  8 29 13 25  0.0010000  0  9G20G28G17G11G 4G19G 1S37S29
 110227196.945 8  20975539.214          48.000       -1858.153
 112366590.269 8  21382657.540          49.000       -2503.393
 113004913.529 8  21504123.518          51.000         761.713
 118837826.751 8  22614088.712          49.000       -3416.041
 123593298.070 8  23519027.216          49.000        1212.467
 135469646.050 7  25779087.243          44.000       -4021.699
 134589707.518 7  25611568.391          42.000       -1656.600
 197681185.039 7  37617477.040          44.000       -1165.387
 197370353.986 7  37558339.123          43.000       -1169.877
 07  8 29 13 25  1.0010000  0  9G20G28G17G11G 4G19G 1S37S29
 110229055.799 8  20975892.930          48.000       -1859.193
 112369094.055 8  21383134.105          49.000       -2503.842
 113004152.115 8  21503978.716          51.000         761.695
 118841243.062 8  22614738.995          49.000       -3416.004
 123592085.879 8  23518796.262          49.000        1212.665
 135473667.814 7  25779852.697          44.000       -4021.195
 134591365.061 6  25611883.559          41.000       -1657.341
 197682351.672 7  37617699.146          43.000       -1167.122
 197371523.709 7  37558561.614          42.000       -1168.265
 07  8 29 13 25  2.0010000  0  9G20G28G17G11G 4G19G 1S37S29
 110230915.088 8  20976247.047          48.000       -1859.186
 112371598.242 8  21383610.478          49.000       -2504.160
 113003390.783 8  21503833.967          52.000         761.421
 118844659.302 8  22615389.295          49.000       -3415.519
 123590873.688 8  23518565.465          49.000        1212.326
 135477689.511 7  25780617.993          42.000       -4022.238
 134593022.951 6  25612198.553          41.000       -1657.558
 197683518.387 7  37617921.147          43.000       -1166.923
 197372692.556 7  37558784.016          42.000       -1169.265
 07  8 29 13 25  3.0010000  0  9G20G28G17G11G 4G19G 1S37S29
 110232774.774 8  20976600.955          48.000       -1859.816
 112374102.816 8  21384086.974          49.000       -2504.551
 113002629.489 8  21503688.746          52.000         761.746
 118848075.420 8  22616039.507          49.000       -3415.693
 123589661.480 8  23518334.739          49.000        1212.711
 135481711.137 7  25781383.394          42.000       -4022.029
 134594681.161 6  25612513.773          41.000       -1657.885
 197684684.909 7  37618142.922          43.000       -1166.611
 197373861.100 7  37559006.385          42.000       -1168.264
 07  8 29 13 25  4.0010000  0  9G20G28G17G11G 4G19G 1S37S29
 110234635.000 8  20976954.967          49.000       -1860.139
 112376607.907 8  21384563.679          49.000       -2504.837
 113001868.350 8  21503543.717          52.000         761.418
 118851491.555 8  22616689.493          49.000       -3416.225
 123588449.378 8  23518103.820          49.000        1212.091
 135485732.780 7  25782148.883          42.000       -4021.761
 134596339.800 6  25612828.854          41.000       -1659.116
 197685851.156 7  37618364.837          45.000       -1166.135
 197375029.605 7  37559228.840          42.000       -1167.946
 07  8 29 13 25  5.0010000  0  9G20G28G17G11G 4G19G 1S37S29
 110236495.694 8  20977309.311          49.000       -1861.133
 112379113.461 8  21385040.244          49.000       -2505.809
 113001107.327 8  21503398.933          52.000         761.312
 118854907.667 8  22617339.513          49.000       -3416.026
 123587237.330 8  23517873.076          49.000        1211.998
 135489754.395 6  25782914.040          41.000       -4021.537
 134597998.852 6  25613143.673          40.000       -1659.411
 197687017.227 7  37618586.978          44.000       -1167.145
 197376198.011 7  37559451.156          43.000       -1169.455
 07  8 29 13 25  6.0010000  0  9G20G28G17G11G 4G19G 1S37S29
 110238356.988 8  20977663.655          49.000       -1861.554
 112381619.582 8  21385517.228          49.000       -2506.297
 113000346.523 8  21503254.235          52.000         760.704
 118858323.818 8  22617989.621          48.000       -3416.181
 123586025.437 8  23517642.471          49.000        1211.845
 135493776.043 6  25783679.233          39.000       -4020.972
 134599658.412 6  25613458.492          39.000       -1659.793
 197688183.369 7  37618808.700          45.000       -1166.892
 197377366.302 7  37559673.350          43.000       -1167.582
 07  8 29 13 25  7.0010000  0  9G20G28G17G11G 4G19G 1S37S29
 110240218.800 8  20978018.208          48.000       -1861.841
 112384126.204 8  21385994.456          49.000       -2506.325
 112999585.874 8  21503109.678          51.000         760.868
 118861740.003 8  22618639.851          48.000       -3416.405
 123584813.642 8  23517412.023          49.000        1211.941
 135497797.752 7  25784445.001          42.000       -4021.264
 134601318.412 6  25613774.079          39.000       -1660.055
 197689349.644 7  37619030.702          43.000       -1166.165
 197378534.780 7  37559895.596          42.000       -1167.780
 07  8 29 13 25  8.0010000  0  9G20G28G17G11G 4G19G 1S37S29
 110242081.168 8  20978372.797          49.000       -1862.283
 112386633.367 8  21386471.458          49.000       -2507.320
 112998825.402 8  21502965.137          51.000         760.492
 118865156.215 8  22619289.959          49.000       -3416.494
 123583601.975 8  23517181.244          49.000        1211.578
 135501819.499 7  25785210.489          43.000       -4021.002
 134602978.874 6  25614090.016          39.000       -1660.189
 197690515.984 7  37619252.669          43.000       -1165.910
 197379703.059 7  37560117.894          42.000       -1167.776
 07  8 29 13 25  9.0010000  0  9G20G28G17G11G 4G19G 1S37S29
 110243944.071 8  20978727.402          49.000       -1862.959
 112389141.047 8  21386948.860          49.000       -2507.952
 112998065.111 8  21502820.510          52.000         760.177
 118868572.454 8  22619939.805          48.000       -3415.893
 123582390.439 8  23516950.709          48.000        1211.657
 135505841.373 7  25785975.698          44.000       -4022.009
 134604639.794 6  25614405.917          37.000       -1660.795
 197691682.104 7  37619474.618          43.000       -1166.449
 197380871.124 7  37560339.965          42.000       -1168.411
 07  8 29 13 25 10.0010000  0 10G20G28G17G11G 4G19G23G 1S37S29
 110245807.409 8  20979081.973          49.000       -1863.937
 112391649.156 8  21387425.775          49.000       -2508.069
 112997304.891 8  21502675.708          51.000         759.968
 118871988.600 8  22620589.721          48.000       -3416.711
 123581178.953 8  23516720.209          48.000        1211.423
 135509863.087 7  25786740.908          44.000       -4021.782
 129339535.72835  24612495.304          33.000        1569.823
 134606301.050 6  25614720.526          36.000       -1661.546
 197692847.844 7  37619696.358          42.000       -1166.080
 197382039.073 6  37560562.264          41.000       -1166.844
 07  8 29 13 25 11.0010000  0 10G20G28G17G11G 4G19G23G 1S37S29
 110247671.418 8  20979436.753          49.000       -1864.318
 112394157.900 8  21387903.160          49.000       -2509.101
 112996544.959 8  21502530.819          51.000         759.699
 118875404.899 8  22621239.916          48.000       -3416.431
 123579967.666 8  23516489.814          48.000        1211.571
 135513885.055 7  25787506.205          42.000       -4021.844
 129337966.69025  24612187.586          33.000        1568.123
 134607962.945 6  25615036.584          36.000       -1662.745
 197694013.469 7  37619918.134          44.000       -1164.383
 197383206.978 7  37560784.719          42.000       -1168.406
 07  8 29 13 25 12.0010000  0 10G20G28G17G11G 4G19G23G 1S37S29
 110249535.968 8  20979791.568          48.000       -1864.277
 112396667.194 8  21388380.877          49.000       -2509.200
 112995785.230 8  21502386.052          51.000         760.030
 118878821.221 8  22621890.356          48.000       -3415.990
 123578756.488 8  23516259.175          48.000        1211.792
 135517906.950 7  25788271.571          43.000       -4021.642
 129336397.66425  24611881.003          33.000        1568.497
 134609625.302 5  25615353.114          35.000       -1663.291
 197695179.330 7  37620139.978          44.000       -1165.461
 197384375.186 7  37561007.087          42.000       -1167.927
 07  8 29 13 25 13.0010000  0 10G20G28G17G11G 4G19G23G 1S37S29
 110251400.892 8  20980146.575          49.000       -1865.155
 112399176.818 8  21388858.524          49.000       -2509.556
 112995025.478 8  21502241.267          51.000         759.740
 118882237.411 8  22622540.428          48.000       -3416.461
 123577545.300 8  23516028.832          48.000        1211.098
 135521928.802 7  25789037.008          42.000       -4021.836
 129334828.50025  24611577.682          32.000        1565.490
 134611287.902 6  25615670.428          36.000       -1663.107
 197696344.624 7  37620361.561          43.000       -1164.438
 197385542.892 7  37561229.403          42.000       -1168.030
 07  8 29 13 25 14.0010000  0 10G20G28G17G11G 4G19G23G 1S37S29
 110253266.323 8  20980501.687          48.000       -1865.727
 112401686.950 8  21389335.788          49.000       -2510.455
 112994265.876 8  21502096.762          50.000         759.321
 118885653.596 8  22623190.484          48.000       -3416.119
 123576334.205 8  23515798.314          48.000        1210.582
 135525950.698 7  25789802.095          42.000       -4021.619
 129333259.26925  24611275.655          32.000        1566.580
 134612950.948 6  25615987.324          37.000       -1663.542
 197697509.637 7  37620583.441          42.000       -1164.882
 197386710.219 6  37561451.649          41.000       -1168.832
 07  8 29 13 25 15.0010000  0 10G20G28G17G11G 4G19G23G 1S37S29
 110255132.471 8  20980856.659          48.000       -1865.878
 112404197.769 8  21389813.365          48.000       -2510.656
 112993506.615 8  21501952.099          50.000         759.257
 118889069.967 8  22623840.452          48.000       -3416.338
 123575123.353 8  23515567.622          48.000        1210.408
 135529972.787 6  25790567.549          41.000       -4021.418
 129331690.18825  24610975.355          32.000        1569.845
 134614614.611 6  25616305.232          37.000       -1662.967
 197698674.711 7  37620805.216          42.000       -1163.475
 197387877.628 6  37561673.721          41.000       -1165.705
 07  8 29 13 25 16.0010000  0 10G20G28G17G11G 4G19G23G 1S37S29
 110256999.020 8  20981212.120          48.000       -1866.726
 112406708.975 8  21390291.134          48.000       -2511.492
 112992747.398 8  21501807.629          50.000         759.292
 118892486.239 8  22624490.106          48.000       -3416.335
 123573912.495 7  23515337.192          47.000        1210.906
 135533994.744 7  25791332.689          42.000       -4021.441
 129330120.95725  24610674.986          32.000        1573.472
 134616278.577 6  25616622.372          38.000       -1664.111
 197699839.548 7  37621026.833          44.000       -1165.782
 197389044.751 7  37561895.670          42.000       -1168.393
 07  8 29 13 25 17.0010000  0 10G20G28G17G11G 4G19G23G 1S37S29
 110258866.169 8  20981567.563          48.000       -1867.241
 112409220.770 8  21390768.991          48.000       -2511.531
 112991988.430 8  21501662.810          50.000         759.126
 118895902.594 8  22625140.511          48.000       -3415.943
 123572701.808 8  23515106.762          48.000        1210.397
 135538016.766 6  25792097.549          41.000       -4020.672
 129328551.76025  24610374.857          33.000        1567.889
 134617943.094 6  25616940.263          39.000       -1664.357
 197701004.572 7  37621248.486          42.000       -1164.466
 197390212.386 7  37562117.864          42.000       -1166.484
 07  8 29 13 25 18.0010000  0 10G20G28G17G11G 4G19G23G 1S37S29
 110260733.903 8  20981922.849          48.000       -1868.041
 112411733.138 8  21391247.127          48.000       -2512.581
 112991229.670 8  21501518.339          50.000         758.798
 118899319.010 8  22625790.514          48.000       -3416.375
 123571491.325 8  23514876.122          48.000        1210.646
 135542038.971 6  25792863.003          40.000       -4021.493
 129326982.65625  24610075.325          34.000        1569.732
 134619608.057 6  25617257.542          39.000       -1665.161
 197702169.833 7  37621470.314          42.000       -1163.640
 197391379.916 7  37562339.900          42.000       -1168.222
 07  8 29 13 25 19.0010000  0 10G20G28G17G11G 4G19G23G 1S37S29
 110262602.138 8  20982278.310          48.000       -1868.243
 112414245.957 8  21391725.175          49.000       -2512.349
 112990471.037 8  21501373.973          50.000         758.715
 118902735.409 8  22626440.570          48.000       -3416.161
 123570280.918 8  23514645.971          48.000        1210.770
 135546061.148 6  25793628.317          40.000       -4022.017
 129325414.003 5  24609775.949          34.000        1569.645
 134621273.449 6  25617574.979          40.000       -1665.536
 197703334.934 7  37621691.861          43.000       -1164.324
 197392547.210 7  37562562.182          42.000       -1165.652
 07  8 29 13 25 20.0010000  0 10G20G28G17G11G 4G19G23G 1S37S29
 110264470.918 8  20982633.945          48.000       -1868.916
 112416759.344 8  21392203.224          49.000       -2512.942
 112989712.586 8  21501229.625          51.000         758.471
 118906151.852 8  22627090.555          49.000       -3416.454
 123569070.617 8  23514415.593          48.000        1210.221
 135550083.357 6  25794393.631          41.000       -4022.337
 129323844.806 5  24609476.799          34.000        1566.809
 134622939.294 6  25617892.381          40.000       -1666.327
 197704499.809 7  37621913.444          43.000       -1164.875
 197393714.267 7  37562784.061          42.000       -1166.149
 07  8 29 13 25 21.0010000  0 10G20G28G17G11G 4G19G23G 1S37S29
 110266340.067 8  20982989.755          48.000       -1869.316
 112419273.056 8  21392681.482          49.000       -2513.962
 112988954.140 8  21501085.225          50.000         758.499
 118909568.141 8  22627740.611          49.000       -3416.081
 123567860.255 8  23514185.181          48.000        1210.261
 135554105.452 6  25795159.102          41.000       -4022.090
 129322275.460 5  24609177.476          35.000        1568.456
 134624605.441 6  25618209.713          41.000       -1665.859
 197705664.448 7  37622135.080          42.000       -1163.477
 197394881.020 6  37563006.202          41.000       -1167.537
 07  8 29 13 25 22.0010000  0 10G20G28G17G11G 4G19G23G 1S37S29
 110268209.723 8  20983345.548          49.000       -1869.585
 112421787.274 8  21393159.792          49.000       -2514.364
 112988195.827 8  21500940.545          50.000         758.318
 118912984.408 8  22628390.649          49.000       -3416.075
 123566649.959 8  23513954.838          48.000        1210.521
 135558127.557 6  25795924.399          41.000       -4021.757
 129320706.059 5  24608878.031          34.000        1569.353
 134626272.007 7  25618527.185          42.000       -1666.686
 197706828.733 7  37622356.488          44.000       -1163.470
 197396047.901 7  37563228.238          42.000       -1168.271
 07  8 29 13 25 23.0010000  0 10G20G28G17G11G 4G19G23G 1S37S29
 110270079.798 8  20983701.183          49.000       -1869.940
 112424301.889 8  21393638.311          49.000       -2515.187
 112987437.574 8  21500796.336          51.000         758.394
 118916400.592 8  22629040.617          49.000       -3416.223
 123565439.707 8  23513724.146          48.000        1209.811
 135562149.569 6  25796689.696          41.000       -4022.396
 129319136.509 5  24608578.671          34.000        1567.045
 134627938.904 7  25618844.691          42.000       -1667.609
 197707992.783 7  37622577.983          44.000       -1163.940
 197397214.015 7  37563449.979          42.000       -1166.698
 07  8 29 13 25 24.0010000  0 10G20G28G17G11G 4G19G23G 1S37S29
 110271950.412 8  20984056.992          49.000       -1870.973
 112426817.022 8  21394116.709          49.000       -2515.336
 112986679.487 8  21500651.901          50.000         758.234
 118919816.788 8  22629690.882          49.000       -3416.165
 123564229.548 8  23513493.559          48.000        1210.158
 135566171.602 6  25797455.150          41.000       -4021.875
 129317566.970 5  24608279.158          34.000        1571.917
 134629606.274 7  25619162.198          42.000       -1667.456
 197709156.804 7  37622799.566          44.000       -1164.306
 197398380.196 7  37563671.963          42.000       -1166.235
 07  8 29 13 25 25.0010000  0 10G20G28G17G11G 4G19G23G 1S37S29
 110273821.462 8  20984412.802          49.000       -1871.495
 112429332.585 8  21394595.456          49.000       -2515.732
 112985921.471 8  21500507.779          51.000         758.099
 118923232.922 8  22630340.833          49.000       -3416.052
 123563019.407 8  23513263.111          48.000        1209.683
 135570193.625 6  25798220.307          39.000       -4021.811
 129315997.321 5  24607979.466          34.000        1569.127
 134631273.980 7  25619479.198          42.000       -1668.358
 197710320.815 7  37623021.201          44.000       -1164.734
 197399546.559 7  37563893.878          42.000       -1165.922
 07  8 29 13 25 26.0010000  0 10G20G28G17G11G 4G19G23G 1S37S29
 110275693.035 8  20984769.153          49.000       -1871.264
 112431848.632 8  21395074.412          49.000       -2516.216
 112985163.603 8  21500363.763          51.000         757.949
 118926649.035 8  22630990.766          49.000       -3415.791
 123561809.348 8  23513032.733          48.000        1209.808
 135574215.631 6  25798986.005          40.000       -4021.076
 129314427.617 5  24607680.266          33.000        1572.187
 134632942.116 7  25619796.914          42.000       -1668.791
 197711484.511 7  37623242.401          43.000       -1162.399
 197400712.751 7  37564116.001          42.000       -1166.195
 07  8 29 13 25 27.0010000  0 10G20G28G17G11G 4G19G23G 1S37S29
 110277565.115 8  20985125.259          49.000       -1872.447
 112434365.186 8  21395553.263          49.000       -2516.739
 112984405.890 8  21500219.693          50.000         757.639
 118930065.159 8  22631640.769          49.000       -3415.951
 123560599.382 8  23512802.530          48.000        1209.590
 135578237.643 6  25799751.057          39.000       -4022.920
 129312857.896 5  24607380.681          33.000        1571.728
 134634610.698 6  25620114.002          41.000       -1668.855
 197712648.059 7  37623463.879          43.000       -1163.846
 197401878.904 7  37564337.968          42.000       -1165.433
 07  8 29 13 25 28.0010000  0 10G20G28G17G11G 4G19G23G 1S37S29
 110279437.701 8  20985481.470          49.000       -1872.742
 112436882.214 8  21396032.044          49.000       -2516.860
 112983648.299 8  21500075.276          51.000         757.811
 118933481.266 8  22632290.877          49.000       -3415.382
 123559389.510 8  23512572.222          48.000        1209.980
 135582259.698 6  25800516.110          40.000       -4020.515
 129311288.154 5  24607081.286          32.000        1569.167
 134636279.687 6  25620431.351          41.000       -1669.635
 197713811.662 7  37623685.375          44.000       -1163.150
 197403045.344 7  37564559.848          43.000       -1165.304
 07  8 29 13 25 29.0010000  0 10G20G28G17G11G 4G19G23G 1S37S29
 110281310.926 8  20985837.821          49.000       -1873.852
 112439399.876 8  21396511.018          49.000       -2517.872
 112982890.988 8  21499930.962          50.000         757.039
 118936897.489 8  22632940.653          49.000       -3416.627
 123558179.859 8  23512342.228          48.000        1209.445
 135586281.864 6  25801281.406          40.000       -4022.706
 129309717.96635  24606781.841          32.000        1571.414
 134637949.239 6  25620749.242          41.000       -1669.542
 197714975.325 7  37623906.974          42.000       -1164.624
 197404211.277 7  37564781.797          42.000       -1165.391
 07  8 29 13 25 30.0010000  0 10G20G28G17G11G 4G19G23G 1S37S29
 110283184.769 8  20986194.451          48.000       -1873.800
 112441918.115 8  21396990.253          49.000       -2518.211
 112982133.925 8  21499787.172          50.000         757.045
 118940313.811 8  22633590.936          49.000       -3416.211
 123556970.400 8  23512112.077          48.000        1210.010
 135590304.157 6  25802046.477          40.000       -4021.557
 129308148.36725  24606482.657          32.000        1569.653
 134639619.319 6  25621067.063          40.000       -1669.643
 197716139.115 7  37624128.366          43.000       -1162.886
 197405377.165 7  37565003.572          42.000       -1166.716
 07  8 29 13 25 31.0010000  0 10G20G28G17G11G 4G19G23G 1S37S29
 110285059.019 8  20986550.854          48.000       -1874.417
 112444436.757 8  21397469.645          49.000       -2518.987
 112981376.922 8  21499643.033          50.000         757.223
 118943730.045 8  22634240.904          49.000       -3416.455
 123555760.903 8  23511881.508          48.000        1209.809
 135594326.383 6  25802811.546          40.000       -4021.811
 129306578.62435  24606183.944          32.000        1570.356
 134641289.730 6  25621384.621          40.000       -1670.756
 197717302.658 7  37624349.809          43.000       -1163.061
 197406543.192 7  37565225.451          42.000       -1166.051
 07  8 29 13 25 32.0010000  0 10G20G28G17G11G 4G19G23G 1S37S29
 110286933.814 8  20986907.763          49.000       -1874.794
 112446955.928 8  21397948.845          49.000       -2519.315
 112980620.085 8  21499498.894          50.000         756.799
 118947146.284 8  22634890.820          49.000       -3416.315
 123554551.543 8  23511651.286          48.000        1208.868
 135598348.626 6  25803576.547          40.000       -4021.657
 129305008.88735  24605884.779          32.000        1573.060
 134642960.604 6  25621702.320          39.000       -1672.008
 197718466.277 7  37624571.235          43.000       -1163.950
 197407708.905 7  37565447.226          42.000       -1165.874
 07  8 29 13 25 33.0010000  0 10G20G28G17G11G 4G19G23G 1S37S29
 110288809.061 8  20987264.690          49.000       -1875.028
 112449475.528 8  21398428.133          48.000       -2519.590
 112979863.342 8  21499354.825          50.000         756.723
 118950562.474 8  22635540.858          48.000       -3416.115
 123553342.216 8  23511420.944          48.000        1209.444
 135602370.831 6  25804341.930          40.000       -4022.134
 129303439.08425  24605585.961          32.000        1571.710
 134644631.852 6  25622019.722          38.000       -1670.990
 197719629.737 7  37624792.678          42.000       -1163.203
 197408873.763 6  37565668.897          41.000       -1163.746
 07  8 29 13 25 34.0010000  0 10G20G28G17G11G 4G19G23G 1S37S29
 110290684.843 8  20987621.669          48.000       -1876.091
 112451995.652 8  21398907.804          48.000       -2520.037
 112979106.764 8  21499210.652          50.000         756.567
 118953978.680 8  22636191.018          48.000       -3415.913
 123552133.022 8  23511190.618          48.000        1209.564
 135606393.096 6  25805107.367          39.000       -4022.075
 129301869.24725  24605287.074          32.000        1573.991
 134646303.590 6  25622337.542          38.000       -1671.836
 197720793.020 7  37625014.017          44.000       -1163.136
 197410038.622 7  37565890.515          42.000       -1163.258
 07  8 29 13 25 35.0010000  0 10G20G28G17G11G 4G19G23G 1S37S29
 110292561.120 8  20987978.630          48.000       -1876.620
 112454516.255 8  21399387.702          48.000       -2520.896
 112978350.328 8  21499066.653          50.000         756.761
 118957394.859 8  22636841.091          48.000       -3416.195
 123550923.899 8  23510960.886          48.000        1209.071
 135610415.328 6  25805872.594          39.000       -4022.156
 129300299.30135  24604988.570          33.000        1571.172
 134647975.676 6  25622655.660          38.000       -1671.912
 197721956.138 7  37625235.286          42.000       -1161.794
 197411203.613 6  37566112.184          41.000       -1166.108
 07  8 29 13 25 36.0010000  0 10G20G28G17G11G 4G19G23G 1S37S29
 110294437.909 8  20988335.470          49.000       -1876.654
 112457037.359 8  21399867.478          48.000       -2521.267
 112977594.026 8  21498922.549          50.000         756.416
 118960811.054 8  22637491.461          49.000       -3416.182
 123549714.870 8  23510730.700          48.000        1209.490
 135614437.593 6  25806637.419          39.000       -4021.727
 129298729.38725  24604689.577          33.000        1568.641
 134649648.229 6  25622974.021          39.000       -1672.519
 197723118.860 7  37625456.293          43.000       -1162.984
 197412368.637 6  37566333.732          41.000       -1165.412
 07  8 29 13 25 37.0010000  0 10G20G28G17G11G 4G19G23G 1S37S29
 110296315.277 8  20988692.885          48.000       -1877.258
 112459559.014 8  21400347.289          48.000       -2521.638
 112976837.949 8  21498778.881          50.000         756.080
 118964227.293 8  22638141.708          49.000       -3415.929
 123548505.995 8  23510500.933          48.000        1208.803
 135618459.940 6  25807402.821          40.000       -4021.967
 129297159.47425  24604390.514          33.000        1567.156
 134651321.289 6  25623292.506          40.000       -1671.812
 197724281.444 7  37625677.561          43.000       -1163.761
 197413533.358 7  37566555.193          42.000       -1166.349
 07  8 29 13 25 38.0010000  0 10G20G28G17G11G 4G19G23G 1S37S29
 110298193.168 8  20989049.916          48.000       -1877.753
 112462081.159 8  21400826.874          48.000       -2522.319
 112976082.009 8  21498634.969          50.000         755.955
 118967643.538 8  22638791.642          49.000       -3416.602
 123547297.214 8  23510270.765          48.000        1209.055
 135622482.304 6  25808168.396          39.000       -4022.678
 129295589.57225  24604091.628          33.000        1568.597
 134652994.774 6  25623610.797          40.000       -1673.738
 197725443.950 7  37625898.830          43.000       -1162.566
 197414698.118 6  37566776.969          41.000       -1163.267
 07  8 29 13 25 39.0010000  0 10G20G28G17G11G 4G19G23G 1S37S29
 110300071.604 8  20989407.052          49.000       -1878.506
 112464603.838 8  21401307.539          49.000       -2523.321
 112975326.252 8  21498491.231          51.000         755.678
 118971059.816 8  22639441.750          49.000       -3416.202
 123546088.543 8  23510040.754          48.000        1208.878
 135626504.735 6  25808933.833          40.000       -4022.726
 129294019.65325  24603792.549          33.000        1570.962
 134654668.705 6  25623929.857          40.000       -1673.906
 197726606.479 7  37626120.029          42.000       -1163.798
 197415863.004 7  37566998.795          42.000       -1165.815
 07  8 29 13 25 40.0010000  0 10G20G28G17G11G 4G19G23G 1S37S29
 110301950.542 8  20989764.450          49.000       -1878.320
 112467127.025 8  21401787.612          48.000       -2523.521
 112974570.643 8  21498347.494          50.000         755.737
 118974476.083 8  22640091.701          49.000       -3415.721
 123544879.949 8  23509810.690          48.000        1208.777
 135630527.154 6  25809699.426          40.000       -4022.251
 129292449.72325  24603493.784          33.000        1570.653
 134656343.065 6  25624248.655          40.000       -1673.942
 197727769.267 7  37626341.176          42.000       -1162.505
 197417027.852 7  37567220.501          43.000       -1164.061
 07  8 29 13 25 41.0010000  0 10G20G28G17G11G 4G19G23G 1S37S29
 110303830.031 8  20990122.249          49.000       -1879.557
 112469650.740 8  21402267.528          49.000       -2523.940
 112973815.222 8  21498203.512          50.000         755.685
 118977892.377 8  22640741.895          49.000       -3416.479
 123543671.488 8  23509580.783          48.000        1208.067
 135634549.606 6  25810465.159          40.000       -4023.032
 129290879.74925  24603194.565          33.000        1571.231
 134658017.894 6  25624567.749          40.000       -1674.890
 197728931.707 7  37626562.567          44.000       -1161.071
 197418192.601 7  37567442.206          43.000       -1163.388
 07  8 29 13 25 42.0010000  0 10G20G28G17G11G 4G19G23G 1S37S29
 110305710.053 8  20990479.925          49.000       -1880.169
 112472174.956 8  21402748.299          49.000       -2524.397
 112973059.965 8  21498059.792          50.000         755.468
 118981308.694 8  22641392.021          49.000       -3415.875
 123542463.158 8  23509351.121          48.000        1209.129
 135638572.119 6  25811230.735          40.000       -4022.707
 129289309.75325  24602895.555          33.000        1570.253
 134659693.163 6  25624887.140          40.000       -1675.310
 197730093.751 7  37626783.661          42.000       -1161.524
 197419356.964 7  37567663.684          42.000       -1164.556
 07  8 29 13 25 43.0010000  0 10G20G28G17G11G 4G19G23G 1S37S29
 110307590.545 8  20990837.951          49.000       -1880.789
 112474699.641 8  21403229.105          49.000       -2524.450
 112972304.808 8  21497916.054          50.000         755.371
 118984724.955 8  22642042.251          49.000       -3415.744
 123541254.856 8  23509121.302          48.000        1208.708
 135642594.616 6  25811996.521          40.000       -4021.361
 129287739.68035  24602596.982          32.000        1570.280
 134661368.823 6  25625205.764          41.000       -1675.469
 197731255.591 7  37627004.877          43.000       -1162.491
 197420521.189 7  37567885.354          42.000       -1164.739
 07  8 29 13 25 44.0010000  0 10G20G28G17G11G 4G19G23G 1S37S29
 110309471.553 8  20991196.187          48.000       -1881.181
 112477224.821 8  21403709.718          49.000       -2525.263
 112971549.806 8  21497772.352          50.000         754.844
 118988141.211 8  22642692.568          49.000       -3416.237
 123540046.664 8  23508891.325          48.000        1207.892
 135646617.112 6  25812762.219          40.000       -4022.792
 129286169.61735  24602298.025          31.000        1569.086
 134663044.941 6  25625525.102          40.000       -1675.764
 197732417.123 7  37627225.920          43.000       -1161.567
 197421685.233 7  37568106.745          42.000       -1163.947
 07  8 29 13 25 45.0010000  0 10G20G28G17G11G 4G19G23G 1S37S29
 110311353.201 8  20991554.003          49.000       -1881.912
 112479750.618 8  21404190.454          50.000       -2526.199
 112970795.095 8  21497628.823          50.000         754.164
 118991557.616 8  22643342.693          49.000       -3416.306
 123538838.693 8  23508661.470          48.000        1207.636
 135650639.751 6  25813527.900          38.000       -4022.067
 129284599.67635  24601998.771          31.000        1568.989
 134664721.593 6  25625844.476          41.000       -1676.385
 197733578.963 7  37627447.084          43.000       -1161.293
 197422849.359 7  37568328.468          42.000       -1163.306
 07  8 29 13 25 46.0010000  0 10G20G28G17G11G 4G19G23G 1S37S29
 110313235.383 8  20991912.343          48.000       -1882.467
 112482276.928 8  21404671.295          49.000       -2526.370
 112970040.543 8  21497485.453          50.000         754.679
 118994974.020 8  22643992.906          49.000       -3416.755
 123537630.826 8  23508431.703          48.000        1207.680
 135654662.413 6  25814292.864          39.000       -4022.889
 129283029.70225  24601699.937          31.000        1573.496
 134666398.680 6  25626163.832          41.000       -1677.027
 197734740.974 7  37627668.264          44.000       -1163.995
 197424013.777 7  37568550.067          43.000       -1165.367
 07  8 29 13 25 47.0010000  0 10G20G28G17G11G 4G19G23G 1S37S29
 110315118.144 8  20992270.648          49.000       -1883.056
 112484803.794 8  21405152.362          49.000       -2527.030
 112969286.207 8  21497341.802          50.000         754.594
 118998390.497 8  22644642.787          49.000       -3416.944
 123536423.135 8  23508202.006          49.000        1207.540
 135658685.196 6  25815058.720          39.000       -4022.205
 129281459.70135  24601401.224          30.000        1570.877
 134668076.290 6  25626483.293          41.000       -1677.663
 197735902.864 7  37627889.359          44.000       -1161.769
 197425177.721 7  37568771.493          43.000       -1164.717
 07  8 29 13 25 48.0010000  0 10G20G28G17G11G 4G19G23G 1S37S29
 110317001.560 8  20992629.006          49.000       -1883.585
 112487331.299 8  21405633.359          50.000       -2527.638
 112968532.168 8  21497198.536          50.000         754.252
 119001807.105 8  22645293.174          49.000       -3416.512
 123535215.654 8  23507972.675          49.000        1207.543
 135662708.127 6  25815824.488          39.000       -4022.357
 129279889.88725  24601102.756          30.000        1573.223
 134669754.468 6  25626802.789          40.000       -1677.677
 197737064.721 7  37628110.332          42.000       -1161.220
 197426341.556 7  37568993.041          43.000       -1165.751
 07  8 29 13 25 49.0010000  0  9G20G28G17G11G 4G19G 1S37S29
 110318885.334 8  20992987.398          49.000       -1883.805
 112489859.134 8  21406114.549          49.000       -2528.115
 112967778.135 8  21497055.200          50.000         754.224
 119005223.565 8  22645943.456          49.000       -3416.026
 123534008.146 8  23507742.909          49.000        1207.928
 135666730.866 6  25816589.697          39.000       -4022.872
 134671432.937 6  25627122.355          40.000       -1678.985
 197738226.335 7  37628331.426          43.000       -1161.210
 197427505.456 7  37569214.712          42.000       -1163.996
 07  8 29 13 25 50.0010000  0  9G20G28G17G11G 4G19G 1S37S29
 110320769.697 8  20993345.948          49.000       -1884.401
 112492387.537 8  21406595.390          49.000       -2528.236
 112967024.322 8  21496912.021          51.000         753.923
 119008640.085 8  22646593.442          49.000       -3415.906
 123532800.758 8  23507513.246          49.000        1207.541
 135670753.710 6  25817356.704          40.000       -4022.996
 134673111.892 6  25627442.217          40.000       -1678.925
 197739387.900 7  37628552.677          43.000       -1161.236
 197428669.004 7  37569436.207          42.000       -1163.464
 07  8 29 13 25 51.0010000  0  9G20G28G17G11G 4G19G 1S37S29
 110322654.584 8  20993704.863          49.000       -1885.094
 112494916.458 8  21407076.719          49.000       -2529.009
 112966270.663 8  21496768.493          50.000         754.257
 119012056.616 8  22647243.655          50.000       -3415.993
 123531593.492 8  23507283.444          49.000        1208.039
 135674776.592 6  25818123.205          41.000       -4023.150
 134674791.292 6  25627762.237          40.000       -1678.369
 197740549.288 7  37628773.754          42.000       -1160.487
 197429832.750 6  37569657.790          41.000       -1165.051
 07  8 29 13 25 52.0010000  0  9G20G28G17G11G 4G19G 1S37S29
 110324539.906 8  20994063.971          49.000       -1885.959
 112497445.775 8  21407557.717          49.000       -2529.316
 112965517.076 8  21496624.947          50.000         753.714
 119015473.059 8  22647893.623          50.000       -3416.673
 123530386.225 8  23507053.555          49.000        1207.169
 135678799.429 7  25818889.828          42.000       -4022.999
 134676471.068 6  25628081.593          39.000       -1679.126
 197741710.352 7  37628994.622          42.000       -1159.655
 197430996.380 6  37569878.989          41.000       -1163.283
 07  8 29 13 25 53.0010000  0  9G20G28G17G11G 4G19G 1S37S29
 110326425.762 8  20994422.748          49.000       -1886.135
 112499975.632 8  21408039.133          49.000       -2530.007
 112964763.660 8  21496481.751          51.000         753.341
 119018889.530 8  22648543.835          50.000       -3416.662
 123529179.069 8  23506824.137          49.000        1207.170
 135682822.284 7  25819655.857          42.000       -4022.780
 134678151.278 6  25628400.914          37.000       -1679.636
 197742871.278 7  37629215.524          44.000       -1159.623
 197432159.763 7  37570100.396          43.000       -1166.212
 07  8 29 13 25 54.0010000  0  9G20G28G17G11G 4G19G 1S37S29
 110328312.263 8  20994781.716          49.000       -1886.187
 112502506.106 8  21408520.375          49.000       -2530.591
 112964010.530 8  21496338.449          50.000         753.611
 119022306.122 8  22649193.839          50.000       -3416.379
 123527972.128 8  23506594.352          49.000        1207.373
 135686845.293 7  25820422.097          42.000       -4022.024
 134679832.017 6  25628720.306          37.000       -1679.769
 197744032.093 7  37629436.321          44.000       -1161.036
 197433323.310 7  37570321.876          43.000       -1162.892
 07  8 29 13 25 55.0010000  0  9G20G28G17G11G 4G19G 1S37S29
 110330199.133 8  20995140.771          49.000       -1887.406
 112505036.927 8  21409001.983          49.000       -2531.362
 112963257.405 8  21496194.973          50.000         752.891
 119025722.560 8  22649844.121          50.000       -3416.408
 123526765.159 8  23506364.428          49.000        1206.653
 135690868.163 6  25821188.213          41.000       -4022.476
 134681513.109 6  25629039.138          37.000       -1681.296
 197745192.815 7  37629657.276          43.000       -1161.439
 197434486.429 7  37570543.197          42.000       -1162.641
 07  8 29 13 25 56.0010000  0  9G20G28G17G11G 4G19G 1S37S29
 110332086.631 8  20995499.914          49.000       -1887.187
 112507568.359 8  21409484.010          50.000       -2531.360
 112962504.529 8  21496051.655          50.000         752.897
 119029139.107 8  22650494.508          50.000       -3416.321
 123525558.394 8  23506135.255          49.000        1207.167
 135694891.156 6  25821954.086          41.000       -4022.886
 134683194.713 6  25629358.477          37.000       -1681.729
 197746353.945 7  37629878.213          43.000       -1161.869
 197435649.404 7  37570764.431          42.000       -1162.241
 07  8 29 13 25 57.0010000  0  9G20G28G17G11G 4G19G 1S37S29
 110333974.668 8  20995858.969          49.000       -1888.201
 112510100.326 8  21409965.654          50.000       -2532.155
 112961751.856 8  21495908.336          50.000         752.882
 119032555.699 8  22651144.651          50.000       -3416.609
 123524351.766 8  23505905.732          48.000        1206.885
 135698914.274 6  25822719.749          41.000       -4023.467
 134684876.818 5  25629677.536          35.000       -1684.054
 197747514.959 7  37630099.151          42.000       -1161.100
 197436812.307 7  37570985.857          42.000       -1163.272
 07  8 29 13 25 58.0010000  0  9G20G28G17G11G 4G19G 1S37S29
 110335863.224 8  20996218.514          49.000       -1888.868
 112512632.788 8  21410447.698          49.000       -2532.132
 112960999.337 8  21495765.227          50.000         752.487
 119035972.280 8  22651794.898          50.000       -3416.491
 123523145.210 8  23505676.157          48.000        1206.504
 135702937.338 6  25823484.906          41.000       -4023.288
 134686559.314 5  25629996.945          35.000       -1683.498
 197748675.945 7  37630320.053          44.000       -1160.709
 197437975.425 7  37571207.283          43.000       -1162.240
 07  8 29 13 25 59.0010000  0  9G20G28G17G11G 4G19G 1S37S29
 110337752.297 8  20996578.372          49.000       -1889.355
 112515165.736 8  21410929.970          49.000       -2533.359
 112960246.967 8  21495622.135          50.000         752.373
 119039388.872 8  22652444.797          50.000       -3416.251
 123521938.792 8  23505446.930          49.000        1206.323
 135706960.457 6  25824251.076          41.000       -4022.788
 134688242.295 6  25630316.947          36.000       -1683.940
 197749836.920 7  37630541.060          42.000       -1160.193
 197439138.196 6  37571428.516          41.000       -1162.732
 07  8 29 13 26  0.0010000  0  9G20G28G17G11G 4G19G 1S37S29
 110339641.993 8  20996938.090          49.000       -1889.849
 112517699.294 8  21411411.927          49.000       -2533.685
 112959494.851 8  21495479.165          50.000         752.322
 119042805.558 8  22653094.887          50.000       -3416.641
 123520732.539 8  23505217.338          49.000        1206.355
 135710983.691 6  25825016.442          41.000       -4023.019
 134689925.777 6  25630637.280          36.000       -1683.713
 197750997.686 7  37630761.858          44.000       -1160.862
 197440300.714 7  37571649.960          43.000       -1161.854
 07  8 29 13 26  1.0010000  0  9G20G28G17G11G 4G19G 1S37S29
 110341532.300 8  20997297.722          49.000       -1890.456
 112520233.448 8  21411894.129          49.000       -2533.954
 112958742.993 8  21495335.951          50.000         752.156
 119046222.348 8  22653745.152          50.000       -3416.528
 123519526.518 8  23504987.815          49.000        1206.184
 135715007.014 6  25825782.524          41.000       -4023.489
 134691609.805 6  25630957.562          37.000       -1682.667
 197752158.265 7  37630982.882          43.000       -1159.717
 197441463.474 7  37571871.141          42.000       -1164.454
 07  8 29 13 26  2.0010000  0  9G20G28G17G11G 4G19G 1S37S29
 110343423.169 8  20997657.580          49.000       -1890.838
 112522768.141 8  21412376.470          49.000       -2534.521
 112957991.334 8  21495192.563          50.000         751.680
 119049639.177 8  22654395.591          50.000       -3416.905
 123518320.601 8  23504758.066          49.000        1206.148
 135719030.430 6  25826547.995          41.000       -4023.231
 134693294.284 6  25631278.035          37.000       -1684.305
 197753318.684 7  37631203.645          43.000       -1160.334
 197442626.212 7  37572092.549          42.000       -1163.334
 07  8 29 13 26  3.0010000  0  9G20G28G17G11G 4G19G 1S37S29
 110345314.566 8  20998017.386          49.000       -1891.567
 112525303.336 8  21412858.515          49.000       -2535.323
 112957239.835 8  21495049.558          50.000         751.359
 119053056.016 8  22655045.786          50.000       -3417.146
 123517114.805 8  23504528.595          49.000        1205.892
 135723053.880 6  25827313.571          39.000       -4022.969
 134694979.193 6  25631599.153          37.000       -1684.857
 197754479.026 7  37631424.407          43.000       -1160.789
 197443788.807 7  37572313.749          42.000       -1161.631
 07  8 29 13 26  4.0010000  0  9G20G28G17G11G 4G19G 1S37S29
 110347206.597 8  20998377.296          49.000       -1892.709
 112527839.158 8  21413341.257          49.000       -2535.928
 112956488.600 8  21494906.292          50.000         750.800
 119056472.983 8  22655695.981          50.000       -3417.100
 123515909.208 8  23504299.037          49.000        1205.498
 135727077.450 6  25828079.077          38.000       -4023.871
 134696664.681 6  25631920.045          38.000       -1686.286
 197755639.621 7  37631645.345          44.000       -1160.449
 197444951.638 6  37572534.965          41.000       -1163.038
 07  8 29 13 26  5.0010000  0  9G20G28G17G11G 4G19G 1S37S29
 110349099.169 8  20998737.381          49.000       -1892.776
 112530375.488 8  21413823.808          49.000       -2536.686
 112955737.552 8  21494763.078          50.000         751.249
 119059889.966 8  22656346.334          50.000       -3416.796
 123514703.721 8  23504069.375          49.000        1205.611
 135731101.065 6  25828844.758          40.000       -4023.913
 134698350.636 6  25632240.779          38.000       -1687.387
 197756799.980 7  37631866.177          44.000       -1161.336
 197446114.542 7  37572756.216          43.000       -1162.713
 07  8 29 13 26  6.0010000  0  9G20G28G17G11G 4G19G 1S37S29
 110350992.334 8  20999097.606          49.000       -1893.398
 112532912.396 8  21414306.079          49.000       -2537.058
 112954986.724 8  21494620.666          50.000         750.562
 119063307.026 8  22656996.651          50.000       -3417.103
 123513498.405 8  23503840.306          49.000        1205.570
 135735124.773 6  25829610.421          40.000       -4023.750
 134700037.077 6  25632562.073          39.000       -1686.666
 197757960.377 7  37632086.975          44.000       -1160.606
 197447277.302 7  37572977.433          42.000       -1162.909
 07  8 29 13 26  7.0010000  0  9G20G28G17G11G 4G19G 1S37S29
 110352885.963 8  20999458.354          49.000       -1893.590
 112535449.761 8  21414789.223          50.000       -2537.562
 112954236.013 8  21494478.063          50.000         750.502
 119066724.036 8  22657646.776          50.000       -3416.721
 123512293.149 8  23503610.783          49.000        1205.424
 135739148.437 6  25830375.788          40.000       -4022.975
 134701723.908 6  25632883.122          39.000       -1686.778
 197759120.509 7  37632307.720          43.000       -1160.403
 197448439.886 7  37573198.719          42.000       -1162.303
 07  8 29 13 26  8.0010000  0  9G20G28G17G11G 4G19G 1S37S29
 110354780.154 8  20999818.840          49.000       -1894.214
 112537987.665 8  21415272.140          50.000       -2537.860
 112953485.499 8  21494334.902          50.000         750.982
 119070141.086 8  22658297.059          50.000       -3416.921
 123511088.058 8  23503381.522          49.000        1205.621
 135743172.140 6  25831141.084          41.000       -4023.473
 134703411.208 6  25633204.259          40.000       -1686.302
 197760280.460 7  37632528.466          43.000       -1159.578
 197449602.205 7  37573420.022          42.000       -1162.885
 07  8 29 13 26  9.0010000  0  9G20G28G17G11G 4G19G 1S37S29
 110356674.851 8  21000179.379          49.000       -1894.849
 112540526.055 8  21415755.023          49.000       -2538.702
 112952735.118 8  21494191.914          50.000         750.489
 119073558.124 8  22658947.358          50.000       -3416.955
 123509883.028 8  23503152.366          49.000        1205.110
 135747195.914 7  25831906.590          43.000       -4023.544
 134705098.932 6  25633525.464          40.000       -1688.410
 197761440.516 7  37632749.106          43.000       -1160.648
 197450764.822 7  37573641.274          42.000       -1162.936
 07  8 29 13 26 10.0010000  0  9G20G28G17G11G 4G19G 1S37S29
 110358570.154 8  21000540.214          49.000       -1895.706
 112543065.034 8  21416238.201          49.000       -2539.382
 112951985.001 8  21494049.416          50.000         750.273
 119076975.255 8  22659597.920          50.000       -3417.528
 123508678.197 8  23502923.210          49.000        1204.991
 135751219.738 7  25832672.411          42.000       -4023.459
 134706787.201 6  25633846.513          39.000       -1688.384
 197762600.626 7  37632969.746          44.000       -1160.777
 197451926.860 7  37573862.176          43.000       -1162.427
 07  8 29 13 26 11.0010000  0  9G20G28G17G11G 4G19G 1S37S29
 110360466.003 8  21000900.788          49.000       -1895.412
 112545604.542 8  21416721.660          49.000       -2539.573
 112951235.055 8  21493906.621          50.000         749.790
 119080392.415 8  22660248.063          50.000       -3417.318
 123507473.503 8  23502693.879          49.000        1205.081
 135755243.628 6  25833437.481          41.000       -4023.492
 134708475.933 6  25634167.196          38.000       -1688.526
 197763760.368 7  37633190.457          42.000       -1160.652
 197453088.827 6  37574083.218          41.000       -1163.084
 07  8 29 13 26 12.0010000  0  9G20G28G17G11G 4G19G 1S37S29
 110362362.446 8  21001261.658          49.000       -1896.608
 112548144.617 8  21417205.083          49.000       -2540.261
 112950485.346 8  21493763.948          50.000         749.770
 119083809.662 8  22660898.293          50.000       -3417.066
 123506268.968 8  23502464.583          49.000        1204.305
 135759267.639 6  25834202.935          41.000       -4023.096
 134710165.166 6  25634488.088          39.000       -1689.085
 197764920.225 7  37633411.115          44.000       -1160.764
 197454250.585 7  37574304.208          43.000       -1162.144
 07  8 29 13 26 13.0010000  0  9G20G28G17G11G 4G19G 1S37S29
 110364259.518 8  21001622.494          49.000       -1897.392
 112550685.314 8  21417689.029          49.000       -2540.685
 112949735.906 8  21493621.484          50.000         749.413
 119087227.009 8  22661548.627          50.000       -3417.092
 123505064.649 8  23502235.601          49.000        1204.471
 135763291.761 6  25834968.039          39.000       -4023.752
 134711854.944 6  25634809.154          38.000       -1689.925
 197766080.104 7  37633631.825          43.000       -1160.047
 197455412.871 7  37574525.476          42.000       -1162.702
 07  8 29 13 26 14.0010000  0  9G20G28G17G11G 4G19G 1S37S29
 110366157.096 8  21001983.556          49.000       -1897.798
 112553226.486 8  21418172.505          49.000       -2541.712
 112948986.632 8  21493479.090          50.000         749.245
 119090644.355 8  22662198.787          50.000       -3417.610
 123503860.390 8  23502006.445          49.000        1203.825
 135767315.904 6  25835732.428          38.000       -4024.497
 134713545.180 6  25635130.063          38.000       -1690.818
 197767239.730 7  37633852.675          43.000       -1160.257
 197456575.229 7  37574746.466          42.000       -1162.695
 07  8 29 13 26 15.0010000  0  9G20G28G17G11G 4G19G 1S37S29
 110368055.197 8  21002344.566          49.000       -1897.835
 112555768.169 8  21418656.329          49.000       -2541.818
 112948237.507 8  21493336.243          50.000         749.336
 119094061.729 8  22662848.791          50.000       -3417.306
 123502656.258 8  23501777.236          49.000        1204.523
 135771340.069 6  25836498.161          38.000       -4024.594
 134715235.829 6  25635450.955          37.000       -1691.121
 197768399.124 7  37634073.195          43.000       -1157.611
 197457737.207 7  37574967.491          42.000       -1161.157
 07  8 29 13 26 16.0010000  0  9G20G28G17G11G 4G19G 1S37S29
 110369953.971 8  21002706.256          49.000       -1899.053
 112558310.503 8  21419139.927          50.000       -2542.940
 112947488.696 8  21493193.726          50.000         748.594
 119097479.246 8  22663498.933          50.000       -3417.436
 123501452.357 8  23501548.045          49.000        1203.937
 135775364.433 6  25837263.720          39.000       -4024.212
 134716927.094 6  25635772.318          37.000       -1691.674
 197769558.678 7  37634293.730          44.000       -1158.393
 197458899.416 7  37575188.689          43.000       -1162.617
 07  8 29 13 26 17.0010000  0  9G20G28G17G11G 4G19G 1S37S29
 110371853.317 8  21003067.668          49.000       -1898.930
 112560853.404 8  21419623.839          50.000       -2542.936
 112946740.088 8  21493051.071          50.000         748.781
 119100896.824 8  22664149.268          50.000       -3417.455
 123500248.627 8  23501318.958          49.000        1203.575
 135779388.868 6  25838029.487          40.000       -4025.052
 134718618.839 6  25636093.349          37.000       -1693.067
 197770718.563 7  37634514.615          45.000       -1159.730
 197460061.339 7  37575409.767          43.000       -1161.521
 07  8 29 13 26 18.0010000  0  9G20G28G17G11G 4G19G 1S37S29
 110373753.192 8  21003429.358          49.000       -1900.033
 112563396.795 8  21420108.100          49.000       -2543.395
 112945991.651 8  21492908.590          50.000         748.637
 119104314.408 8  22664799.830          50.000       -3417.346
 123499044.986 8  23501089.907          49.000        1203.683
 135783413.342 6  25838794.906          40.000       -4024.837
 134720311.058 6  25636415.411          36.000       -1691.448
 197771878.371 7  37634735.220          44.000       -1159.170
 197461222.915 7  37575630.861          43.000       -1161.197
 07  8 29 13 26 19.0010000  0  9G20G28G17G11G 4G19G 1S37S29
 110375653.497 8  21003791.049          49.000       -1900.301
 112565940.599 8  21420591.977          49.000       -2543.851
 112945243.281 8  21492766.370          50.000         748.385
 119107731.914 8  22665449.903          49.000       -3417.180
 123497841.377 8  23500860.768          49.000        1204.184
 135787437.756 6  25839560.552          40.000       -4024.569
 134722003.602 6  25636736.773          36.000       -1695.355
 197773037.732 7  37634955.983          43.000       -1158.729
 197462384.204 7  37575851.728          42.000       -1162.060
 07  8 29 13 26 20.0010000  0  9G20G28G17G11G 4G19G 1S37S29
 110377554.347 8  21004152.704          49.000       -1900.697
 112568484.938 8  21421076.342          49.000       -2544.263
 112944495.108 8  21492623.610          49.000         748.669
 119111149.453 8  22666099.923          49.000       -3417.242
 123496637.884 8  23500631.577          48.000        1203.647
 135791462.224 6  25840325.936          39.000       -4024.326
 134723696.619 6  25637058.364          37.000       -1692.642
 197774196.686 7  37635176.519          43.000       -1159.600
 197463545.389 6  37576072.439          41.000       -1161.459
 07  8 29 13 26 21.0010000  0  9G20G28G17G11G 4G19G 1S37S29
 110379455.776 8  21004514.551          49.000       -1902.038
 112571029.833 8  21421560.585          49.000       -2545.038
 112943747.134 8  21492481.600          49.000         747.831
 119114567.037 8  22666750.031          49.000       -3417.569
 123495434.539 8  23500402.228          49.000        1203.026
 135795486.725 6  25841091.774          38.000       -4024.688
 134725390.094 6  25637380.668          37.000       -1694.783
 197775355.628 7  37635397.090          43.000       -1157.255
 197464706.590 6  37576293.428          41.000       -1161.957
 07  8 29 13 26 22.0010000  0  9G20G28G17G11G 4G19G 1S37S29
 110381357.888 8  21004876.190          49.000       -1901.906
 112573575.394 8  21422045.143          49.000       -2545.607
 112942999.496 8  21492339.049          49.000         747.651
 119117984.796 8  22667400.436          49.000       -3417.562
 123494231.487 8  23500173.281          48.000        1203.231
 135799511.442 6  25841857.891          38.000       -4025.413
 134727084.207 6  25637704.300          38.000       -1694.274
 197776514.902 7  37635617.730          44.000       -1159.385
 197465868.056 7  37576514.261          42.000       -1161.179
 07  8 29 13 26 23.0010000  0  9G20G28G17G11G 4G19G 1S37S29
 110383260.478 8  21005238.037          49.000       -1902.968
 112576121.396 8  21422529.386          49.000       -2545.916
 112942251.979 8  21492196.795          49.000         747.550
 119121402.518 8  22668050.945          49.000       -3417.587
 123493028.484 8  23499944.649          48.000        1203.044
 135803536.136 6  25842624.584          38.000       -4024.267
 134728778.723 6  25638027.513          39.000       -1694.394
 197777674.302 7  37635838.318          44.000       -1159.918
 197467029.461 7  37576735.233          42.000       -1162.228
 07  8 29 13 26 24.0010000  0  9G20G28G17G11G 4G19G 1S37S29
 110385163.488 8  21005600.146          49.000       -1903.200
 112578667.828 8  21423013.664          49.000       -2546.613
 112941504.523 8  21492054.489          49.000         747.685
 119124820.151 8  22668701.506          49.000       -3417.474
 123491825.514 8  23499715.562          49.000        1203.189
 135807560.775 6  25843390.648          39.000       -4024.588
 134730473.530 6  25638351.180          39.000       -1694.730
 197778833.310 7  37636058.715          42.000       -1157.772
 197468190.750 6  37576956.362          41.000       -1161.388
 07  8 29 13 26 25.0010000  0  9G20G28G17G11G 4G19G 1S37S29
 110387067.153 8  21005962.221          49.000       -1903.859
 112581214.861 8  21423498.571          49.000       -2547.261
 112940757.347 8  21491912.304          49.000         746.975
 119128237.905 8  22669351.667          49.000       -3417.485
 123490622.721 8  23499486.807          48.000        1202.706
 135811585.530 6  25844157.742          39.000       -4025.604
 134732168.922 6  25638674.200          40.000       -1695.954
 197779992.000 7  37636279.268          43.000       -1158.326
 197469352.431 6  37577177.351          41.000       -1162.886
 07  8 29 13 26 26.0010000  0  9G20G28G17G11G 4G19G 1S37S29
 110388971.358 8  21006324.906          49.000       -1904.205
 112583762.433 8  21423983.059          49.000       -2547.429
 112940010.354 8  21491770.189          49.000         747.107
 119131655.675 8  22670001.949          49.000       -3417.291
 123489420.065 8  23499257.808          48.000        1202.620
 135815610.329 6  25844923.859          39.000       -4025.121
 134733864.771 6  25638997.501          40.000       -1695.368
 197781150.662 7  37636499.665          43.000       -1158.178
 197470513.329 6  37577398.149          41.000       -1160.720
 07  8 29 13 26 27.0010000  0  9G20G28G17G11G 4G19G 1S37S29
 110390876.097 8  21006687.242          49.000       -1904.606
 112586310.512 8  21424467.948          49.000       -2547.718
 112939263.542 8  21491627.883          50.000         746.968
 119135073.474 8  22670652.249          49.000       -3417.509
 123488217.536 8  23499028.774          48.000        1202.960
 135819635.227 6  25845689.644          41.000       -4025.359
 134735561.038 6  25639321.690          41.000       -1697.072
 197782309.092 7  37636720.148          43.000       -1158.144
 197471674.387 7  37577618.964          42.000       -1161.841
 07  8 29 13 26 28.0010000  0  9G20G28G17G11G 4G19G 1S37S29
 110392781.458 8  21007049.770          49.000       -1905.201
 112588859.202 8  21424953.116          49.000       -2548.884
 112938516.989 8  21491486.047          50.000         746.992
 119138491.377 8  22671302.549          49.000       -3417.600
 123487015.177 8  23498799.705          48.000        1202.069
 135823660.219 6  25846455.779          40.000       -4024.493
 134737257.911 6  25639645.357          40.000       -1697.522
 197783467.693 7  37636940.475          42.000       -1157.975
 197472835.533 6  37577839.745          41.000       -1159.875
 07  8 29 13 26 29.0010000  0  9G20G28G17G11G 4G19G 1S37S29
 110394687.420 8  21007412.490          49.000       -1906.273
 112591408.487 8  21425438.354          49.000       -2549.014
 112937770.684 8  21491344.317          50.000         746.476
 119141909.379 8  22671953.232          49.000       -3417.726
 123485813.023 8  23498570.705          48.000        1201.988
 135827685.304 6  25847222.419          40.000       -4024.553
 134738955.280 6  25639969.146          41.000       -1696.497
 197784626.151 7  37637160.801          42.000       -1158.989
 197473996.277 6  37578060.768          41.000       -1162.650
 07  8 29 13 26 30.0010000  0  9G20G28G17G11G 4G19G 1S37S29
 110396593.851 8  21007775.280          49.000       -1906.618
 112593958.207 8  21425923.225          49.000       -2549.977
 112937024.489 8  21491202.638          50.000         746.048
 119145327.320 8  22672603.776          49.000       -3417.545
 123484610.929 8  23498341.741          48.000        1202.198
 135831710.367 6  25847988.606          40.000       -4025.128
 134740653.030 6  25640292.585          41.000       -1698.774
 197785784.626 7  37637381.284          44.000       -1158.535
 197475156.927 7  37578281.601          42.000       -1161.739
 07  8 29 13 26 31.0010000  0  9G20G28G17G11G 4G19G 1S37S29
 110398500.826 8  21008138.192          49.000       -1907.703
 112596508.440 8  21426408.463          49.000       -2550.033
 112936278.465 8  21491060.663          50.000         745.768
 119148745.306 8  22673253.797          49.000       -3417.746
 123483408.917 8  23498113.213          48.000        1201.526
 135835735.491 6  25848754.095          40.000       -4024.511
 134742351.247 6  25640615.973          41.000       -1697.580
 197786943.117 7  37637601.925          43.000       -1158.379
 197476317.699 7  37578502.399          42.000       -1160.444
 07  8 29 13 26 32.0010000  0  9G20G28G17G11G 4G19G 1S37S29
 110400408.413 8  21008501.052          49.000       -1907.655
 112599059.279 8  21426893.666          49.000       -2551.163
 112935532.705 8  21490918.531          50.000         745.664
 119152163.363 8  22673904.236          49.000       -3417.893
 123482207.115 8  23497884.179          48.000        1201.798
 135839760.681 6  25849519.636          40.000       -4025.058
 134744049.988 6  25640939.587          41.000       -1698.698
 197788101.652 7  37637822.443          43.000       -1159.298
 197477478.333 7  37578723.284          42.000       -1160.660
 07  8 29 13 26 33.0010000  0  9G20G28G17G11G 4G19G 1S37S29
 110402316.568 8  21008864.103          49.000       -1908.521
 112601610.657 8  21427379.009          49.000       -2551.549
 112934787.155 8  21490776.783          50.000         745.624
 119155581.486 8  22674554.449          49.000       -3418.389
 123481005.473 8  23497655.406          48.000        1201.763
 135843785.976 6  25850285.840          40.000       -4025.083
 134745749.229 6  25641262.729          41.000       -1699.266
 197789260.127 7  37638042.804          42.000       -1159.088
 197478638.933 6  37578944.169          41.000       -1160.121
 07  8 29 13 26 34.0010000  0  9G20G28G17G11G 4G19G 1S37S29
 110404225.091 8  21009227.399          49.000       -1908.704
 112604162.399 8  21427864.509          49.000       -2551.625
 112934041.610 8  21490634.947          50.000         745.363
 119158999.460 8  22675204.801          49.000       -3417.933
 123479803.759 8  23497426.879          48.000        1202.297
 135847811.133 6  25851052.079          40.000       -4024.476
 134747448.752 6  25641586.745          41.000       -1699.666
 197790418.116 7  37638262.800          44.000       -1157.721
 197479799.721 7  37579164.967          42.000       -1160.594
 07  8 29 13 26 35.0010000  0  9G20G28G17G11G 4G19G 1S37S29
 110406134.198 8  21009590.538          49.000       -1908.780
 112606714.697 8  21428349.922          49.000       -2552.052
 112933296.297 8  21490493.112          50.000         745.384
 119162417.495 8  22675855.258          49.000       -3417.779
 123478602.243 8  23497198.019          48.000        1201.308
 135851836.383 6  25851818.161          40.000       -4024.746
 134749148.765 6  25641910.726          41.000       -1699.552
 197791576.040 7  37638483.073          44.000       -1159.122
 197480959.760 6  37579385.695          41.000       -1159.018
 07  8 29 13 26 36.0010000  0  9G20G28G17G11G 4G19G 1S37S29
 110408043.884 8  21009953.903          49.000       -1909.825
 112609267.557 8  21428835.788          49.000       -2552.879
 112932551.198 8  21490351.486          50.000         745.287
 119165835.608 8  22676505.523          49.000       -3417.982
 123477400.882 8  23496969.421          48.000        1201.158
 135855861.672 6  25852584.452          40.000       -4025.587
 134750849.291 6  25642234.375          41.000       -1700.048
 197792734.113 7  37638703.296          43.000       -1157.899
 197482119.408 7  37579606.196          42.000       -1159.859
 07  8 29 13 26 37.0010000  0  9G20G28G17G11G 4G19G 1S37S29
 110409954.076 8  21010317.339          49.000       -1910.213
 112611820.880 8  21429321.427          48.000       -2553.081
 112931806.248 8  21490210.174          50.000         744.555
 119169253.698 8  22677155.980          49.000       -3417.661
 123476199.587 8  23496740.945          48.000        1201.927
 135859887.039 6  25853350.604          40.000       -4024.378
 134752550.246 6  25642558.373          41.000       -1700.767
 197793891.717 7  37638923.482          43.000       -1158.774
 197483279.084 6  37579827.028          41.000       -1159.847
 07  8 29 13 26 38.0010000  0  9G20G28G17G11G 4G19G 1S37S29
 110411864.759 8  21010681.211          49.000       -1910.099
 112614374.688 8  21429807.503          48.000       -2553.589
 112931061.425 8  21490068.583          50.000         745.079
 119172671.766 8  22677806.332          48.000       -3418.307
 123474998.402 7  23496511.963          47.000        1201.358
 135863912.366 6  25854116.424          40.000       -4024.731
 134754251.603 6  25642881.969          41.000       -1701.313
 197795049.200 7  37639143.600          43.000       -1157.298
 197484438.897 6  37580047.721          41.000       -1159.525
 07  8 29 13 26 39.0010000  0  9G20G28G17G11G 4G19G 1S37S29
 110413775.976 8  21011044.541          48.000       -1911.619
 112616929.030 8  21430293.107          48.000       -2554.061
 112930316.794 8  21489926.992          50.000         744.516
 119176089.862 8  22678456.859          48.000       -3417.764
 123473797.305 7  23496283.121          47.000        1201.020
 135867937.727 6  25854882.262          40.000       -4026.036
 134755953.417 6  25643205.391          41.000       -1701.852
 197796206.490 7  37639363.857          42.000       -1156.201
 197485598.533 6  37580268.414          41.000       -1160.879
 07  8 29 13 26 40.0010000  0  9G20G28G17G11G 4G19G 1S37S29
 110415687.788 8  21011408.274          48.000       -1912.155
 112619483.934 8  21430779.322          48.000       -2555.053
 112929572.395 8  21489785.296          50.000         744.458
 119179508.024 8  22679107.385          49.000       -3418.253
 123472596.406 7  23496054.907          47.000        1200.881
 135871963.159 6  25855648.344          40.000       -4026.393
 134757655.749 6  25643528.761          40.000       -1702.308
 197797363.956 7  37639584.113          44.000       -1157.726
 197486758.479 7  37580489.229          43.000       -1159.724
 07  8 29 13 26 41.0010000  0  9G20G28G17G11G 4G19G 1S37S29
 110417600.283 8  21011772.425          49.000       -1912.517
 112622039.498 8  21431265.555          48.000       -2555.998
 112928828.315 8  21489643.967          50.000         744.332
 119182926.362 8  22679758.086          48.000       -3418.161
 123471395.733 7  23495826.170          47.000        1200.998
 135875988.829 6  25856414.548          41.000       -4025.381
 134759358.682 6  25643852.584          40.000       -1703.683
 197798521.731 7  37639804.317          44.000       -1157.297
 197487918.314 7  37580709.922          43.000       -1160.157
 07  8 29 13 26 42.0010000  0  9G20G28G17G11G 4G19G 1S37S29
 110419513.153 8  21012136.419          49.000       -1912.678
 112624595.421 8  21431751.962          48.000       -2556.097
 112928084.252 8  21489502.096          50.000         744.041
 119186344.545 8  22680408.404          48.000       -3418.026
 123470195.011 7  23495597.484          47.000        1200.933
 135880014.322 6  25857180.805          40.000       -4025.060
 134761061.873 6  25644176.374          40.000       -1702.626
 197799679.055 7  37640024.575          44.000       -1155.810
 197489078.061 7  37580930.510          42.000       -1159.713
 07  8 29 13 26 43.0010000  0  9G20G28G17G11G 4G19G 1S37S29
 110421426.551 8  21012500.604          49.000       -1913.214
 112627151.867 8  21432238.422          48.000       -2556.674
 112927340.365 8  21489360.784          51.000         743.744
 119189762.751 8  22681058.860          49.000       -3418.372
 123468994.426 7  23495368.817          47.000        1200.733
 135884039.875 6  25857946.660          41.000       -4025.323
 134762765.555 6  25644500.232          40.000       -1702.489
 197800836.207 7  37640244.709          43.000       -1156.874
 197490237.593 7  37581151.256          42.000       -1159.281
 07  8 29 13 26 44.0010000  0  9G20G28G17G11G 4G19G 1S37S29
 110423340.561 8  21012865.244          49.000       -1914.187
 112629708.914 8  21432725.073          48.000       -2557.152
 112926596.737 8  21489219.577          50.000         743.792
 119193181.056 8  22681709.457          49.000       -3418.230
 123467794.023 7  23495140.533          47.000        1200.501
 135888065.555 7  25858712.306          42.000       -4025.201
 134764469.777 6  25644824.335          39.000       -1703.626
 197801993.393 7  37640464.895          42.000       -1157.170
 197491397.076 7  37581371.721          42.000       -1160.579
 07  8 29 13 26 45.0010000  0  9G20G28G17G11G 4G19G 1S37S29
 110425255.127 8  21013229.412          49.000       -1914.622
 112632266.478 8  21433211.707          48.000       -2557.513
 112925853.291 8  21489078.265          50.000         743.409
 119196599.405 8  22682360.175          49.000       -3418.478
 123466593.780 8  23494912.109          48.000        1200.106
 135892091.280 6  25859478.248          41.000       -4026.272
 134766174.472 6  25645148.838          40.000       -1705.113
 197803150.661 7  37640685.170          42.000       -1157.154
 197492556.453 6  37581592.327          41.000       -1158.825
 07  8 29 13 26 46.0010000  0  9G20G28G17G11G 4G19G 1S37S29
 110427170.228 8  21013593.912          49.000       -1915.399
 112634824.566 8  21433698.533          48.000       -2558.000
 112925110.043 8  21488936.587          51.000         743.455
 119200017.760 8  22683010.580          49.000       -3418.140
 123465393.686 7  23494683.913          47.000        1200.377
 135896117.070 6  25860243.893          41.000       -4026.108
 134767879.597 6  25645473.221          39.000       -1703.843
 197804308.028 7  37640905.531          42.000       -1157.258
 197493716.013 6  37581813.003          41.000       -1158.687
 07  8 29 13 26 47.0010000  0  9G20G28G17G11G 4G19G 1S37S29
 110429085.862 8  21013958.377          49.000       -1915.579
 112637383.183 8  21434185.394          49.000       -2558.337
 112924366.950 8  21488795.170          51.000         743.447
 119203436.153 8  22683661.089          49.000       -3418.049
 123464193.669 7  23494455.507          47.000        1200.439
 135900142.860 7  25861009.801          42.000       -4025.913
 134769585.218 6  25645797.620          39.000       -1705.279
 197805465.346 7  37641125.770          44.000       -1156.801
 197494875.380 7  37582033.765          42.000       -1159.780
 07  8 29 13 26 48.0010000  0  9G20G28G17G11G 4G19G 1S37S29
 110431001.987 8  21014323.017          49.000       -1916.733
 112639942.245 8  21434672.482          49.000       -2558.966
 112923623.994 8  21488654.050          51.000         742.650
 119206854.524 8  22684311.511          49.000       -3418.344
 123462993.701 7  23494227.171          47.000        1199.781
 135904168.623 6  25861775.796          40.000       -4025.721
 134771291.224 6  25646122.630          39.000       -1706.596
 197806622.609 7  37641345.974          44.000       -1157.879
 197496034.912 7  37582254.354          43.000       -1158.756
 07  8 29 13 26 49.0010000  0  9G20G28G17G11G 4G19G 1S37S29
 110432918.884 8  21014687.726          49.000       -1916.983
 112642502.068 8  21435159.692          49.000       -2559.811
 112922881.490 8  21488512.703          51.000         742.780
 119210273.143 8  22684962.003          49.000       -3418.184
 123461794.108 8  23493998.974          48.000        1200.200
 135908194.695 6  25862541.389          41.000       -4025.642
 134772997.935 6  25646447.989          41.000       -1705.671
 197807779.904 7  37641566.214          43.000       -1156.074
 197497194.075 7  37582474.820          42.000       -1159.365
 07  8 29 13 26 50.0010000  0  9G20G28G17G11G 4G19G 1S37S29
 110434836.342 8  21015052.627          49.000       -1917.650
 112645062.425 8  21435646.919          49.000       -2560.424
 112922139.151 8  21488371.636          50.000         742.460
 119213691.806 8  22685612.617          49.000       -3417.846
 123460594.619 7  23493770.603          47.000        1199.603
 135912220.832 7  25863307.052          42.000       -4026.088
 134774705.109 6  25646774.133          41.000       -1707.683
 197808936.974 7  37641786.366          43.000       -1156.943
 197498353.266 7  37582695.444          42.000       -1156.538
 07  8 29 13 26 51.0010000  0  9G20G28G17G11G 4G19G 1S37S29
 110436754.301 8  21015417.529          49.000       -1917.917
 112647623.267 8  21436134.408          49.000       -2560.725
 112921396.966 8  21488230.568          50.000         742.066
 119217110.453 8  22686263.283          49.000       -3418.627
 123459395.252 7  23493542.267          47.000        1198.956
 135916246.970 7  25864072.977          43.000       -4025.834
 134776412.696 6  25647099.336          40.000       -1707.388
 197810093.973 7  37642006.605          43.000       -1156.293
 197499512.280 6  37582916.100          41.000       -1161.062
 07  8 29 13 26 52.0010000  0  9G20G28G17G11G 4G19G 1S37S29
 110438672.767 8  21015782.744          49.000       -1918.480
 112650184.605 8  21436621.949          49.000       -2561.104
 112920654.935 8  21488089.396          51.000         742.088
 119220529.121 8  22686913.723          49.000       -3417.987
 123458195.978 7  23493314.175          47.000        1199.778
 135920273.140 6  25864838.798          41.000       -4025.967
 134778120.719 6  25647425.026          40.000       -1707.538
 197811250.855 7  37642226.809          45.000       -1156.815
 197500671.317 6  37583136.759          41.000       -1159.094
 07  8 29 13 26 53.0010000  0  9G20G28G17G11G 4G19G 1S37S29
 110440591.878 8  21016147.872          49.000       -1919.250
 112652746.565 8  21437109.316          49.000       -2561.754
 112919913.197 8  21487948.311          51.000         742.190
 119223947.895 8  22687564.354          49.000       -3418.294
 123456996.914 7  23493085.787          47.000        1199.353
 135924299.437 7  25865604.792          42.000       -4025.405
 134779829.281 6  25647750.438          40.000       -1708.911
 197812407.672 7  37642446.979          42.000       -1156.265
 197501830.540 6  37583357.137          41.000       -1159.747
 07  8 29 13 26 54.0010000  0  9G20G28G17G11G 4G19G 1S37S29
 110442511.534 8  21016513.245          49.000       -1919.495
 112655309.054 8  21437597.294          49.000       -2562.699
 112919171.640 8  21487807.208          51.000         741.090
 119227366.706 8  22688215.090          49.000       -3418.702
 123455797.976 7  23492857.852          47.000        1199.047
 135928325.767 6  25866371.485          41.000       -4026.172
 134781538.350 6  25648075.884          39.000       -1709.842
 197813564.152 7  37642667.130          44.000       -1157.316
 197502989.775 7  37583577.655          43.000       -1161.271
 07  8 29 13 26 55.0010000  0  9G20G28G17G11G 4G19G 1S37S29
 110444431.763 8  21016878.896          49.000       -1919.997
 112657872.099 8  21438084.940          49.000       -2562.861
 112918430.315 8  21487666.175          51.000         741.562
 119230785.573 8  22688865.494          49.000       -3418.911
 123454599.215 8  23492629.359          48.000        1198.493
 135932352.219 6  25867136.992          39.000       -4024.777
 134783247.903 6  25648400.388          40.000       -1709.515
 197814720.638 7  37642887.283          43.000       -1154.891
 197504148.701 7  37583798.332          42.000       -1158.004
 07  8 29 13 26 56.0010000  0  9G20G28G17G11G 4G19G 1S37S29
 110446352.531 8  21017244.077          49.000       -1920.863
 112660435.673 8  21438573.075          49.000       -2564.062
 112917689.171 8  21487525.352          51.000         741.084
 119234204.490 8  22689516.056          48.000       -3418.815
 123453400.553 8  23492401.319          48.000        1198.487
 135936378.681 6  25867903.631          41.000       -4027.134
 134784957.920 6  25648725.765          40.000       -1710.033
 197815877.042 7  37643107.365          43.000       -1155.346
 197505307.451 6  37584018.570          41.000       -1160.961
 07  8 29 13 26 57.0010000  0  9G20G28G17G11G 4G19G 1S37S29
 110448273.873 8  21017609.885          49.000       -1921.459
 112662999.792 8  21439061.018          49.000       -2564.038
 112916948.231 8  21487384.494          51.000         741.304
 119237623.423 8  22690166.652          49.000       -3418.470
 123452202.067 7  23492173.332          47.000        1198.681
 135940405.226 7  25868670.220          42.000       -4026.282
 134786668.432 6  25649051.002          40.000       -1709.787
 197817033.406 7  37643327.569          43.000       -1155.522
 197506466.229 6  37584239.159          41.000       -1159.012
 07  8 29 13 26 58.0010000  0  9G20G28G17G11G 4G19G 1S37S29
 110450195.754 8  21017975.624          49.000       -1921.993
 112665564.418 8  21439549.205          49.000       -2564.827
 112916207.473 8  21487243.583          51.000         741.275
 119241042.400 8  22690817.353          49.000       -3419.228
 123451003.696 8  23491945.520          48.000        1198.734
 135944431.810 6  25869436.546          41.000       -4025.948
 134788379.368 6  25649375.890          40.000       -1710.751
 197818189.573 7  37643547.616          44.000       -1155.964
 197507624.538 6  37584459.573          41.000       -1158.910
 07  8 29 13 26 59.0010000  0  9G20G28G17G11G 4G19G 1S37S29
 110452118.214 8  21018341.189          50.000       -1922.253
 112668129.606 8  21440037.025          49.000       -2565.013
 112915466.946 8  21487102.550          51.000         740.670
 119244461.443 8  22691467.967          49.000       -3418.944
 123449805.497 8  23491717.515          48.000        1198.576
 135948458.476 6  25870202.732          41.000       -4027.562
 134790090.844 6  25649701.196          40.000       -1711.882
 197819345.998 7  37643767.734          43.000       -1155.923
 197508782.853 7  37584679.987          43.000       -1158.357
 07  8 29 13 27  0.0010000  0 10G20G28G17G11G 4G19G23G 1S37S29
 110454041.169 8  21018707.155          50.000       -1922.865
 112670695.285 8  21440525.300          49.000       -2565.895
 112914726.557 8  21486961.430          51.000         740.661
 119247880.480 8  22692118.738          49.000       -3419.146
 123448607.347 8  23491489.650          48.000        1198.122
 135952485.192 6  25870968.099          37.000       -4026.680
                  24579588.137          31.000        1568.812
 134791802.706 6  25650026.660          40.000       -1711.818
 197820502.517 7  37643987.973          43.000       -1156.401
 197509941.498 7  37584900.505          43.000       -1158.316
 07  8 29 13 27  1.0010000  0 10G20G28G17G11G 4G19G23G 1S37S29
 110455964.742 8  21019073.330          50.000       -1923.713
 112673261.547 8  21441013.714          49.000       -2566.441
 112913986.427 8  21486820.328          51.000         740.042
 119251299.617 8  22692769.544          49.000       -3418.820
 123447409.428 8  23491261.802          48.000        1197.794
 135956512.002 6  25871734.007          37.000       -4026.200
                  24579288.726          31.000        1570.093
 134793515.135 6  25650352.752          40.000       -1712.393
 197821658.948 7  37644208.090          43.000       -1156.103
 197511099.769 7  37585120.814          42.000       -1157.155
 07  8 29 13 27  2.0010000  0 10G20G28G17G11G 4G19G23G 1S37S29
 110457888.931 8  21019439.714          50.000       -1924.587
 112675828.409 8  21441502.093          49.000       -2566.880
 112913246.567 8  21486679.312          51.000         739.783
 119254718.848 8  22693419.948          49.000       -3419.381
 123446211.697 8  23491034.147          48.000        1197.653
 135960538.888 6  25872499.774          37.000       -4027.552
                  24578992.089          31.000        1566.510
 134795228.110 6  25650678.600          39.000       -1713.954
 197822815.137 7  37644428.155          43.000       -1155.028
 197512258.133 7  37585341.227          42.000       -1160.219
 07  8 29 13 27  3.0010000  0 10G20G28G17G11G 4G19G23G 1S37S29
 110459813.666 8  21019806.221          50.000       -1924.878
 112678395.790 8  21441990.786          49.000       -2567.756
 112912506.889 8  21486538.803          51.000         739.652
 119258138.106 8  22694070.754          49.000       -3419.448
 123445014.092 8  23490806.177          48.000        1197.870
 135964565.813 6  25873265.909          37.000       -4026.732
                  24578695.052          32.000        1568.964
 134796941.519 6  25651004.239          39.000       -1712.801
 197823971.050 7  37644648.220          42.000       -1154.579
 197513416.255 6  37585561.694          41.000       -1158.226
 07  8 29 13 27  4.0010000  0 10G20G28G17G11G 4G19G23G 1S37S29
 110461739.023 8  21020172.571          50.000       -1925.510
 112680963.782 8  21442479.269          49.000       -2568.190
 112911767.491 8  21486397.666          50.000         739.491
 119261557.485 8  22694721.543          49.000       -3419.133
 123443816.686 8  23490578.172          48.000        1197.640
 135968592.893 6  25874031.939          37.000       -4026.269
                  24578398.538          32.000        1569.095
 134798655.480 6  25651329.562          39.000       -1714.098
 197825126.831 7  37644868.179          42.000       -1156.739
 197514574.322 6  37585782.003          41.000       -1157.533
 07  8 29 13 27  5.0010000  0 10G20G28G17G11G 4G19G23G 1S37S29
 110463664.942 8  21020539.095          49.000       -1926.013
 112683532.324 8  21442967.806          49.000       -2568.673
 112911028.292 8  21486256.790          51.000         739.413
 119264976.913 8  22695372.558          49.000       -3419.206
 123442619.434 8  23490350.552          48.000        1197.439
 135972620.077 6  25874798.841          36.000       -4026.399
 129158793.15035  24578101.221          33.000        1568.040
 134800369.963 6  25651655.777          40.000       -1714.885
 197826283.091 7  37645088.279          42.000       -1155.854
 197515732.896 6  37586002.555          41.000       -1159.993
 07  8 29 13 27  6.0010000  0 10G20G28G17G11G 4G19G23G 1S37S29
 110465591.500 8  21020905.706          49.000       -1926.646
 112686101.484 8  21443456.673          49.000       -2569.044
 112910289.374 8  21486116.054          50.000         738.948
 119268396.463 8  22696023.067          49.000       -3419.583
 123441422.386 8  23490122.983          48.000        1197.039
 135976647.354 5  25875564.678          35.000       -4028.668
 129157224.53125  24577803.084          33.000        1567.708
 134802084.976 6  25651981.851          40.000       -1715.483
 197827439.456 7  37645308.221          43.000       -1156.591
 197516890.864 6  37586222.813          41.000       -1158.264
 07  8 29 13 27  7.0010000  0 10G20G28G17G11G 4G19G23G 1S37S29
 110467518.603 8  21021272.475          49.000       -1926.928
 112688671.150 8  21443945.838          49.000       -2569.608
 112909550.643 8  21485975.248          50.000         738.832
 119271816.030 8  22696673.716          49.000       -3419.264
 123440225.492 8  23489895.502          48.000        1197.330
 135980674.759 5  25876330.585          34.000       -4028.866
 129155655.91225  24577504.511          33.000        1569.406
 134803800.440 6  25652307.629          40.000       -1715.791
 197828595.909 7  37645528.234          43.000       -1155.595
 197518048.914 7  37586443.314          42.000       -1157.787
 07  8 29 13 27  8.0010000  0 10G20G28G17G11G 4G19G23G 1S37S29
 110469446.241 8  21021639.383          50.000       -1927.394
 112691241.351 8  21444434.758          49.000       -2570.022
 112908812.105 8  21485834.617          50.000         738.898
 119275235.635 8  22697324.557          49.000       -3419.225
 123439028.691 8  23489667.951          48.000        1196.977
 135984702.113 6  25877097.086          36.000       -4028.415
 129154087.28725  24577206.042          33.000        1568.142
 134805516.422 6  25652634.001          39.000       -1715.734
 197829752.207 7  37645748.298          43.000       -1156.388
 197519206.832 6  37586663.797          41.000       -1158.602
 07  8 29 13 27  9.0010000  0 10G20G28G17G11G 4G19G23G 1S37S29
 110471374.413 8  21022006.500          50.000       -1928.491
 112693812.058 8  21444923.939          49.000       -2570.799
 112908073.737 8  21485693.846          50.000         738.353
 119278655.256 8  22697975.048          49.000       -3419.813
 123437832.018 8  23489440.086          48.000        1196.569
 135988729.595 6  25877863.517          36.000       -4028.008
 129152518.71225  24576907.364          33.000        1569.227
 134807232.790 6  25652959.970          40.000       -1717.377
 197830908.352 7  37645968.328          43.000       -1157.534
 197520364.976 6  37586884.245          41.000       -1159.608
 07  8 29 13 27 10.0010000  0 10G20G28G17G11G 4G19G23G 1S37S29
 110473303.163 8  21022373.303          50.000       -1928.752
 112696383.333 8  21445413.365          49.000       -2571.574
 112907335.585 8  21485553.633          50.000         738.191
 119282074.944 8  22698625.628          49.000       -3419.521
 123436635.498 8  23489212.605          48.000        1196.045
 135992757.076 5  25878629.687          34.000       -4027.240
 129150950.10425  24576608.896          34.000        1570.074
 134808949.697 6  25653286.446          39.000       -1716.937
 197832064.276 7  37646188.306          42.000       -1155.348
 197521522.971 6  37587104.678          40.000       -1156.595
 07  8 29 13 27 11.0010000  0 10G20G28G17G11G 4G19G23G 1S37S29
 110475232.415 8  21022740.560          50.000       -1929.595
 112698955.104 8  21445902.687          49.000       -2571.792
 112906597.609 8  21485413.264          50.000         738.104
 119285494.615 8  22699276.102          49.000       -3419.215
 123435439.089 8  23488985.334          48.000        1196.838
 135996784.646 5  25879395.873          35.000       -4027.959
 129149381.55725  24576310.549          34.000        1567.904
 134810667.056 6  25653613.045          39.000       -1716.333
 197833219.941 7  37646408.301          44.000       -1154.803
 197522680.741 7  37587324.794          42.000       -1158.262
 07  8 29 13 27 12.0010000  0 10G20G28G17G11G 4G19G23G 1S37S29
 110477162.239 8  21023107.922          50.000       -1929.542
 112701527.414 8  21446392.270          50.000       -2572.188
 112905859.836 8  21485272.772          50.000         738.332
 119288914.347 8  22699926.681          49.000       -3419.725
 123434242.812 8  23488757.643          48.000        1196.648
 136000812.254 6  25880162.112          36.000       -4027.257
 129147813.01025  24576012.343          34.000        1569.225
 134812384.861 6  25653940.515          40.000       -1718.512
 197834375.485 7  37646628.103          44.000       -1156.437
 197523838.912 7  37587545.400          43.000       -1157.168
 07  8 29 13 27 13.0010000  0 10G20G28G17G11G 4G19G23G 1S37S29
 110479092.532 8  21023475.162          50.000       -1930.661
 112704100.165 8  21446881.870          49.000       -2573.262
 112905122.179 8  21485132.280          51.000         737.921
 119292334.045 8  22700577.260          49.000       -3419.510
 123433046.573 8  23488530.302          49.000        1196.332
 136004839.785 5  25880928.264          35.000       -4027.635
 129146244.891 5  24575713.944          34.000        1569.383
 134814103.052 6  25654267.811          40.000       -1718.780
 197835530.754 7  37646847.890          43.000       -1153.791
 197524996.759 7  37587765.831          42.000       -1158.895
 07  8 29 13 27 14.0010000  0 10G20G28G17G11G 4G19G23G 1S37S29
 110481023.436 8  21023842.646          49.000       -1931.400
 112706673.511 8  21447371.610          49.000       -2573.625
 112904384.776 8  21484991.963          50.000         737.084
 119295753.805 8  22701228.031          49.000       -3419.663
 123431850.544 8  23488302.471          48.000        1196.075
 136008867.493 6  25881694.538          36.000       -4027.965
 129144676.382 5  24575415.946          34.000        1567.260
 134815821.778 6  25654595.473          41.000       -1719.848
 197836685.995 7  37647067.762          43.000       -1155.637
 197526154.457 6  37587986.314          41.000       -1158.760
 07  8 29 13 27 15.0010000  0 10G20G28G17G11G 4G19G23G 1S37S29
 110482954.974 8  21024210.234          50.000       -1931.631
 112709247.474 8  21447861.281          49.000       -2573.848
 112903647.659 8  21484852.186          50.000         737.243
 119299173.713 8  22701878.994          49.000       -3419.518
 123430654.746 8  23488074.955          48.000        1195.967
 136012895.338 5  25882461.143          35.000       -4028.417
 129143107.973 5  24575117.531          35.000        1570.124
 134817541.059 6  25654922.578          41.000       -1719.920
 197837841.198 7  37647287.583          42.000       -1154.266
 197527312.171 6  37588206.623          41.000       -1158.307
 07  8 29 13 27 16.0010000  0 10G20G28G17G11G 4G19G23G 1S37S29
 110484887.189 8  21024577.806          50.000       -1932.237
 112711822.098 8  21448351.230          49.000       -2574.711
 112902910.872 8  21484712.166          50.000         736.937
 119302593.775 8  22702529.590          49.000       -3419.972
 123429459.191 8  23487847.439          48.000        1195.584
 136016923.376 5  25883226.999          35.000       -4028.181
 129141539.723 5  24574819.167          34.000        1568.746
 134819260.958 7  25655250.397          42.000       -1719.498
 197838996.549 7  37647507.385          42.000       -1154.784
 197528470.056 6  37588426.811          40.000       -1156.118
 07  8 29 13 27 17.0010000  0 10G20G28G17G11G 4G19G23G 1S37S29
 110486819.938 8  21024945.534          49.000       -1932.730
 112714397.245 8  21448841.791          49.000       -2574.987
 112902174.273 8  21484572.320          50.000         736.896
 119306013.859 8  22703180.501          49.000       -3420.020
 123428263.778 8  23487620.168          48.000        1195.440
 136020951.375 5  25883993.098          34.000       -4026.831
 129139971.423 5  24574520.769          34.000        1571.325
 134820981.286 7  25655578.182          42.000       -1720.044
 197840151.999 7  37647727.293          44.000       -1154.702
 197529627.837 7  37588647.329          42.000       -1157.645
 07  8 29 13 27 18.0010000  0 10G20G28G17G11G 4G19G23G 1S37S29
 110488753.233 8  21025313.332          49.000       -1933.128
 112716972.910 8  21449331.810          49.000       -2575.492
 112901437.850 8  21484432.194          50.000         736.418
 119309433.965 8  22703831.568          49.000       -3419.540
 123427068.471 7  23487393.001          47.000        1195.359
 136024979.468 5  25884759.721          35.000       -4026.934
 129138403.184 5  24574222.126          35.000        1570.972
 134822702.060 7  25655905.722          42.000       -1720.777
 197841307.576 7  37647947.026          44.000       -1155.668
 197530785.887 7  37588867.551          42.000       -1157.082
 07  8 29 13 27 19.0010000  0 10G20G28G17G11G 4G19G23G 1S37S29
 110490686.996 8  21025681.130          49.000       -1934.153
 112719549.033 8  21449822.056          49.000       -2576.374
 112900701.565 8  21484292.296          50.000         736.442
 119312854.027 8  22704482.514          49.000       -3420.282
 123425873.240 8  23487165.502          48.000        1194.921
 136029007.588 5  25885526.118          34.000       -4026.966
 129136834.868 5  24573923.865          34.000        1567.762
 134824423.270 7  25656233.175          43.000       -1721.932
 197842462.724 7  37648166.777          43.000       -1155.162
 197531943.332 6  37589087.929          41.000       -1158.169
 07  8 29 13 27 20.0010000  0 10G20G28G17G11G 4G19G23G 1S37S29
 110492621.519 8  21026049.347          49.000       -1934.676
 112722125.882 8  21450312.477          49.000       -2577.121
 112899965.660 8  21484152.310          50.000         735.149
 119316274.326 8  22705133.267          49.000       -3420.161
 123424678.346 8  23486938.178          48.000        1194.610
 136033035.874 5  25886291.990          33.000       -4028.275
 129135266.795 5  24573625.485          34.000        1570.311
 134826145.124 7  25656561.205          43.000       -1721.679
 197843617.695 7  37648386.370          43.000       -1155.074
 197533101.140 6  37589308.186          41.000       -1158.170
 07  8 29 13 27 21.0010000  0 10G20G28G17G11G 4G19G23G 1S37S29
 110494556.478 8  21026417.459          49.000       -1935.423
 112724703.178 8  21450802.828          49.000       -2576.994
 112899229.887 8  21484012.132          50.000         735.848
 119319694.581 8  22705784.003          49.000       -3420.426
 123423483.484 8  23486711.081          48.000        1194.769
 136037064.204 5  25887058.456          34.000       -4027.008
 129133698.639 5  24573327.241          35.000        1565.026
 134827867.363 7  25656889.460          43.000       -1722.253
 197844772.561 7  37648605.999          42.000       -1154.141
 197534258.915 6  37589528.634          41.000       -1158.227
 07  8 29 13 27 22.0010000  0 10G20G28G17G11G 4G19G23G 1S37S29
 110496492.042 8  21026786.060          49.000       -1935.768
 112727281.018 8  21451293.074          49.000       -2578.010
 112898494.323 8  21483872.391          50.000         735.383
 119323114.903 8  22706434.774          49.000       -3420.348
 123422288.777 8  23486483.949          48.000        1194.309
 136041092.545 5  25887825.148          33.000       -4028.469
 129132130.537 5  24573029.141          34.000        1570.061
 134829590.110 7  25657217.821          43.000       -1722.533
 197845927.433 7  37648825.627          44.000       -1155.869
 197535416.453 7  37589748.874          42.000       -1156.481
 07  8 29 13 27 23.0010000  0 10G20G28G17G11G 4G19G23G 1S37S29
 110498428.289 8  21027154.294          49.000       -1936.822
 112729859.548 8  21451783.844          49.000       -2579.105
 112897759.107 8  21483732.231          50.000         735.065
 119326535.405 8  22707085.789          49.000       -3420.943
 123421094.356 8  23486257.009          48.000        1194.247
 136045121.095 5  25888591.510          34.000       -4028.124
 129130562.624 5  24572731.003          35.000        1568.129
 134831313.473 7  25657545.972          43.000       -1723.957
 197847082.443 7  37649045.430          44.000       -1156.108
 197536573.985 7  37589969.079          42.000       -1156.410
 07  8 29 13 27 24.0010000  0 10G20G28G17G11G 4G19G23G 1S37S29
 110500364.939 8  21027522.790          49.000       -1936.816
 112732438.457 8  21452274.805          49.000       -2579.251
 112897023.929 8  21483592.140          50.000         734.979
 119329955.787 8  22707736.543          49.000       -3420.085
 123419899.914 8  23486029.754          48.000        1194.417
 136049149.595 6  25889358.534          37.000       -4027.670
 129128994.522 5  24572433.005          34.000        1565.749
 134833037.145 7  25657874.350          43.000       -1724.123
 197848237.155 7  37649265.373          42.000       -1154.276
 197537730.796 6  37590189.265          40.000       -1158.565
 07  8 29 13 27 25.0010000  0 10G20G28G17G11G 4G19G23G 1S37S29
 110502302.299 8  21027891.426          49.000       -1937.185
 112735018.055 8  21452765.977          49.000       -2579.434
 112896289.125 8  21483452.102          50.000         735.278
 119333376.378 8  22708387.663          49.000       -3420.059
 123418705.796 8  23485802.413          48.000        1194.538
 136053178.294 6  25890125.715          36.000       -4027.858
 129127426.15335  24572134.450          34.000        1567.490
 134834761.444 7  25658202.501          43.000       -1724.511
 197849391.917 7  37649485.036          43.000       -1154.054
 197538887.877 6  37590409.610          41.000       -1155.671
 07  8 29 13 27 26.0010000  0 10G20G28G17G11G 4G19G23G 1S37S29
 110504240.188 8  21028260.166          49.000       -1937.948
 112737598.177 8  21453256.816          49.000       -2580.212
 112895554.498 8  21483312.309          50.000         734.995
 119336796.975 8  22709038.172          49.000       -3420.415
 123417511.772 8  23485575.351          49.000        1194.260
 136057207.020 6  25890894.065          38.000       -4029.275
 129125858.28825  24571836.244          34.000        1568.664
 134836486.240 7  25658530.233          43.000       -1725.304
 197850546.916 7  37649704.787          43.000       -1154.683
 197540044.661 6  37590629.604          41.000       -1157.527
 07  8 29 13 27 27.0010000  0 10G20G28G17G11G 4G19G23G 1S37S29
 110506178.671 8  21028629.238          49.000       -1938.808
 112740178.854 8  21453747.900          49.000       -2580.711
 112894820.113 8  21483172.131          50.000         734.264
 119340217.648 8  22709689.292          49.000       -3420.483
 123416317.940 8  23485348.288          49.000        1193.816
 136061235.879 6  25891661.229          38.000       -4029.654
 129124290.46825  24571538.124          34.000        1567.558
 134838211.520 7  25658858.507          42.000       -1725.070
 197851701.986 7  37649924.676          43.000       -1156.042
 197541201.532 6  37590849.895          41.000       -1158.380
 07  8 29 13 27 28.0010000  0 10G20G28G17G11G 4G19G23G 1S37S29
 110508117.778 8  21028998.257          49.000       -1939.090
 112742760.144 8  21454239.245          49.000       -2581.256
 112894085.993 8  21483032.546          50.000         734.195
 119343638.432 8  22710340.115          49.000       -3420.527
 123415124.280 8  23485121.488          49.000        1193.782
 136065264.787 6  25892428.376          37.000       -4028.104
 129122722.75325  24571239.900          34.000        1568.575
 134839937.351 7  25659186.641          42.000       -1725.224
 197852856.919 7  37650144.585          42.000       -1154.235
 197542358.905 6  37591070.030          41.000       -1156.882
 07  8 29 13 27 29.0010000  0 10G20G28G17G11G 4G19G23G 1S37S29
 110510057.402 8  21029367.137          49.000       -1939.784
 112745341.929 8  21454730.766          49.000       -2581.565
 112893352.043 8  21482892.508          50.000         734.048
 119347059.210 8  22710991.288          49.000       -3420.564
 123413930.729 8  23484894.722          48.000        1193.875
 136069293.778 6  25893195.802          38.000       -4028.329
 129121155.00425  24570941.518          34.000        1566.260
 134841663.623 6  25659514.844          41.000       -1725.994
 197854011.692 7  37650364.352          44.000       -1155.030
 197543516.041 7  37591290.164          43.000       -1157.264
 07  8 29 13 27 30.0010000  0 10G20G28G17G11G 4G19G23G 1S37S29
 110511997.687 8  21029736.331          49.000       -1940.615
 112747924.352 8  21455222.233          49.000       -2582.778
 112892618.408 8  21482752.610          50.000         733.932
 119350480.154 8  22711642.076          49.000       -3420.881
 123412737.421 8  23484667.625          48.000        1192.910
 136073322.912 6  25893963.715          38.000       -4029.923
 129119587.37125  24570642.928          33.000        1568.021
 134843390.495 6  25659843.048          40.000       -1727.252
 197855166.613 7  37650584.243          44.000       -1155.166
 197544673.430 7  37591510.334          42.000       -1157.359
 07  8 29 13 27 31.0010000  0 10G20G28G17G11G 4G19G23G 1S37S29
 110513938.550 8  21030105.455          49.000       -1940.822
 112750507.338 8  21455713.998          49.000       -2582.886
 112891884.987 8  21482612.764          50.000         733.432
 119353901.158 8  22712293.004          49.000       -3420.833
 123411544.284 8  23484440.249          48.000        1193.188
 136077352.145 6  25894730.949          38.000       -4029.836
 129118019.84825  24570344.721          33.000        1569.137
 134845117.863 6  25660170.605          39.000       -1728.094
 197856321.711 7  37650803.906          43.000       -1153.878
 197545830.445 6  37591730.503          41.000       -1157.704
 07  8 29 13 27 32.0010000  0 10G20G28G17G11G 4G19G23G 1S37S29
 110515879.953 8  21030474.964          49.000       -1941.316
 112753090.831 8  21456205.308          49.000       -2583.622
 112891151.748 8  21482472.848          49.000         732.936
 119357322.179 8  22712944.037          49.000       -3420.835
 123410351.268 8  23484213.361          48.000        1193.189
 136081381.384 6  25895497.118          37.000       -4030.293
 129116452.31525  24570046.549          33.000        1567.094
 134846845.705 6  25660498.477          39.000       -1728.610
 197857476.462 7  37651023.797          43.000       -1153.394
 197546987.130 6  37591950.760          41.000       -1155.759
 07  8 29 13 27 33.0010000  0 10G20G28G17G11G 4G19G23G 1S37S29
 110517821.924 8  21030844.541          49.000       -1942.186
 112755674.885 8  21456697.003          49.000       -2584.343
 112890418.740 8  21482333.124          49.000         733.025
 119360743.260 8  22713594.895          49.000       -3421.146
 123409158.395 8  23483986.613          48.000        1192.752
 136085410.799 5  25896263.428          34.000       -4029.195
 129114884.74225  24569747.329          32.000        1565.601
 134848574.042 6  25660827.222          40.000       -1727.184
 197858630.866 7  37651243.390          42.000       -1153.593
 197548143.902 6  37592170.755          41.000       -1156.268
 07  8 29 13 27 34.0010000  0 10G20G28G17G11G 4G19G23G 1S37S29
 110519764.528 8  21031214.207          49.000       -1942.889
 112758259.540 8  21457188.959          49.000       -2585.004
 112889685.997 8  21482193.592          49.000         732.546
 119364164.446 8  22714246.050          49.000       -3420.877
 123407965.732 8  23483759.672          48.000        1192.581
 136089440.225 5  25897030.155          35.000       -4030.693
 129113317.40725  24569449.124          32.000        1568.711
 134850302.908 6  25661156.263          40.000       -1729.060
 197859785.248 6  37651463.088          41.000       -1153.934
 197549300.862 7  37592390.924          42.000       -1157.000
 07  8 29 13 27 35.0010000  0 10G20G28G17G11G 4G19G23G 1S37S29
 110521707.716 8  21031584.186          49.000       -1943.187
 112760844.784 8  21457680.828          49.000       -2585.035
 112888953.507 8  21482054.391          49.000         732.328
 119367585.720 8  22714897.205          49.000       -3421.185
 123406773.272 8  23483532.820          48.000        1192.481
 136093469.794 6  25897797.441          36.000       -4030.066
 129111750.09325  24569150.464          33.000        1570.065
 134852032.276 6  25661485.304          41.000       -1729.209
 197860939.663 7  37651682.769          42.000       -1154.155
 197550457.612 6  37592610.815          40.000       -1155.052
 07  8 29 13 27 36.0010000  0 10G20G28G17G11G 4G19G23G 1S37S29
 110523651.383 8  21031954.008          49.000       -1944.154
 112763430.463 8  21458173.290          50.000       -2586.011
 112888221.138 8  21481914.597          49.000         731.789
 119371006.944 8  22715548.394          49.000       -3421.337
 123405580.856 8  23483305.687          49.000        1192.144
 136097499.446 6  25898564.343          36.000       -4029.796
 129110182.65935  24568852.308          33.000        1566.633
 134853762.062 6  25661814.485          41.000       -1729.634
 197862094.232 7  37651902.363          44.000       -1154.385
 197551614.137 7  37592830.792          42.000       -1156.207
 07  8 29 13 27 37.0010000  0 10G20G28G17G11G 4G19G23G 1S37S29
 110525595.772 8  21032324.022          49.000       -1944.474
 112766016.853 8  21458665.770          50.000       -2586.406
 112887489.144 8  21481775.327          50.000         732.169
 119374428.378 8  22716199.357          49.000       -3421.224
 123404388.743 8  23483079.131          49.000        1192.064
 136101529.191 6  25899331.944          36.000       -4027.801
 129108615.48325  24568554.067          33.000        1568.708
 134855492.492 7  25662144.346          42.000       -1730.220
 197863248.966 7  37652122.095          43.000       -1155.003
 197552770.948 6  37593050.891          41.000       -1157.630
 07  8 29 13 27 38.0010000  0 10G20G28G17G11G 4G19G23G 1S37S29
 110527540.783 8  21032693.688          49.000       -1945.094
 112768603.838 8  21459158.198          50.000       -2587.292
 112886757.425 8  21481635.970          49.000         732.043
 119377849.917 8  22716850.477          50.000       -3421.022
 123403196.840 8  23482851.825          49.000        1192.128
 136105559.063 5  25900098.113          35.000       -4029.578
 129107048.38425  24568255.808          33.000        1568.252
 134857223.441 7  25662474.277          42.000       -1730.286
 197864403.370 7  37652341.707          43.000       -1153.284
 197553927.803 6  37593270.921          41.000       -1158.152
 07  8 29 13 27 39.0010000  0 10G20G28G17G11G 4G19G23G 1S37S29
 110529486.290 8  21033063.841          49.000       -1945.868
 112771191.302 8  21459650.398          50.000       -2587.769
 112886025.833 8  21481496.821          49.000         731.402
 119381271.444 8  22717501.859          49.000       -3421.507
 123402005.019 8  23482624.954          48.000        1191.773
 136109588.941 6  25900864.980          36.000       -4029.665
 129105481.22525  24567957.357          33.000        1568.507
 134858954.797 7  25662804.330          43.000       -1731.974
 197865557.658 7  37652561.317          43.000       -1155.160
 197555084.812 6  37593491.091          41.000       -1156.533
 07  8 29 13 27 40.0010000  0 10G20G28G17G11G 4G19G23G 1S37S29
 110531432.436 8  21033434.309          49.000       -1946.557
 112773779.389 8  21460143.018          49.000       -2588.776
 112885294.544 8  21481357.691          49.000         731.307
 119384693.098 8  22718152.752          49.000       -3421.886
 123400813.413 8  23482398.381          48.000        1191.567
 136113619.067 6  25901632.458          38.000       -4028.990
 129103914.25335  24567658.975          33.000        1567.312
 134860686.764 7  25663134.227          43.000       -1732.127
 197866712.056 7  37652780.824          44.000       -1154.786
 197556241.447 6  37593711.435          41.000       -1156.931
 07  8 29 13 27 41.0010000  0 10G20G28G17G11G 4G19G23G 1S37S29
 110533379.149 8  21033804.707          49.000       -1946.899
 112776368.026 8  21460635.585          50.000       -2588.948
 112884563.464 8  21481218.822          49.000         731.489
 119388114.802 8  22718803.959          49.000       -3421.417
 123399621.962 8  23482171.982          48.000        1191.978
 136117649.198 6  25902399.430          37.000       -4030.925
 129102347.23225  24567360.279          32.000        1565.483
 134862419.172 7  25663464.541          44.000       -1733.170
 197867866.344 7  37653000.452          44.000       -1154.178
 197557397.955 7  37593931.429          42.000       -1158.276
 07  8 29 13 27 42.0010000  0 10G20G28G17G11G 4G19G23G 1S37S29
 110535326.237 8  21034175.123          49.000       -1947.097
 112778957.033 8  21461128.309          49.000       -2588.783
 112883832.417 8  21481079.639          49.000         731.288
 119391536.373 8  22719455.201          49.000       -3421.363
 123398430.471 8  23481945.373          49.000        1191.518
 136121679.252 6  25903166.314          36.000       -4030.487
 129100780.13925  24567062.038          32.000        1565.967
 134864151.917 7  25663795.031          44.000       -1732.511
 197869020.638 7  37653220.273          44.000       -1153.593
 197558554.171 7  37594151.529          42.000       -1157.319
 07  8 29 13 27 43.0010000  0 10G20G28G17G11G 4G19G23G 1S37S29
 110537273.964 8  21034545.835          49.000       -1948.124
 112781546.656 8  21461620.911          49.000       -2590.165
 112883101.663 8  21480940.648          49.000         730.782
 119394958.077 8  22720106.287          49.000       -3421.317
 123397239.218 8  23481718.555          48.000        1191.479
 136125709.361 6  25903933.078          36.000       -4028.865
 129099213.13925  24566763.622          32.000        1566.741
 134865885.212 7  25664125.259          44.000       -1733.323
 197870174.954 7  37653439.832          43.000       -1153.703
 197559710.288 6  37594371.576          41.000       -1158.399
 07  8 29 13 27 44.0010000  0 10G20G28G17G11G 4G19G23G 1S37S29
 110539222.456 8  21034916.705          49.000       -1948.294
 112784137.039 8  21462113.967          50.000       -2590.121
 112882371.321 8  21480801.465          49.000         730.760
 119398380.029 8  22720757.476          49.000       -3421.670
 123396048.301 8  23481492.086          48.000        1191.154
 136129739.855 5  25904699.386          34.000       -4030.212
 129097646.33825  24566464.752          31.000        1567.880
 134867619.190 7  25664455.626          44.000       -1734.035
 197871329.264 7  37653659.512          43.000       -1154.090
 197560866.884 6  37594591.658          41.000       -1158.175
 07  8 29 13 27 45.0010000  0 10G20G28G17G11G 4G19G23G 1S37S29
 110541171.434 8  21035287.399          49.000       -1949.023
 112786727.869 8  21462606.848          50.000       -2591.263
 112881641.123 8  21480662.421          49.000         730.047
 119401801.942 8  22721408.736          50.000       -3421.814
 123394857.471 8  23481265.582          49.000        1191.151
 136133770.240 5  25905465.886          33.000       -4031.250
 129096079.58735  24566166.128          32.000        1571.174
 134869353.597 7  25664785.976          44.000       -1734.698
 197872483.343 7  37653879.019          43.000       -1153.214
 197562023.618 6  37594811.898          41.000       -1156.217
 07  8 29 13 27 46.0010000  0 10G20G28G17G11G 4G19G23G 1S37S29
 110543121.149 8  21035658.356          49.000       -1949.980
 112789319.437 8  21463100.305          50.000       -2592.148
 112880911.310 8  21480523.430          49.000         729.477
 119405224.097 8  22722059.855          50.000       -3422.271
 123393666.962 8  23481039.025          49.000        1190.115
 136137800.916 5  25906232.648          33.000       -4033.414
 129094512.95625  24565867.117          31.000        1568.089
 134871088.649 7  25665116.291          44.000       -1734.753
 197873637.460 7  37654098.682          44.000       -1154.757
 197563179.944 7  37595031.980          42.000       -1157.259
 07  8 29 13 27 47.0010000  0 10G20G28G17G11G 4G19G23G 1S37S29
 110545071.278 8  21036029.556          49.000       -1950.297
 112791911.379 8  21463593.745          50.000       -2591.941
 112880181.563 8  21480384.544          49.000         730.111
 119408646.159 8  22722711.237          49.000       -3421.599
 123392476.452 8  23480812.662          48.000        1190.796
 136141831.543 5  25906998.941          33.000       -4028.624
 129092946.22135  24565568.194          30.000        1564.695
 134872824.032 7  25665446.659          43.000       -1734.883
 197874791.605 7  37654318.397          44.000       -1155.558
 197564336.166 7  37595252.079          42.000       -1157.184
 07  8 29 13 27 48.0010000  0 10G20G28G17G11G 4G19G23G 1S37S29
 110547022.051 8  21036400.932          49.000       -1951.046
 112794503.950 8  21464087.097          50.000       -2592.746
 112879452.103 8  21480245.605          49.000         728.917
 119412068.325 8  22723362.759          50.000       -3422.198
 123391286.162 8  23480585.826          48.000        1190.171
 136145862.291 5  25907765.703          33.000       -4030.930
 129091379.66225  24565269.882          31.000        1563.074
 134874559.988 7  25665776.816          44.000       -1736.448
 197875945.937 7  37654538.079          44.000       -1153.263
 197565492.850 7  37595472.319          42.000       -1155.301
 07  8 29 13 27 49.0010000  0 10G20G28G17G11G 4G19G23G 1S37S29
 110548973.374 8  21036772.185          49.000       -1951.474
 112797097.038 8  21464580.327          50.000       -2592.974
 112878722.841 8  21480106.649          49.000         729.128
 119415490.536 8  22724014.158          50.000       -3422.341
 123390096.027 8  23480359.060          48.000        1190.180
 136149893.083 5  25908532.379          31.000       -4029.744
 129089813.13125  24564971.399          31.000        1571.694
 134876296.411 7  25666107.148          43.000       -1736.950
 197877100.043 7  37654757.724          43.000       -1154.733
 197566649.154 6  37595692.244          41.000       -1155.571
 07  8 29 13 27 50.0010000  0 10G20G28G17G11G 4G19G23G 1S37S29
 110550925.348 8  21037143.647          49.000       -1952.144
 112799690.771 8  21465073.697          50.000       -2593.810
 112877993.887 8  21479968.199          49.000         728.945
 119418912.884 8  22724665.452          50.000       -3422.404
 123388906.112 8  23480132.487          49.000        1190.274
                  25909294.849          26.000       -4029.696
 129088246.66625  24564672.964          31.000        1568.482
 134878033.430 7  25666437.481          43.000       -1736.931
 197878253.968 7  37654977.213          43.000       -1154.503
 197567805.100 6  37595911.943          41.000       -1155.192
 07  8 29 13 27 51.0010000  0 10G20G28G17G11G 4G19G23G 1S37S29
 110552877.917 8  21037515.337          49.000       -1952.984
 112802285.071 8  21465567.695          50.000       -2594.543
 112877265.182 8  21479829.470          49.000         728.768
 119422335.309 8  22725317.096          50.000       -3422.297
 123387716.374 8  23479905.965          48.000        1189.941
                  25910055.014          27.000       -4033.714
 129086680.23925  24564374.546          31.000        1563.688
 134879770.928 7  25666767.534          42.000       -1737.902
 197879408.008 7  37655196.928          42.000       -1155.367
 197568961.107 6  37596131.919          41.000       -1157.120
 07  8 29 13 27 52.0010000  0 10G20G28G17G11G 4G19G23G 1S37S29
 110554831.009 8  21037886.939          49.000       -1953.741
 112804879.867 8  21466061.396          50.000       -2595.151
 112876536.636 8  21479691.159          49.000         728.536
 119425757.757 8  22725968.495          50.000       -3422.140
 123386526.734 8  23479679.496          49.000        1189.841
                  25910818.112          27.000       -4032.082
 129085113.90125  24564076.392          32.000        1564.794
 134881508.911 7  25667097.501          42.000       -1737.425
 197880562.087 7  37655416.487          44.000       -1154.777
 197570117.086 7  37596351.775          42.000       -1157.030
 07  8 29 13 27 53.0010000  0 10G20G28G17G11G 4G19G23G 1S37S29
 110556784.729 8  21038258.541          49.000       -1953.499
 112807475.274 8  21466555.447          50.000       -2595.307
 112875808.382 8  21479552.814          50.000         728.241
 119429180.314 8  22726619.754          50.000       -3422.283
 123385337.321 8  23479453.115          49.000        1189.811
                  25911580.321          26.000       -4031.038
 129083547.57425  24563778.256          32.000        1566.310
 134883247.439 7  25667427.903          42.000       -1738.439
 197881715.957 7  37655636.168          44.000       -1154.067
 197571273.005 7  37596571.927          42.000       -1155.883
 07  8 29 13 27 54.0010000  0 10G20G28G17G11G 4G19G23G 1S37S29
 110558738.906 8  21038630.754          49.000       -1954.269
 112810071.122 8  21467049.357          50.000       -2595.850
 112875080.233 8  21479413.980          50.000         728.261
 119432602.817 8  22727271.014          50.000       -3422.382
 123384147.946 8  23479226.646          49.000        1189.570
                  25912345.339          26.000       -4029.144
 129081981.30735  24563479.788          32.000        1568.224
 134884986.330 6  25667757.990          41.000       -1740.209
 197882869.589 7  37655855.657          42.000       -1153.446
 197572428.758 6  37596792.027          41.000       -1155.520
 07  8 29 13 27 55.0010000  0 10G20G28G17G11G 4G19G23G 1S37S29
 110560693.778 8  21039002.775          50.000       -1955.161
 112812667.647 8  21467543.233          50.000       -2596.466
 112874352.436 8  21479275.843          50.000         727.546
 119436025.506 8  22727922.413          50.000       -3422.817
 123382958.863 8  23479000.020          49.000        1189.282
                  25913114.787          29.000       -4033.527
                  24563181.424          31.000        1567.950
 134886725.877 6  25668088.532          41.000       -1741.551
 197884023.338 7  37656075.355          43.000       -1154.856
 197573584.413 6  37597011.882          41.000       -1156.894
 07  8 29 13 27 56.0010000  0 10G20G28G17G11G 4G19G23G 1S37S29
 110562649.244 8  21039374.936          49.000       -1955.556
 112815264.745 8  21468037.563          50.000       -2597.340
 112873624.887 8  21479137.777          50.000         727.680
 119439448.262 8  22728573.760          50.000       -3422.725
 123381769.950 8  23478773.673          48.000        1188.857
                  25913882.720          30.000       -4031.440
 129078820.03225  24562882.779          32.000        1562.289
 134888465.953 6  25668419.528          41.000       -1739.758
 197885177.080 7  37656294.914          43.000       -1153.688
 197574740.871 6  37597231.981          41.000       -1157.119
 07  8 29 13 27 57.0010000  0 10G20G28G17G11G 4G19G23G 1S37S29
 110564605.454 8  21039747.114          49.000       -1956.224
 112817862.560 8  21468531.962          50.000       -2598.319
 112872897.724 8  21478999.222          50.000         727.142
 119442871.260 8  22729225.194          50.000       -3422.647
 123380581.396 8  23478547.256          48.000        1188.559
                  25914649.674          29.000       -4031.862
 129077254.18435  24562584.661          32.000        1567.285
 134890206.679 7  25668750.140          42.000       -1740.606
 197886330.862 7  37656514.542          43.000       -1155.131
 197575897.148 6  37597452.045          41.000       -1159.364
 07  8 29 13 27 58.0010000  0 10G20G28G17G11G 4G19G23G 1S37S29
 110566562.214 8  21040119.361          49.000       -1956.971
 112820460.914 8  21469026.274          50.000       -2598.140
 112872170.764 8  21478860.685          50.000         727.049
 119446294.297 8  22729876.471          50.000       -3422.832
 123379392.957 8  23478320.996          48.000        1188.453
                  25915416.175          29.000       -4032.479
 129075688.33625  24562286.211          30.000        1568.211
 134891947.862 7  25669081.327          42.000       -1740.761
 197887484.836 7  37656734.171          44.000       -1153.771
 197577053.325 7  37597671.954          43.000       -1155.084
 07  8 29 13 27 59.0010000  0 10G20G28G17G11G 4G19G23G 1S37S29
 110568519.587 8  21040492.081          49.000       -1957.214
 112823059.858 8  21469520.900          50.000       -2598.853
 112871444.069 8  21478722.549          50.000         726.949
 119449717.416 8  22730528.010          50.000       -3423.039
 123378204.701 8  23478094.580          48.000        1188.116
                  25916182.485          28.000       -4028.789
 129074122.60325  24561987.778          31.000        1572.251
 134893689.574 7  25669412.742          42.000       -1741.522
 197888638.832 7  37656953.625          44.000       -1152.988
 197578209.205 7  37597891.809          42.000       -1155.059
 07  8 29 13 28  0.0010000  0  9G20G28G17G11G 4G19G 1S37S29
 110570477.504 8  21040864.677          49.000       -1957.972
 112825659.319 8  21470015.212          50.000       -2599.535
 112870717.562 8  21478584.431          50.000         726.586
 119453140.585 8  22731179.583          50.000       -3423.058
 123377016.554 8  23477868.268          48.000        1188.244
                  25916947.832          28.000       -4034.455
 134895431.754 7  25669744.295          43.000       -1742.483
 197889792.498 7  37657173.289          44.000       -1152.764
 197579364.810 7  37598111.542          42.000       -1156.041
 07  8 29 13 28  1.0010000  0  9G20G28G17G11G 4G19G 1S37S29
 110572436.143 8  21041237.466          49.000       -1959.024
 112828259.502 8  21470510.450          49.000       -2599.893
 112869991.445 8  21478446.137          50.000         726.063
 119456563.958 8  22731830.791          50.000       -3422.846
 123375828.749 8  23477642.218          48.000        1187.705
                  25917716.742          28.000       -4031.985
 134897174.589 7  25670075.814          43.000       -1743.950
 197890946.263 7  37657393.004          43.000       -1153.507
 197580520.872 6  37598331.554          41.000       -1156.192
 07  8 29 13 28  2.0010000  0  9G20G28G17G11G 4G19G 1S37S29
 110574395.344 8  21041610.255          49.000       -1959.427
 112830860.219 8  21471005.198          50.000       -2600.671
 112869265.543 8  21478308.176          50.000         726.332
 119459987.386 8  22732482.242          50.000       -3423.383
 123374641.081 8  23477416.377          48.000        1187.575
                  25918485.546          27.000       -4033.052
 134898917.921 7  25670407.421          43.000       -1743.148
 197892099.818 7  37657612.406          42.000       -1153.093
 197581676.900 6  37598551.584          41.000       -1156.552
 07  8 29 13 28  3.0010000  0  9G20G28G17G11G 4G19G 1S37S29
 110576355.278 8  21041983.026          49.000       -1960.076
 112833461.631 8  21471500.592          49.000       -2601.493
 112868540.016 8  21478170.040          50.000         725.549
 119463411.029 8  22733133.868          50.000       -3423.535
 123373453.722 8  23477190.204          48.000        1187.220
                  25919254.629          27.000       -4031.879
 134900661.886 7  25670739.219          43.000       -1744.404
 197893253.467 7  37657831.947          42.000       -1152.722
 197582833.276 6  37598771.579          40.000       -1157.230
 07  8 29 13 28  4.0010000  0  9G20G28G17G11G 4G19G 1S37S29
 110578315.784 8  21042356.199          49.000       -1960.596
 112836063.615 8  21471995.549          49.000       -2602.218
 112867814.714 8  21478032.096          50.000         725.404
 119466834.737 8  22733785.459          50.000       -3423.516
 123372266.540 8  23476964.067          48.000        1187.056
                  25920026.924          28.000       -4030.139
 134902406.374 7  25671071.436          43.000       -1745.120
 197894407.469 7  37658051.505          42.000       -1154.146
 197583989.289 6  37598991.417          40.000       -1155.543
 07  8 29 13 28  5.0010000  0 10G20G28G17G11G 4G19G23G 1S37S29
 110580276.863 8  21042729.581          49.000       -1961.521
 112838666.123 8  21472490.525          49.000       -2603.049
 112867089.639 8  21477894.187          50.000         725.272
 119470258.485 8  22734437.015          50.000       -3424.259
 123371079.489 8  23476738.418          48.000        1186.522
                  25920797.717          29.000       -4032.492
                  24560257.639          30.000        1565.164
 134904151.308 7  25671403.112          44.000       -1745.066
 197895561.586 7  37658271.116          42.000       -1155.050
 197585145.383 6  37599211.499          40.000       -1156.705
 07  8 29 13 28  6.0010000  0 10G20G28G17G11G 4G19G23G 1S37S29
 110582238.714 8  21043102.841          49.000       -1961.989
 112841269.391 8  21472985.971          49.000       -2603.178
 112866364.993 8  21477756.487          50.000         724.825
 119473682.507 8  22735088.536          50.000       -3423.698
 123369892.802 8  23476512.455          48.000        1186.660
                  25921568.999          28.000       -4032.882
                  24559956.115          30.000        1561.726
 134905896.964 7  25671735.451          44.000       -1745.891
 197896715.880 7  37658490.692          44.000       -1153.868
 197586302.029 7  37599431.442          42.000       -1155.917
 07  8 29 13 28  7.0010000  0 10G20G28G17G11G 4G19G23G 1S37S29
 110584201.154 8  21043476.362          49.000       -1962.934
 112843873.226 8  21473481.417          49.000       -2604.307
 112865640.589 8  21477618.595          50.000         724.524
 119477106.591 8  22735740.075          50.000       -3424.202
 123368706.286 7  23476286.562          47.000        1186.508
                  25922340.630          27.000       -4034.710
                  24559655.206          30.000        1566.401
 134907643.126 7  25672067.756          43.000       -1745.535
 197897870.019 7  37658710.425          43.000       -1154.145
 197587458.532 6  37599651.593          41.000       -1158.299
 07  8 29 13 28  8.0010000  0 10G20G28G17G11G 4G19G23G 1S37S29
 110586164.359 8  21043850.059          49.000       -1963.203
 112846477.804 8  21473977.003          49.000       -2604.673
 112864916.599 8  21477480.686          50.000         723.916
 119480530.927 8  22736391.457          50.000       -3424.207
 123367520.112 7  23476060.809          47.000        1186.595
                  25923112.331          28.000       -4033.104
                  24559356.457          30.000        1565.344
 134909389.956 7  25672400.077          43.000       -1746.708
 197899024.049 7  37658929.949          43.000       -1153.689
 197588614.957 6  37599871.589          41.000       -1156.320
 07  8 29 13 28  9.0010000  0  9G20G28G17G11G 4G19G 1S37S29
 110588128.248 8  21044223.807          49.000       -1964.117
 112849083.039 8  21474472.677          49.000       -2605.046
 112864192.950 8  21477342.707          50.000         724.124
 119483955.429 8  22737043.397          50.000       -3424.611
 123366334.207 7  23475834.915          47.000        1185.810
                  25923884.870          28.000       -4033.228
 134911137.413 7  25672732.817          43.000       -1748.219
 197900178.083 7  37659149.403          42.000       -1153.223
 197589771.091 6  37600091.827          40.000       -1157.276
 07  8 29 13 28 10.0010000  0  9G20G28G17G11G 4G19G 1S37S29
 110590092.786 8  21044597.503          49.000       -1964.526
 112851688.912 8  21474968.437          49.000       -2605.969
 112863469.604 8  21477204.990          50.000         723.764
 119487380.086 8  22737695.058          50.000       -3424.473
 123365148.561 7  23475609.389          47.000        1186.048
                  25924656.588          30.000       -4033.778
 134912885.454 7  25673065.576          44.000       -1747.849
 197901332.173 7  37659368.892          44.000       -1154.899
 197590927.213 7  37600311.770          42.000       -1156.068
 07  8 29 13 28 11.0010000  0  9G20G28G17G11G 4G19G 1S37S29
 110592057.843 8  21044971.461          49.000       -1965.414
 112854295.292 8  21475464.093          49.000       -2606.687
 112862746.429 8  21477067.307          50.000         722.885
 119490804.742 8  22738346.771          50.000       -3424.623
 123363963.009 7  23475383.775          47.000        1185.377
                  25925429.441          30.000       -4032.574
 134914633.958 7  25673398.421          43.000       -1748.632
 197902485.938 7  37659588.625          44.000       -1155.504
 197592083.324 7  37600531.731          42.000       -1155.415
 07  8 29 13 28 12.0010000  0  9G20G28G17G11G 4G19G 1S37S29
 110594023.615 8  21045345.611          49.000       -1965.998
 112856902.349 8  21475960.464          49.000       -2607.597
 112862023.601 8  21476929.695          49.000         722.549
 119494229.585 8  22738998.554          50.000       -3425.063
 123362777.749 7  23475158.038          47.000        1184.908
                  25926199.833          28.000       -4033.857
 134916383.056 7  25673730.900          43.000       -1749.128
 197903639.642 7  37659808.376          43.000       -1154.178
 197593239.485 6  37600751.778          40.000       -1153.686
 07  8 29 13 28 13.0010000  0  9G20G28G17G11G 4G19G 1S37S29
 110595990.071 8  21045719.953          49.000       -1966.298
 112859510.084 8  21476456.748          49.000       -2607.843
 112861301.131 8  21476792.187          49.000         722.375
 119497654.594 8  22739650.232          50.000       -3424.825
 123361592.758 7  23474932.512          47.000        1184.920
                  25926970.416          29.000       -4035.256
 134918132.794 7  25674063.675          43.000       -1749.299
 197904793.341 7  37660027.847          42.000       -1154.682
 197594395.702 6  37600971.685          41.000       -1157.064
 07  8 29 13 28 14.0010000  0  9G20G28G17G11G 4G19G 1S37S29
 110597957.215 8  21046093.980          49.000       -1967.477
 112862118.486 8  21476952.787          49.000       -2608.624
 112860578.991 8  21476654.871          49.000         721.913
 119501079.790 8  22740301.963          50.000       -3424.927
 123360408.076 7  23474706.968          47.000        1184.969
                  25927740.566          28.000       -4030.564
 134919883.132 7  25674396.416          42.000       -1750.468
 197905947.425 7  37660247.388          42.000       -1153.709
 197595552.573 6  37601191.942          40.000       -1156.740
 07  8 29 13 28 15.0010000  0 10G20G28G17G11G 4G19G23G 1S37S29
 110599924.910 8  21046468.619          49.000       -1967.612
 112864727.427 8  21477449.228          49.000       -2609.300
 112859857.066 8  21476517.258          49.000         721.687
 119504505.030 8  22740953.886          50.000       -3425.096
 123359223.505 7  23474481.720          47.000        1184.897
                  25928509.823          27.000       -4034.390
                  24557189.960          30.000        1563.376
 134921633.949 7  25674729.296          42.000       -1750.886
 197907101.504 7  37660467.156          42.000       -1153.869
 197596709.186 6  37601411.779          40.000       -1157.345
 07  8 29 13 28 16.0010000  0  9G20G28G17G11G 4G19G 1S37S29
 110601893.166 8  21046843.170          49.000       -1968.774
 112867336.903 8  21477945.826          49.000       -2610.228
 112859135.351 8  21476380.012          49.000         721.228
 119507930.314 8  22741605.581          49.000       -3425.792
 123358039.087 7  23474256.089          47.000        1184.143
                  25929279.655          28.000       -4036.820
 134923385.268 7  25675062.595          42.000       -1751.168
 197908255.665 7  37660686.750          43.000       -1153.727
 197597865.451 7  37601632.089          42.000       -1155.788
 07  8 29 13 28 17.0010000  0  9G20G28G17G11G 4G19G 1S37S29
 110603862.112 8  21047217.652          49.000       -1969.309
 112869947.045 8  21478442.582          49.000       -2610.351
 112858413.993 8  21476242.540          49.000         721.690
 119511355.775 8  22742257.330          49.000       -3425.517
 123356854.945 7  23474030.667          47.000        1184.362
                  25930050.520          29.000       -4034.415
 134925137.181 7  25675395.841          42.000       -1752.222
 197909409.998 6  37660906.413          41.000       -1154.175
 197599021.579 6  37601852.275          40.000       -1157.155
 07  8 29 13 28 18.0010000  0  9G20G28G17G11G 4G19G 1S37S29
 110605831.696 8  21047592.674          49.000       -1969.971
 112872557.805 8  21478939.215          49.000       -2610.806
 112857692.895 8  21476105.625          50.000         721.073
 119514781.357 8  22742908.903          50.000       -3425.526
 123355671.024 7  23473805.297          47.000        1184.222
                  25930819.603          28.000       -4034.762
 134926889.667 7  25675729.262          42.000       -1752.614
 197910564.187 7  37661126.007          43.000       -1152.965
 197600178.148 7  37602072.235          42.000       -1157.798
 07  8 29 13 28 19.0010000  0  9G20G28G17G11G 4G19G 1S37S29
 110607802.123 8  21047967.941          49.000       -1970.627
 112875169.390 8  21479436.214          49.000       -2611.757
 112856972.331 8  21475968.780          50.000         720.625
 119518207.269 8  22743560.773          50.000       -3426.109
 123354487.531 7  23473580.189          47.000        1183.243
                  25931590.151          26.000       -4037.279
 134928642.925 7  25676063.085          42.000       -1753.567
 197911718.613 7  37661345.669          42.000       -1155.745
 197601335.185 6  37602292.421          41.000       -1159.006
 07  8 29 13 28 20.0010000  0  9G20G28G17G11G 4G19G 1S37S29
 110609773.261 8  21048342.876          49.000       -1970.934
 112877781.670 8  21479933.318          49.000       -2612.254
 112856252.114 8  21475831.395          50.000         720.329
 119521633.385 8  22744212.870          50.000       -3426.303
 123353304.348 7  23473354.767          47.000        1183.198
                  25932363.755          28.000       -4036.094
 134930396.794 7  25676396.942          43.000       -1754.263
 197912873.286 7  37661565.316          42.000       -1155.328
 197602492.514 6  37602512.522          41.000       -1156.154
 07  8 29 13 28 21.0010000  0  9G20G28G17G11G 4G19G 1S37S29
 110611744.927 8  21048717.916          49.000       -1971.699
 112880394.450 8  21480430.649          50.000       -2612.997
 112855532.089 8  21475694.340          50.000         719.651
 119525059.517 8  22744864.846          50.000       -3425.869
 123352121.280 7  23473129.624          47.000        1183.220
                  25933135.439          26.000       -4035.059
 134932151.131 7  25676730.835          43.000       -1753.861
 197914027.877 7  37661784.980          42.000       -1153.418
 197603649.281 6  37602732.709          40.000       -1156.937
 07  8 29 13 28 22.0010000  0 10G20G28G17G11G 4G19G23G 1S37S29
 110613717.128 8  21049093.217          49.000       -1972.314
 112883007.760 8  21480927.753          50.000       -2613.455
 112854812.247 8  21475557.391          50.000         719.742
 119528485.666 8  22745516.629          50.000       -3425.740
 123350938.317 7  23472904.255          47.000        1183.045
                  25933906.252          27.000       -4030.223
                  24555134.935          30.000        1563.115
 134933905.903 7  25677064.953          43.000       -1755.132
 197915182.276 7  37662004.677          42.000       -1154.678
 197604805.667 6  37602952.913          40.000       -1156.428
 07  8 29 13 28 23.0010000  0 10G20G28G17G11G 4G19G23G 1S37S29
 110615690.017 8  21049468.502          49.000       -1972.709
 112885621.736 8  21481425.049          49.000       -2614.116
 112854092.762 8  21475420.686          50.000         719.455
 119531911.997 8  22746168.708          50.000       -3426.092
 123349755.624 7  23472679.077          47.000        1182.939
                  25934677.390          25.000       -4040.602
                  24554844.859          30.000        1561.601
 134935661.309 7  25677399.404          43.000       -1756.065
 197916336.696 7  37662224.393          42.000       -1154.707
 197605962.104 6  37603172.698          41.000       -1157.346
 07  8 29 13 28 24.0010000  0 10G20G28G17G11G 4G19G23G 1S37S29
 110617663.546 8  21049844.274          49.000       -1973.531
 112888236.324 8  21481922.450          49.000       -2614.627
 112853373.559 8  21475283.702          50.000         718.999
 119535338.449 8  22746820.771          50.000       -3426.419
 123348573.145 7  23472453.777          47.000        1182.776
                  25935447.994          23.000       -4034.717
                  24554547.107          32.000        1562.714
 134937417.260 7  25677733.279          43.000       -1756.358
 197917491.017 7  37662444.092          43.000       -1153.553
 197607118.628 7  37603392.554          42.000       -1156.718
 07  8 29 13 28 25.0010000  0 10G20G28G17G11G 4G19G23G 1S37S29
 110619637.834 8  21050219.907          49.000       -1974.585
 112890851.649 8  21482420.200          49.000       -2615.621
 112852654.768 8  21475146.944          50.000         718.648
 119538765.138 8  22747472.676          49.000       -3426.212
 123347391.058 7  23472228.704          47.000        1182.483
                  25936216.885          24.000       -4035.673
                  24554247.696          30.000        1562.722
 134939173.900 7  25678067.572          43.000       -1758.334
 197918645.641 7  37662663.912          43.000       -1154.472
 197608275.483 6  37603612.706          41.000       -1156.524
 07  8 29 13 28 26.0010000  0 10G20G28G17G11G 4G19G23G 1S37S29
 110621612.651 8  21050595.854          49.000       -1975.423
 112893467.487 8  21482917.880          49.000       -2615.832
 112851936.170 8  21475010.256          50.000         718.533
 119542191.854 8  22748124.668          50.000       -3426.280
 123346209.053 7  23472003.701          47.000        1182.402
                  25936987.086          24.000       -4035.246
                  24553949.280          31.000        1562.572
 134940931.019 7  25678401.901          43.000       -1757.094
 197919800.304 7  37662883.837          42.000       -1154.708
 197609432.333 6  37603832.928          41.000       -1155.698
 07  8 29 13 28 27.0010000  0 10G20G28G17G11G 4G19G23G 1S37S29
 110623588.174 8  21050971.470          49.000       -1975.911
 112896084.008 8  21483415.926          49.000       -2617.079
 112851217.931 8  21474873.778          50.000         718.340
 119545618.769 8  22748777.079          50.000       -3426.907
 123345027.373 7  23471778.890          47.000        1181.402
                  25937753.413          24.000       -4031.706
                  24553651.003          31.000        1561.961
 134942688.760 7  25678736.107          43.000       -1758.599
 197920954.884 7  37663103.535          42.000       -1155.256
 197610589.045 6  37604052.939          41.000       -1159.105
 07  8 29 13 28 28.0010000  0 10G20G28G17G11G 4G19G23G 1S37S29
 110625564.484 8  21051347.923          49.000       -1976.851
 112898701.301 8  21483913.851          49.000       -2617.113
 112850500.132 8  21474737.317          50.000         717.496
 119549045.948 8  22749429.089          50.000       -3426.819
 123343846.035 7  23471553.817          47.000        1181.557
                  25938519.965          24.000       -4036.042
                  24553351.715          31.000        1563.039
 134944447.196 7  25679070.576          42.000       -1757.645
 197922109.211 7  37663323.129          43.000       -1154.177
 197611746.126 6  37604273.319          40.000       -1156.629
 07  8 29 13 28 29.0010000  0  9G20G28G17G11G 4G23G 1S37S29
 110627541.444 8  21051723.975          49.000       -1977.550
 112901319.210 8  21484411.775          49.000       -2618.035
 112849782.630 8  21474600.717          50.000         717.235
 119552473.270 8  22750081.466          49.000       -3427.119
 123342664.928 7  23471328.936          46.000        1180.804
                  24553054.065          30.000        1560.146
 134946206.215 7  25679405.305          42.000       -1758.820
 197923263.548 7  37663542.861          44.000       -1155.289
 197612903.438 7  37604493.697          42.000       -1157.793
 07  8 29 13 28 30.0010000  0  9G20G28G17G11G 4G23G 1S37S29
 110629519.059 8  21052100.324          49.000       -1977.684
 112903937.774 8  21484909.926          49.000       -2618.304
 112849065.454 8  21474464.378          50.000         717.167
 119555900.736 8  22750733.650          49.000       -3427.488
 123341484.063 7  23471104.177          46.000        1180.795
                  24552754.131          31.000        1561.870
 134947965.818 7  25679739.930          42.000       -1759.853
 197924418.140 7  37663762.578          42.000       -1153.713
 197614060.717 6  37604714.128          40.000       -1156.942
 07  8 29 13 28 31.0010000  0  9G20G28G17G11G 4G23G 1S37S29
 110631497.204 8  21052476.533          48.000       -1978.260
 112906556.846 8  21485408.217          49.000       -2618.877
 112848348.454 8  21474327.987          50.000         716.870
 119559328.223 8  22751385.782          49.000       -3427.454
 123340303.331 7  23470879.191          46.000        1181.034
                  24552454.110          31.000        1561.830
 134949725.862 6  25680074.765          41.000       -1760.120
 197925572.615 7  37663982.171          42.000       -1153.976
 197615217.594 6  37604934.211          41.000       -1156.404
 07  8 29 13 28 32.0010000  0  9G20G28G17G11G 4G23G 1S37S29
 110633475.987 8  21052853.056          48.000       -1979.132
 112909176.518 8  21485906.647          49.000       -2619.940
 112847631.751 8  21474191.352          50.000         716.622
 119562755.832 8  22752037.897          49.000       -3427.542
 123339122.836 7  23470654.188          46.000        1180.632
                  24552153.931          30.000        1562.248
 134951486.495 6  25680409.460          41.000       -1760.278
 197926727.063 7  37664201.521          42.000       -1153.602
 197616374.532 6  37605154.310          40.000       -1157.695
 07  8 29 13 28 33.0010000  0  9G20G28G17G11G 4G23G 1S37S29
 110635455.586 8  21053229.824          49.000       -1979.712
 112911796.999 8  21486405.252          49.000       -2620.673
 112846915.522 8  21474054.943          50.000         716.279
 119566183.744 8  22752690.098          49.000       -3427.884
 123337942.748 7  23470429.394          46.000        1180.027
                  24551854.049          30.000        1561.011
 134953247.845 6  25680744.120          41.000       -1762.126
 197927881.731 7  37664421.375          42.000       -1155.234
 197617531.321 6  37605374.236          40.000       -1156.103
 07  8 29 13 28 34.0010000  0  9G20G28G17G11G 4G23G 1S37S29
 110637435.818 8  21053606.556          49.000       -1980.399
 112914418.103 8  21486904.013          49.000       -2621.555
 112846199.590 8  21473918.814          50.000         715.736
 119569611.799 8  22753342.405          49.000       -3428.321
 123336762.880 7  23470204.618          46.000        1179.700
                  24551557.150          30.000        1560.196
 134955009.784 6  25681079.356          41.000       -1761.929
 197929036.515 7  37664641.074          43.000       -1154.844
 197618688.143 6  37605594.230          41.000       -1157.272
 07  8 29 13 28 35.0010000  0  9G20G28G17G11G 4G23G 1S37S29
 110639416.579 8  21053983.184          49.000       -1980.590
 112917039.703 8  21487402.932          49.000       -2621.952
 112845483.835 8  21473782.563          50.000         715.516
 119573039.853 8  22753994.729          49.000       -3428.245
 123335583.096 7  23469979.963          46.000        1179.386
                  24551259.328          31.000        1561.434
 134956772.163 6  25681414.522          41.000       -1762.992
 197930191.343 7  37664860.946          44.000       -1156.186
 197619845.295 6  37605814.155          40.000       -1157.810
 07  8 29 13 28 36.0010000  0  9G20G28G17G11G 4G23G 1S37S29
 110641398.045 8  21054360.265          49.000       -1981.365
 112919661.986 8  21487901.904          49.000       -2622.256
 112844768.449 8  21473646.137          50.000         715.487
 119576468.118 8  22754647.053          49.000       -3427.857
 123334403.630 7  23469755.240          46.000        1180.038
                  24550964.192          30.000        1559.996
 134958535.170 6  25681750.089          40.000       -1763.717
 197931346.606 7  37665080.924          43.000       -1154.870
 197621002.448 7  37606034.167          42.000       -1157.805
 07  8 29 13 28 37.0010000  0  9G20G28G17G11G 4G23G 1S37S29
 110643380.243 8  21054737.399          49.000       -1982.419
 112922284.974 8  21488401.189          49.000       -2623.458
 112844053.442 8  21473510.269          50.000         715.024
 119579896.602 8  22755299.464          49.000       -3428.273
 123333224.462 7  23469530.777          46.000        1178.713
                  24550670.454          31.000        1563.231
 134960298.844 6  25682085.622          41.000       -1764.745
 197932502.023 7  37665300.884          43.000       -1154.875
 197622159.771 6  37606254.581          41.000       -1158.769
 07  8 29 13 28 38.0010000  0  9G20G28G17G11G 4G23G 1S37S29
 110645362.949 8  21055114.498          49.000       -1982.759
 112924908.446 8  21488900.544          49.000       -2623.598
 112843338.596 8  21473373.756          50.000         714.719
 119583325.059 8  22755952.102          49.000       -3428.407
 123332045.382 7  23469306.420          47.000        1179.349
 129013095.92035  24550375.998          33.000        1562.325
 134962062.942 6  25682421.050          41.000       -1764.350
 197933657.006 7  37665520.669          43.000       -1155.266
 197623316.764 6  37606474.803          40.000       -1157.295
 07  8 29 13 28 39.0010000  0  9G20G28G17G11G 4G23G 1S37S29
 110647346.453 8  21055491.684          49.000       -1983.857
 112927532.707 8  21489399.987          49.000       -2624.302
 112842624.212 8  21473237.836          50.000         714.332
 119586753.808 8  22756604.444          49.000       -3428.859
 123330866.710 7  23469082.411          47.000        1177.999
 129011535.45925  24550080.566          33.000        1562.109
 134963827.773 7  25682757.246          42.000       -1764.911
 197934811.834 7  37665740.542          43.000       -1154.305
 197624474.197 6  37606695.322          41.000       -1156.207
 07  8 29 13 28 40.0010000  0  9G20G28G17G11G 4G23G 1S37S29
 110649330.640 8  21055869.307          49.000       -1984.347
 112930157.623 8  21489899.342          49.000       -2625.211
 112841910.154 8  21473102.091          50.000         713.945
 119590182.739 8  22757256.977          49.000       -3428.728
 123329688.325 7  23468858.281          47.000        1178.813
 129009975.23025  24549785.587          34.000        1561.209
 134965593.199 6  25683093.145          41.000       -1765.209
 197935966.772 7  37665960.363          43.000       -1154.563
 197625631.631 6  37606915.578          41.000       -1158.286
 07  8 29 13 28 41.0010000  0  9G20G28G17G11G 4G23G 1S37S29
 110651315.411 8  21056246.545          49.000       -1985.484
 112932783.106 8  21490398.941          49.000       -2625.915
 112841196.343 8  21472965.997          50.000         713.789
 119593611.741 8  22757909.441          49.000       -3428.940
 123328510.104 7  23468634.097          47.000        1178.298
 129008415.04925  24549489.928          34.000        1561.366
 134967359.137 6  25683428.956          41.000       -1767.230
 197937121.396 7  37666179.991          44.000       -1155.444
 197626789.185 7  37607135.835          42.000       -1157.208
 07  8 29 13 28 42.0010000  0  9G20G28G17G11G 4G23G 1S37S29
 110653300.865 8  21056624.691          49.000       -1985.978
 112935409.250 8  21490898.576          49.000       -2626.164
 112840482.879 8  21472830.652          50.000         713.370
 119597040.920 8  22758562.218          50.000       -3429.029
 123327332.165 7  23468409.967          47.000        1177.777
 129006855.01825  24549194.355          34.000        1558.476
 134969125.697 6  25683765.135          41.000       -1766.600
 197938276.378 7  37666399.724          44.000       -1154.874
 197627946.514 7  37607356.143          42.000       -1158.924
 07  8 29 13 28 43.0010000  0  9G20G28G17G11G 4G23G 1S37S29
 110655286.908 8  21057002.488          49.000       -1986.263
 112938035.956 8  21491398.559          49.000       -2626.785
 112839769.641 8  21472695.169          51.000         712.864
 119600470.148 8  22759214.542          50.000       -3429.332
 123326154.368 7  23468185.696          47.000        1177.686
 129005295.10825  24548898.609          34.000        1559.224
 134970892.753 7  25684101.382          42.000       -1767.891
 197939431.553 7  37666619.544          43.000       -1156.044
 197629103.832 6  37607576.435          41.000       -1157.311
 07  8 29 13 28 44.0010000  0  9G20G28G17G11G 4G23G 1S37S29
 110657273.750 8  21057380.355          49.000       -1987.249
 112940663.450 8  21491899.031          49.000       -2627.567
 112839056.877 8  21472559.685          50.000         713.080
 119603899.674 8  22759867.215          49.000       -3429.036
 123324976.974 7  23467961.706          46.000        1177.978
 129003735.42925  24548602.828          34.000        1558.636
 134972660.564 6  25684438.049          41.000       -1767.995
 197940587.191 7  37666839.609          43.000       -1155.657
 197630261.563 6  37607796.884          41.000       -1157.327
 07  8 29 13 28 45.0010000  0  9G20G28G17G11G 4G23G 1S37S29
 110659261.270 8  21057758.501          49.000       -1987.816
 112943291.610 8  21492398.858          49.000       -2627.980
 112838344.443 8  21472424.202          50.000         712.415
 119607329.370 8  22760519.853          49.000       -3429.725
 123323799.839 7  23467737.784          46.000        1177.002
 129002175.96525  24548307.030          34.000        1559.130
 134974428.953 7  25684774.332          42.000       -1769.079
 197941743.021 7  37667059.550          42.000       -1158.705
 197631419.189 6  37608017.175          40.000       -1158.426
 07  8 29 13 28 46.0010000  0  9G20G28G17G11G 4G23G 1S37S29
 110661249.192 8  21058136.734          49.000       -1988.364
 112945920.151 8  21492898.893          49.000       -2628.834
 112837632.075 8  21472288.823          51.000         712.218
 119610758.973 8  22761172.771          50.000       -3429.944
 123322622.698 7  23467513.828          46.000        1177.092
 129000616.33625  24548011.248          34.000        1558.622
 134976197.673 7  25685111.017          42.000       -1769.558
 197942898.284 7  37667279.563          42.000       -1156.427
 197632576.656 6  37608237.380          39.000       -1156.272
 07  8 29 13 28 47.0010000  0  9G20G28G17G11G 4G23G 1S37S29
 110663237.830 8  21058515.159          49.000       -1988.845
 112948549.379 8  21493399.540          49.000       -2629.584
 112836920.077 8  21472153.531          51.000         711.887
 119614188.774 8  22761825.357          49.000       -3429.383
 123321445.843 7  23467289.697          47.000        1176.949
 128999056.91625  24547715.397          34.000        1557.305
 134977967.037 7  25685447.876          42.000       -1769.250
 197944053.718 7  37667499.419          44.000       -1156.298
 197633734.040 7  37608457.706          42.000       -1157.925
 07  8 29 13 28 48.0010000  0  9G20G28G17G11G 4G23G 1S37S29
 110665227.096 8  21058893.515          49.000       -1989.133
 112951179.214 8  21493900.186          49.000       -2630.115
 112836208.359 8  21472018.327          51.000         712.149
 119617618.691 8  22762477.803          49.000       -3429.461
 123320269.226 7  23467066.003          47.000        1176.979
 128997497.63425  24547419.581          35.000        1559.553
 134979736.941 7  25685784.717          42.000       -1770.804
 197945209.328 7  37667719.257          44.000       -1155.143
 197634891.175 7  37608677.858          42.000       -1157.691
 07  8 29 13 28 49.0010000  0  9G20G28G17G11G 4G23G 1S37S29
 110667216.913 8  21059272.114          49.000       -1990.302
 112953809.584 8  21494400.850          49.000       -2630.519
 112835496.867 8  21471882.948          51.000         711.695
 119621048.641 8  22763130.493          49.000       -3429.951
 123319092.746 7  23466842.151          47.000        1176.573
 128995938.407 5  24547123.399          35.000        1558.564
 134981507.346 7  25686122.029          43.000       -1770.333
 197946364.498 7  37667939.147          43.000       -1154.748
 197636048.752 6  37608898.307          41.000       -1156.552
 07  8 29 13 28 50.0010000  0  9G20G28G17G11G 4G23G 1S37S29
 110669207.545 8  21059650.784          49.000       -1991.141
 112956440.757 8  21494901.636          49.000       -2631.556
 112834785.849 8  21471747.709          51.000         711.017
 119624478.910 8  22763783.376          50.000       -3429.969
 123317916.663 7  23466618.649          47.000        1175.859
 128994379.472 5  24546827.390          35.000        1558.070
 134983278.473 7  25686459.499          42.000       -1771.457
 197947519.673 7  37668158.897          43.000       -1156.436
 197637206.114 6  37609118.388          41.000       -1158.506
 07  8 29 13 28 51.0010000  0  9G20G28G17G11G 4G23G 1S37S29
 110671198.838 8  21060029.890          49.000       -1991.611
 112959072.558 8  21495402.440          49.000       -2631.477
 112834075.123 8  21471612.714          51.000         710.794
 119627909.301 8  22764436.275          50.000       -3430.223
 123316740.828 7  23466395.007          47.000        1175.781
 128992820.658 5  24546531.330          35.000        1559.142
 134985050.178 7  25686796.881          43.000       -1772.076
 197948674.837 7  37668378.876          43.000       -1153.499
 197638363.718 6  37609338.628          41.000       -1157.212
 07  8 29 13 28 52.0010000  0  9G20G28G17G11G 4G23G 1S37S29
 110673190.797 8  21060408.664          49.000       -1991.932
 112961704.999 8  21495903.418          50.000       -2632.524
 112833364.744 8  21471477.631          51.000         710.632
 119631339.867 8  22765089.123          50.000       -3430.760
 123315565.246 7  23466171.609          47.000        1175.652
 128991261.976 5  24546235.112          35.000        1557.641
 134986822.489 7  25687134.508          43.000       -1772.338
 197949830.155 7  37668598.747          42.000       -1157.579
 197639520.948 7  37609558.955          42.000       -1156.430
 07  8 29 13 28 53.0010000  0  9G20G28G17G11G 4G23G 1S37S29
 110675183.346 8  21060787.700          49.000       -1992.603
 112964338.028 8  21496404.449          50.000       -2633.007
 112832654.613 8  21471342.357          51.000         710.315
 119634770.500 8  22765741.901          50.000       -3430.279
 123314389.856 7  23465948.159          47.000        1175.493
 128989703.361 5  24545938.337          35.000        1557.871
 134988595.291 7  25687472.099          43.000       -1773.400
 197950985.495 7  37668818.429          43.000       -1154.147
 197640678.210 6  37609778.897          40.000       -1158.200
 07  8 29 13 28 54.0010000  0  9G20G28G17G11G 4G23G 1S37S29
 110677176.528 8  21061167.189          49.000       -1993.586
 112966971.648 8  21496905.566          49.000       -2633.892
 112831944.762 8  21471207.554          52.000         709.485
 119638201.260 8  22766394.835          50.000       -3431.212
 123313214.688 8  23465724.255          48.000        1174.829
 128988144.888 6  24545641.857          36.000        1558.020
 134990368.681 7  25687809.744          43.000       -1773.579
 197952140.869 7  37669038.353          44.000       -1156.663
 197641835.842 6  37609999.293          41.000       -1157.402
 07  8 29 13 28 55.0010000  0  9G20G28G17G11G 4G23G 1S37S29
 110679170.300 8  21061547.011          49.000       -1994.481
 112969605.856 8  21497406.946          49.000       -2634.394
 112831235.171 8  21471072.454          51.000         709.182
 119641632.096 8  22767047.753          50.000       -3430.668
 123312039.701 8  23465500.997          48.000        1174.890
 128986586.510 5  24545345.308          35.000        1557.359
 134992142.607 7  25688147.492          43.000       -1773.785
 197953296.225 7  37669258.226          43.000       -1155.965
 197642992.956 6  37610219.375          41.000       -1157.717
 07  8 29 13 28 56.0010000  0  9G20G28G17G11G 4G23G 1S37S29
 110681164.838 8  21061926.535          48.000       -1994.757
 112972240.797 8  21497908.185          49.000       -2635.073
 112830525.998 8  21470937.669          51.000         709.423
 119645063.175 8  22767700.862          49.000       -3430.572
 123310865.072 7  23465277.442          47.000        1174.372
 128985028.390 5  24545048.970          35.000        1560.044
 134993917.176 7  25688485.328          43.000       -1775.283
 197954452.094 7  37669477.977          43.000       -1156.160
 197644150.533 6  37610439.736          41.000       -1158.246
 07  8 29 13 28 57.0010000  0  9G20G28G17G11G 4G23G 1S37S29
 110683159.975 8  21062306.374          48.000       -1995.265
 112974876.339 8  21498409.233          49.000       -2635.844
 112829817.095 8  21470802.883          51.000         708.947
 119648494.365 8  22768353.692          49.000       -3431.140
 123309690.641 7  23465054.079          47.000        1174.610
 128983470.336 6  24544752.612          36.000        1558.009
 134995692.308 7  25688823.269          43.000       -1775.615
 197955608.074 7  37669697.867          42.000       -1156.082
 197645308.578 6  37610660.307          41.000       -1157.416
 07  8 29 13 28 58.0010000  0  9G20G28G17G11G 4G23G 1S37S29
 110685155.791 8  21062686.195          48.000       -1995.865
 112977512.514 8  21498911.066          49.000       -2636.555
 112829108.523 8  21470668.080          51.000         708.387
 119651925.708 8  22769006.679          49.000       -3431.253
 123308516.453 7  23464830.611          47.000        1174.102
 128981912.458 6  24544456.289          36.000        1556.024
 134997468.012 7  25689160.930          43.000       -1776.326
 197956764.014 7  37669917.758          42.000       -1154.752
 197646466.705 6  37610880.791          40.000       -1158.096
 07  8 29 13 28 59.0010000  0  9G20G28G17G11G 4G23G 1S37S29
 110687152.322 8  21063066.121          49.000       -1996.661
 112980149.394 8  21499412.795          49.000       -2636.978
 112828400.320 8  21470533.242          51.000         708.350
 119655357.250 8  22769659.683          50.000       -3431.254
 123307342.540 8  23464607.406          48.000        1173.690
 128980354.774 6  24544159.793          36.000        1556.847
 134999244.372 7  25689499.290          42.000       -1777.145
 197957919.966 7  37670137.857          42.000       -1155.729
 197647624.855 6  37611101.187          40.000       -1158.501
 07  8 29 13 29  0.0010000  0  9G20G28G17G11G 4G23G 1S37S29
 110689149.443 8  21063446.326          48.000       -1997.209
 112982786.836 8  21499914.436          49.000       -2637.681
 112827692.375 8  21470398.352          51.000         707.826
 119658788.880 8  22770312.845          49.000       -3431.431
 123306168.825 8  23464384.025          48.000        1173.883
 128978797.155 6  24543864.291          36.000        1558.822
 135001021.238 7  25689836.916          42.000       -1777.726
 197959075.675 7  37670357.765          43.000       -1155.784
 197648782.900 7  37611321.479          42.000       -1157.752
 07  8 29 13 29  1.0010000  0  9G20G28G17G11G 4G23G 1S37S29
 110691147.236 8  21063826.374          48.000       -1998.182
 112985424.939 8  21500416.391          49.000       -2638.097
 112826984.761 8  21470263.758          51.000         707.174
 119662220.664 8  22770965.954          49.000       -3431.853
 123304995.386 7  23464160.662          47.000        1173.287
 128977239.696 6  24543567.532          36.000        1556.123
 135002798.716 7  25690175.136          42.000       -1778.217
 197960231.170 7  37670577.689          43.000       -1156.425
 197649941.027 6  37611541.874          40.000       -1159.355
 07  8 29 13 29  2.0010000  0  9G20G28G17G11G 4G23G 1S37S29
 110693145.828 8  21064206.754          48.000       -1998.972
 112988063.813 8  21500918.469          49.000       -2639.000
 112826277.621 8  21470129.164          51.000         706.992
 119665652.734 8  22771618.959          49.000       -3431.662
 123303822.343 7  23463937.666          47.000        1172.982
 128975682.568 6  24543271.071          36.000        1557.613
 135004576.933 7  25690513.618          42.000       -1777.291
 197961386.752 7  37670797.354          43.000       -1154.272
 197651099.270 6  37611762.340          40.000       -1159.410
 07  8 29 13 29  3.0010000  0  9G20G28G17G11G 4G23G 1S37S29
 110695145.053 8  21064587.064          48.000       -1999.152
 112990703.310 8  21501420.668          49.000       -2639.558
 112825570.768 8  21469994.798          51.000         706.771
 119669084.932 8  22772272.277          49.000       -3431.990
 123302649.499 7  23463714.338          47.000        1172.618
 128974125.544 6  24542974.556          36.000        1555.887
 135006355.705 6  25690852.222          41.000       -1779.200
 197962542.225 7  37671017.069          42.000       -1155.536
 197652257.458 6  37611982.981          40.000       -1158.425
 07  8 29 13 29  4.0010000  0  9G20G28G17G11G 4G23G 1S37S29
 110697144.950 8  21064967.722          48.000       -2000.179
 112993343.451 8  21501922.658          48.000       -2640.077
 112824864.239 8  21469860.099          51.000         706.648
 119672517.289 8  22772925.666          49.000       -3432.197
 123301476.936 7  23463491.359          47.000        1172.540
 128972568.675 5  24542678.775          35.000        1557.203
 135008135.045 6  25691190.512          40.000       -1779.558
 197963697.890 7  37671237.116          43.000       -1154.555
 197653415.310 7  37612203.274          42.000       -1156.226
 07  8 29 13 29  5.0010000  0  9G20G28G17G11G 4G23G 1S37S29
 110699145.470 8  21065348.433          48.000       -2001.118
 112995984.198 8  21502425.381          48.000       -2641.152
 112824157.997 8  21469725.907          50.000         706.097
 119675949.750 8  22773578.845          49.000       -3432.810
 123300304.571 7  23463268.624          47.000        1172.004
 128971011.899 5  24542382.837          35.000        1557.249
 135009914.952 6  25691529.464          40.000       -1781.101
 197964853.765 7  37671456.884          43.000       -1154.648
 197654573.190 6  37612423.791          41.000       -1157.679
 07  8 29 13 29  6.0010000  0  9G20G28G17G11G 4G23G 1S37S29
 110701146.507 8  21065729.232          48.000       -2001.086
 112998625.446 8  21502927.895          48.000       -2641.329
 112823451.931 8  21469591.436          51.000         706.419
 119679382.234 8  22774232.007          49.000       -3432.010
 123299132.316 7  23463045.872          47.000        1172.468
 128969455.129 5  24542086.479          34.000        1555.299
 135011695.333 6  25691867.911          39.000       -1780.875
 197966009.441 7  37671676.652          43.000       -1156.216
 197655730.921 6  37612644.240          41.000       -1157.488
 07  8 29 13 29  7.0010000  0  9G20G28G17G11G 4G23G 1S37S29
 110703148.068 8  21066110.292          48.000       -2001.599
 113001267.191 8  21503430.723          48.000       -2641.635
 112822746.041 8  21469457.104          51.000         705.976
 119682814.729 8  22774885.203          49.000       -3432.116
 123297960.177 7  23462822.789          47.000        1172.093
 128967898.391 5  24541790.314          34.000        1556.038
 135013476.177 6  25692206.079          39.000       -1780.799
 197967165.222 7  37671896.472          42.000       -1156.251
 197656888.696 6  37612864.689          40.000       -1156.974
 07  8 29 13 29  8.0010000  0  9G20G28G17G11G 4G23G 1S37S29
 110705150.306 8  21066491.370          48.000       -2002.140
 113003909.590 8  21503933.481          48.000       -2642.524
 112822040.493 8  21469322.894          51.000         705.662
 119686247.389 8  22775538.557          49.000       -3432.292
 123296788.335 7  23462599.845          47.000        1171.849
 128966341.836 5  24541494.011          34.000        1558.885
 135015257.610 6  25692544.595          40.000       -1781.489
 197968320.821 7  37672116.433          42.000       -1154.393
 197658046.636 6  37613085.050          39.000       -1156.766
 07  8 29 13 29  9.0010000  0  9G20G28G17G11G 4G23G 1S37S29
 110707153.183 8  21066872.447          48.000       -2003.103
 113006552.623 8  21504436.379          48.000       -2642.954
 112821335.253 8  21469188.981          51.000         705.425
 119689680.170 8  22776191.753          49.000       -3432.598
 123295616.692 7  23462376.935          47.000        1171.744
 128964785.346 5  24541197.479          34.000        1557.022
 135017039.594 6  25692883.164          40.000       -1782.192
 197969476.470 6  37672336.235          41.000       -1157.468
 197659204.901 6  37613305.341          39.000       -1159.559
 07  8 29 13 29 10.0010000  0  9G20G28G17G11G 4G23G 1S37S29
 110709156.727 8  21067254.048          48.000       -2003.645
 113009196.290 8  21504939.503          48.000       -2644.308
 112820630.327 8  21469055.050          51.000         704.801
 119693113.094 8  22776844.862          49.000       -3432.854
 123294445.307 7  23462154.148          47.000        1171.126
 128963229.044 5  24540901.087          34.000        1557.385
 135018822.151 6  25693222.239          41.000       -1783.273
 197970632.515 7  37672556.177          43.000       -1157.616
 197660363.194 6  37613525.440          41.000       -1159.218
 07  8 29 13 29 11.0010000  0  9G20G28G17G11G 4G23G 1S37S29
 110711161.053 8  21067635.719          48.000       -2004.488
 113011840.722 8  21505442.697          48.000       -2644.777
 112819925.859 8  21468920.980          51.000         704.209
 119696546.299 8  22777498.251          49.000       -3433.199
 123293274.281 7  23461931.204          47.000        1170.544
 128961673.051 5  24540604.782          34.000        1557.438
 135020605.457 6  25693561.960          41.000       -1783.529
 197971788.935 6  37672776.173          41.000       -1155.949
 197661521.652 6  37613746.029          39.000       -1157.140
 07  8 29 13 29 12.0010000  0  9G20G28G17G11G 4G23G 1S37S29
 110713166.045 8  21068017.495          49.000       -2005.490
 113014485.804 8  21505945.996          49.000       -2645.166
 112819221.710 8  21468787.189          52.000         704.334
 119699979.681 8  22778151.709          49.000       -3433.374
 123292103.497 8  23461708.557          48.000        1170.771
 128960117.195 5  24540308.756          34.000        1556.548
 135022389.347 6  25693901.366          41.000       -1783.681
 197972945.035 7  37672996.116          42.000       -1155.205
 197662679.895 6  37613966.321          41.000       -1157.981
 07  8 29 13 29 13.0010000  0  9G20G28G17G11G 4G23G 1S37S29
 110715171.533 8  21068398.886          48.000       -2006.090
 113017131.354 8  21506449.836          49.000       -2645.988
 112818517.715 8  21468653.486          52.000         703.814
 119703413.013 8  22778805.132          49.000       -3433.856
 123290932.806 7  23461485.927          47.000        1170.344
 128958561.306 5  24540012.365          34.000        1557.456
 135024173.627 7  25694241.156          42.000       -1785.100
 197974100.783 7  37673216.040          42.000       -1156.665
 197663838.221 6  37614186.891          40.000       -1159.823
 07  8 29 13 29 14.0010000  0 10G20G28G17G11G 4G23G 1S37S29G13
 110717177.727 8  21068780.785          48.000       -2005.912
 113019777.588 8  21506953.694          49.000       -2645.849
 112817814.083 8  21468519.730          52.000         703.926
 119706846.565 8  22779458.748          49.000       -3432.828
 123289762.391 8  23461263.315          48.000        1170.836
 128957005.560 5  24539716.583          34.000        1556.666
 135025958.569 7  25694580.424          42.000       -1784.734
 197975256.520 7  37673436.070          42.000       -1155.773
 197664996.442 6  37614406.992          40.000       -1155.540
                  25711708.676          28.000        1906.323
 07  8 29 13 29 15.0010000  0 10G20G28G17G11G 4G23G 1S37S29G13
 110719184.383 8  21069162.403          48.000       -2006.786
 113022424.262 8  21507457.359          49.000       -2646.894
 112817110.568 8  21468385.886          52.000         703.642
 119710280.041 8  22780111.875          49.000       -3433.371
 123288592.053 8  23461041.016          48.000        1170.086
 128955449.84235  24539420.051          34.000        1555.116
 135027743.864 7  25694919.882          42.000       -1785.971
 197976412.213 7  37673655.909          42.000       -1154.518
 197666154.520 6  37614627.474          41.000       -1158.907
                  25711345.397          28.000        1905.391
 07  8 29 13 29 16.0010000  0 10G20G28G17G11G 4G23G 1S37S29G13
 110721191.694 8  21069544.196          48.000       -2007.831
 113025071.581 8  21507961.007          49.000       -2647.537
 112816407.383 8  21468251.973          52.000         703.162
 119713713.687 8  22780765.141          49.000       -3433.497
 123287421.969 8  23460818.648          48.000        1170.380
 128953894.25625  24539123.920          34.000        1553.749
 135029529.781 7  25695259.743          42.000       -1786.133
 197977568.181 7  37673875.920          43.000       -1158.202
 197667312.549 6  37614847.784          40.000       -1157.608
                  25710982.364          26.000        1908.541
 07  8 29 13 29 17.0010000  0 10G20G28G17G11G 4G23G 1S37S29G13
 110723199.689 8  21069926.722          48.000       -2008.049
 113027719.560 8  21508464.829          48.000       -2648.354
 112815704.545 8  21468117.955          51.000         702.543
 119717147.498 8  22781418.739          49.000       -3433.497
 123286252.143 8  23460595.966          48.000        1169.902
 128952338.79725  24538828.086          34.000        1553.151
 135031316.276 7  25695599.690          42.000       -1786.494
 197978724.369 7  37674095.881          43.000       -1155.281
 197668470.935 7  37615068.301          42.000       -1160.024
                  25710621.598          27.000        1907.553
 07  8 29 13 29 18.0010000  0 10G20G28G17G11G 4G23G 1S37S29G13
 110725208.416 8  21070308.847          48.000       -2008.991
 113030368.256 8  21508968.844          49.000       -2648.935
 112815002.087 8  21467984.217          51.000         702.386
 119720581.524 8  22782072.197          49.000       -3434.104
 123285082.659 8  23460373.126          48.000        1169.729
 128950783.62925  24538532.446          35.000        1555.725
 135033103.471 7  25695939.987          42.000       -1786.620
 197979880.833 7  37674315.962          43.000       -1156.874
 197669629.707 7  37615288.925          42.000       -1159.175
                  25710260.902          27.000        1907.254
 07  8 29 13 29 19.0010000  0 10G20G28G17G11G 4G23G 1S37S29G13
 110727217.754 8  21070691.233          48.000       -2009.603
 113033017.514 8  21509472.858          49.000       -2649.742
 112814299.888 8  21467850.513          51.000         702.172
 119724015.638 8  22782725.969          49.000       -3434.107
 123283913.368 8  23460150.444          48.000        1169.436
 128949228.52825  24538236.630          35.000        1557.137
 135034891.173 6  25696280.458          41.000       -1787.986
 197981037.330 7  37674536.009          42.000       -1157.005
 197670787.978 6  37615509.356          41.000       -1159.604
                  25709898.304          28.000        1907.443
 07  8 29 13 29 20.0010000  0 10G20G28G17G11G 4G23G 1S37S29G13
 110729227.726 8  21071073.602          48.000       -2009.915
 113035667.399 8  21509977.536          49.000       -2650.081
 112813597.991 8  21467717.001          51.000         701.967
 119727449.890 8  22783379.323          49.000       -3434.113
 123282744.302 8  23459928.320          49.000        1169.612
 128947673.55326  24537941.005          36.000        1554.666
 135036679.431 6  25696620.301          41.000       -1788.242
 197982193.888 7  37674756.074          42.000       -1157.510
 197671946.348 6  37615729.770          41.000       -1158.054
                  25709534.571          26.000        1905.797
 07  8 29 13 29 21.0010000  0 10G20G28G17G11G 4G23G 1S37S29G13
 110731238.260 8  21071456.145          49.000       -2011.137
 113038317.846 8  21510482.073          49.000       -2651.027
 112812896.332 8  21467583.420          52.000         701.263
 119730884.186 8  22784032.816          49.000       -3434.329
 123281575.391 8  23459705.690          49.000        1168.893
 128946118.62825  24537645.451          35.000        1554.046
 135038468.201 6  25696959.969          39.000       -1789.368
 197983350.220 7  37674976.174          43.000       -1157.302
 197673104.872 6  37615950.218          40.000       -1158.508
                  25709169.234          27.000        1907.780
 07  8 29 13 29 22.0010000  0 10G20G28G17G11G 4G23G 1S37S29G13
 110733249.626 8  21071838.741          48.000       -2011.804
 113040969.087 8  21510986.611          49.000       -2651.661
 112812195.169 8  21467449.786          51.000         701.154
 119734318.801 8  22784686.274          49.000       -3435.124
 123280406.876 8  23459483.374          48.000        1167.896
 128944564.03426  24537349.617          36.000        1553.342
 135040257.676 6  25697299.777          38.000       -1789.658
 197984506.210 7  37675196.326          43.000       -1156.126
 197674263.434 7  37616170.754          42.000       -1159.877
                  25708805.152          27.000        1907.177
 07  8 29 13 29 23.0010000  0 10G20G28G17G11G 4G23G 1S37S29G13
 110735261.801 8  21072221.599          48.000       -2012.377
 113043621.121 8  21511491.062          49.000       -2652.260
 112811494.451 8  21467316.292          51.000         700.596
 119737753.714 8  22785339.907          49.000       -3434.677
 123279238.769 8  23459260.814          49.000        1168.095
 128943009.72026  24537053.871          36.000        1555.477
 135042047.945 6  25697640.579          38.000       -1790.464
 197985662.228 7  37675416.251          43.000       -1156.211
 197675422.653 7  37616391.447          42.000       -1158.794
                  25708441.263          27.000        1907.934
 07  8 29 13 29 24.0010000  0 10G20G28G17G11G 4G23G 1S37S29G13
 110737274.561 8  21072604.596          48.000       -2013.079
 113046273.717 8  21511995.530          49.000       -2652.675
 112810793.987 8  21467182.954          51.000         700.250
 119741188.715 8  22785993.260          49.000       -3434.860
 123278070.855 8  23459038.515          49.000        1167.653
 128941455.49526  24536758.055          36.000        1553.623
 135043838.742 6  25697981.521          38.000       -1790.100
 197986818.350 7  37675636.211          43.000       -1156.262
 197676581.259 7  37616611.843          42.000       -1160.084
                  25708077.880          27.000        1908.175
 07  8 29 13 29 25.0010000  0 10G20G28G17G11G 4G23G 1S37S29G13
 110739288.031 8  21072987.680          48.000       -2013.454
 113048927.001 8  21512500.818          49.000       -2653.283
 112810093.920 8  21467049.669          51.000         699.956
 119744623.909 8  22786646.945          49.000       -3435.487
 123276903.249 8  23458816.322          49.000        1167.300
 128939901.451 6  24536462.622          36.000        1552.830
 135045630.162 6  25698321.643          36.000       -1791.032
 197987974.765 7  37675856.188          42.000       -1156.663
 197677740.274 6  37616832.519          41.000       -1157.740
                  25707714.758          26.000        1908.463
 07  8 29 13 29 26.0010000  0 10G20G28G17G11G 4G23G 1S37S29G13
 110741302.239 8  21073370.939          48.000       -2014.220
 113051580.996 8  21513006.054          49.000       -2654.249
 112809394.233 8  21466916.646          52.000         699.605
 119748059.318 8  22787300.945          50.000       -3435.267
 123275735.958 8  23458594.320          48.000        1166.947
 128938347.683 5  24536167.138          35.000        1553.697
 135047422.199 6  25698662.446          36.000       -1791.207
 197989131.449 7  37676076.200          42.000       -1157.237
 197678899.161 6  37617053.019          40.000       -1159.404
                  25707352.229          25.000        1904.062
 07  8 29 13 29 27.0010000  0 10G20G28G17G11G 4G23G 1S37S29G13
 110743317.229 8  21073754.285          49.000       -2015.351
 113054235.745 8  21513511.726          49.000       -2654.529
 112808694.992 8  21466783.676          52.000         699.827
 119751494.996 8  22787954.752          50.000       -3435.517
 123274569.040 8  23458371.934          48.000        1166.464
 128936794.124 6  24535871.304          36.000        1552.129
 135049214.985 6  25699004.191          36.000       -1792.006
 197990288.293 7  37676296.335          42.000       -1156.651
 197680057.972 6  37617273.259          40.000       -1158.900
                  25706992.652          24.000        1909.830
 07  8 29 13 29 28.0010000  0 10G20G28G17G11G 4G23G 1S37S29G13
 110745332.731 8  21074137.544          49.000       -2015.899
 113056891.018 8  21514017.207          50.000       -2655.425
 112807995.938 8  21466650.757          52.000         699.001
 119754930.719 8  22788608.437          50.000       -3435.668
 123273402.272 8  23458149.985          49.000        1166.844
 128935240.659 6  24535575.522          36.000        1551.312
 135051008.250 6  25699345.202          36.000       -1794.131
 197991445.016 7  37676516.400          43.000       -1156.455
 197681216.661 7  37617493.760          42.000       -1159.197
                  25706629.983          25.000        1907.969
 07  8 29 13 29 29.0010000  0 10G20G28G17G11G 4G23G 1S37S29G13
 110747348.928 8  21074521.065          49.000       -2016.289
 113059546.957 8  21514522.408          49.000       -2656.066
 112807297.242 8  21466517.891          52.000         698.942
 119758366.607 8  22789262.279          50.000       -3436.189
 123272235.735 8  23457927.861          48.000        1166.315
 128933687.309 6  24535278.852          36.000        1553.014
 135052802.132 6  25699687.505          38.000       -1794.743
 197992601.882 7  37676736.674          44.000       -1157.237
 197682375.615 7  37617714.261          42.000       -1159.024
                  25706269.270          24.000        1909.212
 07  8 29 13 29 30.0010000  0 10G20G28G17G11G 4G23G 1S37S29G13
 110749365.868 8  21074904.987          49.000       -2017.015
 113062203.612 8  21515027.783          49.000       -2656.565
 112806598.948 8  21466385.182          52.000         698.325
 119761802.715 8  22789915.982          50.000       -3436.137
 123271069.539 8  23457705.632          48.000        1165.804
 128932134.213 6  24534982.949          36.000        1555.831
 135054596.659 6  25700029.565          39.000       -1794.417
 197993758.979 7  37676956.983          44.000       -1156.611
 197683534.899 7  37617934.796          42.000       -1160.120
                  25705908.382          24.000        1908.833
 07  8 29 13 29 31.0010000  0 10G20G28G17G11G 4G23G 1S37S29G13
 110751383.453 8  21075289.013          49.000       -2017.595
 113064860.890 8  21515533.368          50.000       -2656.924
 112805900.963 8  21466252.438          52.000         697.838
 119765238.972 8  22790569.841          50.000       -3435.839
 123269903.586 8  23457483.543          48.000        1166.232
 128930581.266 6  24534686.993          36.000        1552.658
 135056391.770 6  25700371.519          39.000       -1794.630
 197994916.303 7  37677177.240          43.000       -1156.278
 197684694.508 6  37618155.507          41.000       -1159.188
                  25705547.405          23.000        1903.526
 07  8 29 13 29 32.0010000  0  9G20G28G17G11G 4G23G 1S37S29
 110753401.632 8  21075672.743          49.000       -2018.509
 113067518.741 8  21516039.214          50.000       -2658.577
 112805203.232 8  21466119.694          52.000         697.687
 119768675.306 8  22791223.788          50.000       -3436.596
 123268737.803 8  23457261.821          48.000        1165.844
 128929028.401 6  24534391.456          36.000        1553.152
 135058187.370 6  25700713.177          40.000       -1794.833
 197996073.631 7  37677397.391          42.000       -1157.084
 197685853.506 6  37618376.077          41.000       -1159.548
 07  8 29 13 29 33.0010000  0  9G20G28G17G11G 4G23G 1S37S29
 110755420.478 8  21076057.119          49.000       -2018.762
 113070177.242 8  21516545.131          49.000       -2658.703
 112804505.825 8  21465987.037          52.000         697.264
 119772111.794 8  22791877.718          50.000       -3436.116
 123267572.274 8  23457040.133          48.000        1165.453
 128927475.696 6  24534095.657          36.000        1552.649
 135059983.549 6  25701054.991          41.000       -1796.439
 197997230.927 7  37677617.612          42.000       -1159.261
 197687012.846 6  37618596.736          40.000       -1158.452
 07  8 29 13 29 34.0010000  0  9G20G28G17G11G 4G23G 1S37S29
 110757439.859 8  21076441.460          49.000       -2019.582
 113072836.299 8  21517051.466          50.000       -2659.261
 112803808.638 8  21465854.433          52.000         697.243
 119775548.321 8  22792531.420          50.000       -3436.116
 123266406.889 8  23456818.445          49.000        1165.382
 128925923.029 6  24533800.522          37.000        1552.859
 135061780.224 7  25701397.417          42.000       -1796.563
 197998388.013 7  37677837.870          44.000       -1157.767
 197688171.755 7  37618817.114          42.000       -1159.642
 07  8 29 13 29 35.0010000  0  9G20G28G17G11G 4G23G 1S37S29
 110759459.939 8  21076825.923          49.000       -2020.473
 113075496.011 8  21517557.435          50.000       -2659.667
 112803111.799 8  21465721.829          52.000         696.830
 119778985.013 8  22793185.315          49.000       -3436.442
 123265241.795 8  23456596.915          49.000        1165.612
 128924370.517 6  24533504.828          37.000        1554.578
 135063577.533 7  25701739.807          42.000       -1796.745
 197999545.061 7  37678057.882          44.000       -1156.802
 197689330.852 7  37619037.860          42.000       -1157.748
 07  8 29 13 29 36.0010000  0  9G20G28G17G11G 4G23G 1S37S29
 110761480.713 8  21077210.438          49.000       -2020.900
 113078156.396 8  21518063.648          50.000       -2660.553
 112802415.312 8  21465589.347          52.000         696.372
 119782421.909 8  22793839.087          49.000       -3436.742
 123264076.982 8  23456375.454          49.000        1164.899
 128922818.225 6  24533209.814          36.000        1552.979
 135065375.425 7  25702082.302          42.000       -1798.432
 198000702.186 7  37678278.191          44.000       -1157.885
 197690489.889 7  37619258.378          42.000       -1159.647
 07  8 29 13 29 37.0010000  0  9G20G28G17G11G 4G23G 1S37S29
 110763502.181 8  21077594.953          48.000       -2021.812
 113080817.447 8  21518570.141          49.000       -2661.449
 112801719.200 8  21465456.830          52.000         695.983
 119785858.954 8  22794493.261          50.000       -3436.979
 123262912.450 8  23456153.504          49.000        1164.439
 128921266.087 6  24532915.185          36.000        1552.836
 135067173.945 7  25702425.251          43.000       -1800.065
 198001859.229 7  37678498.378          43.000       -1157.408
 197691648.947 6  37619478.861          41.000       -1160.211
 07  8 29 13 29 38.0010000  0  9G20G28G17G11G 4G23G 1S37S29
 110765524.206 8  21077980.027          48.000       -2022.549
 113083479.032 8  21519076.895          49.000       -2661.813
 112801023.297 8  21465324.470          52.000         695.916
 119789296.076 8  22795147.173          49.000       -3436.942
 123261748.088 8  23455931.904          48.000        1164.349
 128919714.016 6  24532619.962          36.000        1552.842
 135068972.961 7  25702768.217          43.000       -1799.429
 198003016.464 7  37678718.669          42.000       -1157.104
 197692807.609 6  37619699.223          41.000       -1158.555
 07  8 29 13 29 39.0010000  0  9G20G28G17G11G 4G23G 1S37S29
 110767546.891 8  21078364.769          48.000       -2023.043
 113086141.257 8  21519583.736          49.000       -2662.358
 112800327.724 8  21465192.005          52.000         695.844
 119792733.346 8  22795801.346          50.000       -3437.244
 123260583.953 8  23455710.321          48.000        1164.400
 128918162.093 6  24532323.972          37.000        1554.584
 135070772.561 7  25703111.323          43.000       -1800.173
 198004173.495 7  37678938.734          42.000       -1156.642
 197693967.092 6  37619919.758          41.000       -1160.177
 07  8 29 13 29 40.0010000  0  9G20G28G17G11G 4G23G 1S37S29
 110769570.265 8  21078749.738          48.000       -2024.044
 113088804.148 8  21520090.263          49.000       -2662.929
 112799632.499 8  21465059.453          52.000         694.784
 119796170.782 8  22796455.223          49.000       -3437.476
 123259420.087 8  23455488.878          48.000        1163.696
 128916610.363 6  24532028.976          36.000        1553.804
 135072572.772 7  25703454.010          43.000       -1800.942
 198005330.416 7  37679158.886          42.000       -1157.464
 197695126.888 7  37620140.539          42.000       -1159.661
 07  8 29 13 29 41.0010000  0  9G20G28G17G11G 4G23G 1S37S29
 110771594.394 8  21079134.899          49.000       -2024.372
 113091467.777 8  21520597.349          50.000       -2663.595
 112798937.692 8  21464927.198          52.000         695.104
 119799608.466 8  22797109.572          49.000       -3437.360
 123258256.547 8  23455267.557          48.000        1163.958
 128915058.875 6  24531733.699          37.000        1549.919
 135074373.678 7  25703796.838          43.000       -1800.231
 198006487.519 7  37679378.951          42.000       -1155.771
 197696286.690 6  37620361.110          40.000       -1159.295
 07  8 29 13 29 42.0010000  0  9G20G28G17G11G 4G23G 1S37S29
 110773619.095 8  21079520.217          48.000       -2024.743
 113094131.940 8  21521104.347          50.000       -2664.487
 112798243.128 8  21464794.663          52.000         694.575
 119803046.215 8  22797763.711          49.000       -3437.435
 123257093.199 8  23455046.009          49.000        1163.305
 128913507.459 6  24531438.267          36.000        1549.103
 135076175.084 7  25704139.542          43.000       -1801.162
 198007644.661 7  37679599.260          42.000       -1157.448
 197697446.410 6  37620581.715          40.000       -1160.204
 07  8 29 13 29 43.0010000  0  9G20G28G17G11G 4G23G 1S37S29
 110775644.436 8  21079905.780          48.000       -2025.301
 113096796.726 8  21521611.433          50.000       -2665.082
 112797548.850 8  21464662.704          52.000         694.197
 119806484.070 8  22798417.727          49.000       -3437.495
 123255930.088 8  23454824.809          49.000        1163.101
 128911956.169 6  24531142.521          36.000        1550.930
 135077977.047 7  25704482.526          42.000       -1801.162
 198008801.631 7  37679819.412          43.000       -1156.925
 197698605.865 6  37620802.705          41.000       -1159.053
 07  8 29 13 29 44.0010000  0  9G20G28G17G11G 4G23G 1S37S29
 110777670.448 8  21080291.255          48.000       -2026.166
 113099462.173 8  21522118.990          50.000       -2665.648
 112796854.930 8  21464530.554          51.000         693.897
 119809922.122 8  22799072.110          49.000       -3437.746
 123254767.253 8  23454603.732          49.000        1162.593
 128910405.067 6  24530847.718          36.000        1552.015
 135079779.627 7  25704825.143          42.000       -1802.973
 198009958.999 7  37680039.703          42.000       -1158.252
 197699765.551 6  37621023.136          41.000       -1159.296
 07  8 29 13 29 45.0010000  0  9G20G28G17G11G 4G23G 1S37S29
 110779697.061 8  21080677.096          48.000       -2026.885
 113102128.170 8  21522626.337          50.000       -2666.122
 112796161.252 8  21464398.106          51.000         693.329
 119813360.241 8  22799726.668          49.000       -3438.551
 123253604.550 8  23454382.603          49.000        1162.111
 128908854.009 5  24530552.389          35.000        1549.567
 135081582.741 6  25705167.673          40.000       -1803.375
 198011116.399 7  37680259.908          43.000       -1156.446
 197700924.934 6  37621243.742          41.000       -1158.863
 07  8 29 13 29 46.0010000  0  9G20G28G17G11G 4G23G 1S37S29
 110781724.313 8  21081062.798          48.000       -2027.140
 113104794.824 8  21523133.580          50.000       -2666.486
 112795467.905 8  21464266.096          52.000         693.736
 119816798.503 8  22800380.999          49.000       -3437.763
 123252442.116 8  23454161.090          48.000        1162.820
 128907303.199 5  24530257.639          35.000        1554.084
 135083386.434 6  25705509.854          40.000       -1803.640
 198012273.871 7  37680480.182          44.000       -1157.470
 197702084.566 7  37621464.330          42.000       -1158.619
 07  8 29 13 29 47.0010000  0  9G20G28G17G11G 4G23G 1S37S29
 110783752.259 8  21081448.657          48.000       -2027.730
 113107462.116 8  21523641.486          50.000       -2667.356
 112794774.894 8  21464134.399          52.000         693.121
 119820236.931 8  22801035.312          49.000       -3438.368
 123251279.942 8  23453939.978          48.000        1162.097
 128905752.42235  24529962.834          34.000        1551.927
 135085190.716 6  25705851.913          38.000       -1804.041
 198013431.349 7  37680700.491          44.000       -1157.524
 197703244.197 7  37621685.128          42.000       -1158.062
 07  8 29 13 29 48.0010000  0  9G20G28G17G11G 4G23G 1S37S29
 110785780.833 8  21081834.446          48.000       -2028.807
 113110130.030 8  21524149.252          50.000       -2668.133
 112794082.197 8  21464002.475          52.000         692.494
 119823675.496 8  22801689.346          49.000       -3438.492
 123250118.015 8  23453718.553          48.000        1162.000
 128904201.85425  24529667.924          34.000        1547.971
 135086995.560 6  25706194.862          39.000       -1805.590
 198014588.821 7  37680920.573          44.000       -1157.420
 197704403.751 7  37621905.663          42.000       -1160.940
 07  8 29 13 29 49.0010000  0  9G20G28G17G11G 4G23G 1S37S29
 110787810.168 8  21082220.776          49.000       -2029.159
 113112798.661 8  21524657.175          50.000       -2668.984
 112793389.902 8  21463870.708          52.000         692.092
 119827114.303 8  22802343.642          49.000       -3438.845
 123248956.425 8  23453497.545          48.000        1161.424
 128902651.57325  24529372.824          34.000        1549.026
 135088801.125 6  25706538.090          39.000       -1805.576
 198015746.656 7  37681140.777          43.000       -1157.438
 197705563.906 6  37622126.496          41.000       -1159.565
 07  8 29 13 29 50.0010000  0  9G20G28G17G11G 4G23G 1S37S29
 110789840.058 8  21082606.949          48.000       -2029.885
 113115467.854 8  21525165.029          50.000       -2669.072
 112792697.844 8  21463739.133          52.000         692.244
 119830553.165 8  22802997.903          49.000       -3438.302
 123247795.005 8  23453276.591          48.000        1161.883
 128901101.29125  24529077.846          33.000        1550.325
 135090607.165 6  25706881.667          40.000       -1806.783
 198016904.238 7  37681360.947          43.000       -1156.559
 197706723.835 6  37622347.223          40.000       -1160.440
 07  8 29 13 29 51.0010000  0  9G20G28G17G11G 4G23G 1S37S29
 110791870.692 8  21082993.384          49.000       -2030.928
 113118137.757 8  21525673.144          50.000       -2670.331
 112792006.194 8  21463607.471          52.000         691.952
 119833992.248 8  22803652.426          49.000       -3438.900
 123246633.899 8  23453055.566          48.000        1161.297
 128899551.25825  24528782.902          34.000        1550.127
 135092413.876 6  25707225.437          40.000       -1806.299
 198018061.804 7  37681581.273          43.000       -1157.643
 197707883.675 6  37622567.951          40.000       -1161.081
 07  8 29 13 29 52.0010000  0  9G20G28G17G11G 4G23G 1S37S29
 110793901.932 8  21083379.801          48.000       -2031.446
 113120808.233 8  21526181.433          50.000       -2670.944
 112791314.813 8  21463475.949          52.000         691.406
 119837431.436 8  22804306.808          49.000       -3439.706
 123245472.992 8  23452834.803          48.000        1160.759
 128898001.30725  24528487.994          34.000        1550.842
 135094221.088 6  25707569.973          40.000       -1807.604
 198019219.232 7  37681801.389          43.000       -1158.734
 197709043.400 6  37622788.748          41.000       -1161.756
 07  8 29 13 29 53.0010000  0  9G20G28G17G11G 4G23G 1S37S29
 110795933.938 8  21083766.707          49.000       -2032.069
 113123479.458 8  21526690.089          50.000       -2671.531
 112790623.862 8  21463344.601          52.000         691.193
 119840870.865 8  22804961.349          49.000       -3439.441
 123244312.448 8  23452614.110          48.000        1160.966
 128896451.63725  24528192.910          33.000        1548.052
 135096029.001 7  25707914.144          42.000       -1807.810
 198020376.891 7  37682021.699          43.000       -1157.900
 197710203.257 6  37623009.442          40.000       -1160.030
 07  8 29 13 29 54.0010000  0  9G20G28G17G11G 4G23G 1S37S29
 110797966.572 8  21084153.230          48.000       -2032.706
 113126151.300 8  21527198.536          50.000       -2672.012
 112789933.192 8  21463213.148          52.000         690.563
 119844310.422 8  22805615.837          49.000       -3439.274
 123243152.091 8  23452393.452          48.000        1160.605
 128894902.05525  24527897.599          32.000        1546.405
 135097837.497 7  25708258.820          42.000       -1808.934
 198021534.644 7  37682241.973          44.000       -1157.177
 197711363.406 6  37623230.326          41.000       -1159.941
 07  8 29 13 29 55.0010000  0  9G20G28G17G11G 4G23G 1S37S29
 110799999.811 8  21084540.188          48.000       -2033.451
 113128823.721 8  21527707.123          50.000       -2672.433
 112789242.814 8  21463081.958          52.000         690.714
 119847750.072 8  22806270.569          49.000       -3439.527
 123241991.949 8  23452172.445          48.000        1160.158
 128893352.611 5  24527602.797          32.000        1550.267
 135099646.499 7  25708603.497          42.000       -1809.020
 198022692.303 7  37682462.194          43.000       -1159.475
 197712523.522 6  37623450.984          41.000       -1160.178
 07  8 29 13 29 56.0010000  0  9G20G28G17G11G 4G23G 1S37S29
 110802033.530 8  21084927.513          48.000       -2034.025
 113131496.604 8  21528215.552          50.000       -2672.824
 112788552.574 8  21462950.627          52.000         690.259
 119851189.695 8  22806924.969          49.000       -3439.290
 123240831.895 8  23451951.473          48.000        1160.250
 128891803.139 5  24527308.150          33.000        1552.027
 135101455.915 7  25708948.330          42.000       -1809.865
 198023849.731 7  37682682.190          43.000       -1157.106
 197713683.396 6  37623671.573          40.000       -1157.927
 07  8 29 13 29 57.0010000  0  9G20G28G17G11G 4G23G 1S37S29
 110804067.866 8  21085314.436          48.000       -2034.859
 113134170.082 8  21528724.575          50.000       -2673.546
 112787862.625 8  21462819.331          52.000         689.905
 119854629.416 8  22807579.492          49.000       -3439.567
 123239672.040 8  23451730.727          48.000        1159.529
 128890253.800 5  24527013.312          32.000        1553.446
 135103265.887 7  25709293.356          42.000       -1809.792
 198025007.242 7  37682902.516          42.000       -1158.292
 197714843.374 6  37623892.126          40.000       -1160.014
 07  8 29 13 29 58.0010000  0  9G20G28G17G11G 4G23G 1S37S29
 110806102.846 8  21085701.831          48.000       -2035.356
 113136844.188 8  21529233.685          50.000       -2674.146
 112787173.002 8  21462687.914          52.000         689.536
 119858069.292 8  22808234.364          48.000       -3439.838
 123238512.433 7  23451510.174          47.000        1159.650
 128888704.620 5  24526717.949          32.000        1551.700
 135105076.432 7  25709637.980          42.000       -1809.559
 198026164.973 7  37683122.756          42.000       -1156.837
 197716003.397 6  37624112.820          40.000       -1157.419
 07  8 29 13 29 59.0010000  0  9G20G28G17G11G 4G23G 1S37S29
 110808138.537 8  21086089.225          48.000       -2036.034
 113139518.971 8  21529742.969          50.000       -2675.289
 112786483.726 8  21462556.793          52.000         688.886
 119861509.361 8  22808888.921          48.000       -3440.259
 123237353.117 7  23451289.411          47.000        1159.029
 128887155.556 5  24526422.829          32.000        1548.046
 135106887.606 6  25709982.918          41.000       -1811.455
 198027322.874 7  37683343.099          43.000       -1157.227
 197717163.419 7  37624333.355          42.000       -1159.910
 07  8 29 13 30  0.0010000  0  9G20G28G17G11G 4G23G 1S37S29
 110810174.906 8  21086476.725          48.000       -2036.429
 113142194.411 8  21530251.939          50.000       -2675.750
 112785794.796 8  21462425.654          52.000         688.590
 119864949.595 8  22809543.549          48.000       -3440.144
 123236194.055 8  23451068.701          48.000        1158.733
 128885606.712 5  24526128.131          33.000        1549.186
 135108699.401 7  25710328.031          42.000       -1811.442
 198028480.528 7  37683563.373          43.000       -1157.890
 197718323.987 7  37624554.274          42.000       -1159.898
 07  8 29 13 30  1.0010000  0  9G20G28G17G11G 4G23G 1S37S29
 110812211.852 8  21086864.224          48.000       -2036.835
 113144870.428 8  21530761.311          50.000       -2676.196
 112785106.126 8  21462294.516          51.000         688.590
 119868389.917 8  22810197.880          48.000       -3440.194
 123235035.191 8  23450848.287          48.000        1159.089
 128884058.006 5  24525833.692          34.000        1546.953
 135110511.703 7  25710672.620          42.000       -1811.750
 198029637.929 7  37683783.717          42.000       -1157.538
 197719484.053 6  37624774.898          41.000       -1158.185
 07  8 29 13 30  2.0010000  0  9G20G28G17G11G 4G23G 1S37S29
 110814249.587 8  21087252.089          48.000       -2038.423
 113147547.178 8  21531270.595          50.000       -2677.056
 112784417.891 8  21462163.360          51.000         687.927
 119871830.487 8  22810852.594          48.000       -3440.846
 123233876.674 7  23450627.961          47.000        1158.431
 128882509.537 5  24525539.308          34.000        1548.709
 135112324.689 7  25711017.837          42.000       -1813.814
 198030795.489 7  37684004.078          42.000       -1157.716
 197720643.437 6  37624995.537          40.000       -1161.724
 07  8 29 13 30  3.0010000  0  9G20G28G17G11G 4G23G 1S37S29
 110816287.966 8  21087640.095          48.000       -2038.556
 113150224.573 8  21531780.019          51.000       -2677.115
 112783729.970 8  21462032.204          51.000         687.889
 119875271.212 8  22811507.466          48.000       -3440.672
 123232718.416 8  23450407.390          48.000        1158.335
 128880961.178 5  24525244.609          34.000        1549.356
 135114138.258 7  25711362.776          42.000       -1814.072
 198031953.401 7  37684224.440          43.000       -1155.941
 197721803.928 6  37625216.371          40.000       -1159.434
 07  8 29 13 30  4.0010000  0  9G20G28G17G11G 4G23G 1S37S29
 110818326.923 8  21088028.170          48.000       -2039.585
 113152902.524 8  21532289.600          50.000       -2677.935
 112783042.302 8  21461901.048          51.000         687.585
 119878712.002 8  22812162.216          49.000       -3440.576
 123231560.323 8  23450186.784          48.000        1157.962
 128879412.919 5  24524949.978          34.000        1547.052
 135115952.356 6  25711707.836          41.000       -1814.185
 198033111.259 7  37684444.783          44.000       -1158.889
 197722964.214 7  37625437.290          42.000       -1160.172
 07  8 29 13 30  6.0010000  0  9G20G28G17G11G 4G23G 1S37S29
 110822406.931 8  21088804.722          49.000       -2040.587
 113158260.447 8  21533308.832          51.000       -2679.399
 112781668.057 8  21461639.626          51.000         686.909
 119885594.172 8  22813471.959          48.000       -3441.152
 123229245.014 8  23449745.799          48.000        1157.361
 128876316.988 5  24524360.842          34.000        1547.076
 135119582.408 6  25712398.533          41.000       -1815.826
 198035427.173 7  37684885.611          44.000       -1157.814
 197725285.366 6  37625879.217          41.000       -1160.793
 07  8 29 13 30  7.0010000  0  9G20G28G17G11G 4G23G 1S37S29
 110824447.883 8  21089192.797          49.000       -2040.960
 113160940.326 8  21533818.657          51.000       -2679.897
 112780981.380 8  21461508.767          51.000         687.056
 119889035.436 8  22814126.831          48.000       -3440.738
 123228087.703 8  23449525.612          48.000        1157.249
 128874769.241 5  24524066.404          35.000        1547.152
 135121398.297 6  25712743.925          41.000       -1816.098
 198036585.250 7  37685105.921          43.000       -1155.386
 197726445.256 6  37626099.841          41.000       -1158.656
 07  8 29 13 30  8.0010000  0  9G20G28G17G11G 4G23G 1S37S29
 110826489.572 8  21089581.308          48.000       -2041.645
 113163620.910 8  21534328.779          51.000       -2680.853
 112780295.106 8  21461378.152          51.000         686.742
 119892476.921 8  22814781.615          48.000       -3441.497
 123226930.712 8  23449305.234          48.000        1157.407
 128873221.670 5  24523771.530          35.000        1547.509
 135123214.840 6  25713089.264          40.000       -1817.370
 198037743.433 7  37685326.386          43.000       -1157.976
 197727605.648 6  37626320.863          40.000       -1163.134
 07  8 29 13 30  9.0010000  0  9G20G28G17G11G 4G23G 1S37S29
 110828531.884 8  21089970.064          49.000       -2042.635
 113166302.105 8  21534838.779          51.000       -2681.533
 112779609.135 8  21461247.990          52.000         685.944
 119895918.527 8  22815436.522          48.000       -3441.640
 123225773.936 8  23449085.046          48.000        1156.458
 128871674.269 5  24523477.162          35.000        1546.884
 135125031.946 6  25713435.337          40.000       -1816.650
 198038901.709 7  37685546.974          43.000       -1158.051
 197728766.320 6  37626541.626          40.000       -1162.375
 07  8 29 13 30 10.0010000  0  9G20G28G17G11G 4G23G 1S37S29
 110830574.763 8  21090358.715          49.000       -2042.815
 113168983.857 8  21535348.954          51.000       -2681.589
 112778923.395 8  21461117.602          52.000         685.735
 119899360.198 8  22816091.236          48.000       -3441.452
 123224617.314 8  23448864.842          48.000        1156.715
 128870126.918 6  24523182.655          36.000        1547.270
 135126849.553 6  25713781.445          40.000       -1816.632
 198040060.008 7  37685767.353          44.000       -1157.843
 197729926.376 7  37626762.547          42.000       -1160.990
 07  8 29 13 30 11.0010000  0  9G20G28G17G11G 4G23G 1S37S29
 110832618.238 8  21090747.523          49.000       -2044.055
 113171666.176 8  21535859.075          50.000       -2682.849
 112778237.925 8  21460987.127          52.000         685.487
 119902801.953 8  22816746.248          49.000       -3441.675
 123223460.891 8  23448644.568          48.000        1155.890
 128868579.672 6  24522888.182          36.000        1546.264
 135128667.683 6  25714127.761          40.000       -1817.503
 198041218.096 7  37685987.592          44.000       -1157.887
 197731086.883 7  37626983.310          42.000       -1159.161
 07  8 29 13 30 12.0010000  0  9G20G28G17G11G 4G23G 1S37S29
 110834662.461 8  21091136.750          49.000       -2043.986
 113174349.228 8  21536369.494          50.000       -2683.314
 112777552.857 8  21460856.512          51.000         685.160
 119906243.927 8  22817401.224          48.000       -3441.843
 123222304.820 8  23448424.660          48.000        1156.516
 128867032.652 6  24522593.692          36.000        1545.577
 135130486.491 6  25714473.397          39.000       -1818.731
 198042376.329 7  37686208.024          44.000       -1157.128
 197732247.500 7  37627204.264          42.000       -1160.854
 07  8 29 13 30 13.0010000  0  9G20G28G17G11G 4G23G 1S37S29
 110836707.263 8  21091525.820          49.000       -2045.045
 113177032.825 8  21536880.105          50.000       -2683.578
 112776868.048 8  21460726.420          51.000         684.893
 119909685.985 8  22818056.235          48.000       -3442.038
 123221148.903 8  23448204.875          48.000        1155.944
 128865485.725 6  24522298.696          36.000        1545.449
 135132305.783 6  25714819.976          40.000       -1819.704
 198043534.765 7  37686428.560          43.000       -1157.291
 197733408.211 6  37627425.184          41.000       -1161.399
 07  8 29 13 30 14.0010000  0  9G20G28G17G11G 4G23G 1S37S29
 110838752.638 8  21091915.029          49.000       -2045.859
 113179716.979 8  21537390.488          50.000       -2684.458
 112776183.465 8  21460596.224          52.000         684.558
 119913128.103 8  22818711.299          48.000       -3442.032
 123219993.151 8  23447984.792          48.000        1155.598
 128863938.826 6  24522004.486          36.000        1546.698
 135134125.588 6  25715166.572          40.000       -1819.973
 198044693.063 7  37686648.903          43.000       -1159.661
 197734568.845 6  37627646.138          41.000       -1162.450
 07  8 29 13 30 15.0010000  0  9G20G28G17G11G 4G23G 1S37S29
 110840798.646 8  21092304.256          49.000       -2045.878
 113182401.743 8  21537901.343          50.000       -2684.573
 112775499.184 8  21460466.045          52.000         684.511
 119916570.342 8  22819366.363          48.000       -3442.315
 123218837.642 7  23447764.676          47.000        1155.892
 128862392.152 5  24521710.311          35.000        1548.563
 135135945.988 6  25715513.238          40.000       -1820.656
 198045851.455 7  37686869.334          42.000       -1158.860
 197735729.545 6  37627867.006          40.000       -1160.755
 07  8 29 13 30 16.0010000  0  9G20G28G17G11G 4G23G 1S37S29
 110842845.326 8  21092693.849          48.000       -2047.264
 113185087.164 8  21538412.495          50.000       -2685.479
 112774815.262 8  21460336.076          52.000         684.212
 119920012.752 8  22820021.339          48.000       -3442.441
 123217682.391 8  23447544.977          48.000        1154.887
 128860845.573 6  24521416.623          36.000        1545.678
 135137766.955 6  25715860.444          40.000       -1821.301
 198047009.891 7  37687089.590          42.000       -1159.199
 197736890.377 6  37628087.996          41.000       -1160.845
 07  8 29 13 30 17.0010000  0  9G20G28G17G11G 4G23G 1S37S29
 110844892.623 8  21093083.495          49.000       -2047.327
 113187773.190 8  21538923.384          50.000       -2686.422
 112774131.616 8  21460206.368          52.000         683.559
 119923455.255 8  22820676.211          49.000       -3442.385
 123216527.339 8  23447325.453          48.000        1154.897
 128859299.169 5  24521122.098          35.000        1546.233
 135139588.484 6  25716207.127          40.000       -1822.221
 198048168.057 7  37687310.075          42.000       -1157.061
 197738051.149 6  37628308.951          40.000       -1159.445
 07  8 29 13 30 18.0010000  0  9G20G28G17G11G 4G23G 1S37S29
 110846940.636 8  21093473.071          49.000       -2048.437
 113190459.888 8  21539434.047          49.000       -2687.478
 112773448.349 8  21460076.556          52.000         683.033
 119926897.979 8  22821331.571          48.000       -3442.864
 123215372.585 7  23447105.545          47.000        1154.535
 128857752.914 5  24520827.486          35.000        1545.186
 135141410.652 6  25716553.688          41.000       -1824.003
 198049326.394 7  37687530.558          43.000       -1158.259
 197739211.981 7  37628529.695          42.000       -1161.168
 07  8 29 13 30 19.0010000  0  9G20G28G17G11G 4G23G 1S37S29
 110848989.349 8  21093862.961          49.000       -2048.453
 113193147.275 8  21539945.374          50.000       -2687.417
 112772765.468 8  21459946.761          52.000         683.471
 119930340.874 8  22821986.652          48.000       -3442.533
 123214218.144 7  23446886.249          47.000        1155.139
 128856206.913 5  24520533.957          35.000        1548.106
 135143233.458 6  25716900.529          41.000       -1822.188
 198050484.852 7  37687750.867          43.000       -1158.180
 197740372.752 6  37628750.650          41.000       -1161.219
 07  8 29 13 30 20.0010000  0  9G20G28G17G11G 4G23G 1S37S29
 110851038.618 8  21094253.392          49.000       -2049.732
 113195835.196 8  21540456.752          50.000       -2688.267
 112772082.802 8  21459816.827          52.000         682.501
 119933783.818 8  22822641.611          48.000       -3443.073
 123213063.858 8  23446666.550          48.000        1153.979
 128854660.950 6  24520239.606          36.000        1546.631
 135145056.712 6  25717247.317          41.000       -1823.669
 198051643.117 7  37687971.106          43.000       -1157.706
 197741532.692 6  37628971.448          40.000       -1160.652
 07  8 29 13 30 21.0010000  0  9G20G28G17G11G 4G23G 1S37S29
 110853088.587 8  21094643.421          48.000       -2049.858
 113198523.784 8  21540968.130          50.000       -2688.864
 112771400.504 8  21459687.119          52.000         682.308
 119937226.955 8  22823296.884          48.000       -3443.108
 123211909.847 7  23446447.131          47.000        1154.064
 128853115.153 6  24519945.203          36.000        1545.637
 135146880.620 6  25717593.669          40.000       -1824.393
 198052801.355 7  37688191.572          42.000       -1158.439
 197742692.715 6  37629192.367          40.000       -1162.268
 07  8 29 13 30 22.0010000  0  9G20G28G17G11G 4G23G 1S37S29
 110855139.084 8  21095033.486          48.000       -2050.648
 113201212.906 8  21541479.404          50.000       -2689.503
 112770718.417 8  21459557.394          52.000         682.147
 119940670.125 8  22823952.332          48.000       -3443.056
 123210755.957 7  23446227.572          47.000        1153.850
 128851569.487 5  24519650.696          35.000        1545.693
 135148704.991 6  25717940.736          41.000       -1825.037
 198053959.631 7  37688411.916          42.000       -1158.883
 197743853.172 6  37629413.165          40.000       -1159.980
 07  8 29 13 30 23.0010000  0  9G20G28G17G11G 4G23G 1S37S29
 110857190.199 8  21095424.109          49.000       -2051.589
 113203902.601 8  21541991.271          50.000       -2690.134
 112770036.610 8  21459427.599          52.000         681.615
 119944113.388 8  22824607.396          48.000       -3443.007
 123209602.271 8  23446007.996          48.000        1153.430
 128850023.822 5  24519356.171          35.000        1546.344
 135150529.886 6  25718287.332          40.000       -1824.858
 198055118.155 7  37688632.260          42.000       -1158.127
 197745013.553 6  37629633.946          40.000       -1157.993
 07  8 29 13 30 24.0010000  0  9G20G28G17G11G 4G23G 1S37S29
 110859242.145 8  21095814.505          48.000       -2052.259
 113206593.122 8  21542503.173          49.000       -2690.833
 112769355.299 8  21459297.787          51.000         681.259
 119947556.988 8  22825262.983          48.000       -3443.501
 123208449.037 7  23445788.490          47.000        1153.232
 128848478.564 5  24519061.122          35.000        1544.948
 135152355.568 6  25718634.294          40.000       -1826.831
 198056276.987 7  37688852.831          43.000       -1158.177
 197746174.407 7  37629854.778          42.000       -1160.873
 07  8 29 13 30 25.0010000  0  9G20G28G17G11G 4G23G 1S37S29
 110861294.824 8  21096205.284          49.000       -2053.135
 113209284.332 8  21543015.249          49.000       -2691.351
 112768674.395 8  21459168.324          52.000         681.139
 119951000.797 8  22825918.099          48.000       -3443.286
 123207296.128 8  23445569.123          48.000        1153.038
 128846933.521 6  24518767.348          36.000        1545.869
 135154181.884 6  25718981.431          40.000       -1826.698
 198057436.013 7  37689073.366          43.000       -1158.627
 197747335.101 6  37630075.593          41.000       -1161.456
 07  8 29 13 30 26.0010000  0  9G20G28G17G11G 4G23G 1S37S29
 110863348.131 8  21096596.117          49.000       -2053.178
 113211976.153 8  21543527.430          49.000       -2691.948
 112767993.778 8  21459038.651          51.000         680.754
 119954444.722 8  22826573.389          48.000       -3443.566
 123206143.422 8  23445350.123          48.000        1152.892
 128845388.556 6  24518473.206          36.000        1543.392
 135156008.794 6  25719329.126          40.000       -1827.402
 198058595.176 7  37689293.832          43.000       -1158.527
 197748496.010 6  37630296.705          40.000       -1160.115
 07  8 29 13 30 27.0010000  0  9G20G28G17G11G 4G23G 1S37S29
 110865402.054 8  21096986.827          49.000       -2054.264
 113214668.586 8  21544039.786          49.000       -2692.362
 112767313.458 8  21458909.101          51.000         680.412
 119957888.757 8  22827228.820          48.000       -3443.695
 123204990.954 8  23445131.122          48.000        1152.352
 128843843.799 5  24518179.851          35.000        1543.470
 135157836.250 6  25719677.276          39.000       -1828.053
 198059754.157 7  37689514.230          43.000       -1155.904
 197749656.953 6  37630517.468          40.000       -1160.036
 07  8 29 13 30 28.0010000  0  9G20G28G17G11G 4G23G 1S37S29
 110867456.474 8  21097377.939          49.000       -2054.589
 113217361.481 8  21544552.002          49.000       -2693.038
 112766633.298 8  21458779.533          51.000         680.111
 119961332.791 8  22827883.988          48.000       -3444.074
 123203838.557 8  23444911.721          48.000        1152.099
 128842298.977 5  24517886.112          35.000        1545.811
 135159664.147 6  25720024.361          38.000       -1827.158
 198060912.841 7  37689734.625          42.000       -1157.685
 197750817.961 6  37630738.248          41.000       -1160.085
 07  8 29 13 30 29.0010000  0  9G20G28G17G11G 4G23G 1S37S29
 110869511.560 8  21097769.225          49.000       -2055.259
 113220055.015 8  21545064.689          49.000       -2693.777
 112765953.469 8  21458649.982          51.000         679.453
 119964776.970 7  22828539.540          47.000       -3444.295
 123202686.402 8  23444692.546          48.000        1152.481
 128840754.364 5  24517592.686          34.000        1543.940
 135161492.606 6  25720371.672          38.000       -1827.369
 198062071.266 7  37689955.021          42.000       -1159.098
 197751978.887 6  37630959.027          39.000       -1161.985
 07  8 29 13 30 30.0010000  0  9G20G28G17G11G 4G23G 1S37S29
 110871567.390 8  21098160.284          48.000       -2055.819
 113222749.266 8  21545577.498          49.000       -2694.328
 112765274.053 8  21458520.589          51.000         679.547
 119968221.373 7  22829194.709          47.000       -3444.227
 123201534.583 8  23444473.354          48.000        1152.096
 128839209.976 5  24517298.773          34.000        1546.544
 135163321.747 6  25720718.896          37.000       -1828.401
 198063229.972 7  37690175.505          43.000       -1157.661
 197753140.463 6  37631180.104          41.000       -1161.830
 07  8 29 13 30 31.0010000  0  9G20G28G17G11G 4G23G 1S37S29
 110873623.941 8  21098551.587          48.000       -2056.682
 113225444.221 8  21546090.203          49.000       -2694.998
 112764595.039 8  21458390.986          51.000         678.972
 119971666.020 7  22829850.313          47.000       -3444.191
 123200383.079 8  23444254.423          48.000        1151.358
 128837665.776 5  24517005.033          34.000        1544.761
 135165151.550 6  25721066.435          38.000       -1829.226
 198064389.069 7  37690395.935          43.000       -1159.524
 197754301.873 6  37631401.146          40.000       -1161.988
 07  8 29 13 30 32.0010000  0  9G20G28G17G11G 4G23G 1S37S29
 110875681.109 8  21098943.257          49.000       -2057.475
 113228139.771 8  21546603.309          49.000       -2695.737
 112763916.316 8  21458261.714          51.000         678.663
 119975110.743 7  22830505.900          47.000       -3444.687
 123199231.827 8  23444035.597          48.000        1151.374
 128836121.730 5  24516711.152          34.000        1539.067
 135166981.892 6  25721414.426          38.000       -1830.230
 198065548.028 7  37690616.525          42.000       -1157.269
 197755463.262 6  37631622.100          40.000       -1162.251
 07  8 29 13 30 33.0010000  0  9G20G28G17G11G 4G23G 1S37S29
 110877738.790 8  21099335.084          49.000       -2057.692
 113230835.818 8  21547116.467          49.000       -2696.455
 112763237.781 8  21458132.478          51.000         678.322
 119978555.505 7  22831161.069          47.000       -3444.634
 123198080.626 8  23443816.614          48.000        1151.025
 128834577.68435  24516417.117          34.000        1543.497
 135168812.708 6  25721762.820          39.000       -1831.316
 198066706.745 7  37690836.972          43.000       -1159.363
 197756624.270 6  37631843.073          40.000       -1160.446
 07  8 29 13 30 34.0010000  0  9G20G28G17G11G 4G23G 1S37S29
 110879797.186 8  21099726.806          49.000       -2058.183
 113233532.558 8  21547629.591          50.000       -2696.835
 112762559.610 8  21458003.032          51.000         678.331
 119982000.443 8  22831816.604          48.000       -3444.733
 123196929.777 8  23443597.788          48.000        1150.835
 128833033.87025  24516123.447          35.000        1542.376
 135170644.125 6  25722111.475          39.000       -1831.201
 198067865.528 7  37691057.474          44.000       -1157.906
 197757785.152 7  37632063.818          42.000       -1161.376
 07  8 29 13 30 35.0010000  0  9G20G28G17G11G 4G23G 1S37S29
 110881855.957 8  21100118.703          49.000       -2059.165
 113236229.661 8  21548143.046          50.000       -2697.248
 112761881.488 8  21457873.569          51.000         678.052
 119985445.266 7  22832472.208          47.000       -3444.476
 123195778.911 8  23443379.190          49.000        1150.764
 128831489.96225  24515829.743          34.000        1542.636
 135172475.839 6  25722459.729          39.000       -1832.288
 198069023.843 7  37691277.888          44.000       -1157.907
 197758945.896 6  37632284.546          41.000       -1160.100
 07  8 29 13 30 36.0010000  0  9G20G28G17G11G 4G23G 1S37S29
 110883915.373 8  21100510.530          49.000       -2059.436
 113238927.388 8  21548656.117          49.000       -2697.658
 112761203.692 8  21457744.716          51.000         677.845
 119988890.226 7  22833127.534          47.000       -3444.188
 123194628.260 8  23443160.015          49.000        1150.868
 128829946.14725  24515536.143          35.000        1543.707
 135174308.136 6  25722808.628          40.000       -1832.194
 198070182.180 7  37691498.388          42.000       -1158.676
 197760107.031 7  37632505.658          42.000       -1159.451
 07  8 29 13 30 37.0010000  0  9G20G28G17G11G 4G23G 1S37S29
 110885975.527 8  21100902.741          49.000       -2060.704
 113241625.808 8  21549169.834          49.000       -2698.275
 112760526.286 8  21457615.864          51.000         677.367
 119992335.385 7  22833783.208          47.000       -3445.869
 123193477.940 8  23442940.875          48.000        1150.409
 128828402.59226  24515242.927          36.000        1543.911
 135176141.167 6  25723157.144          40.000       -1832.473
 198071340.572 7  37691718.942          43.000       -1157.534
 197761268.039 6  37632726.438          41.000       -1161.800
 07  8 29 13 30 38.0010000  0  9G20G28G17G11G 4G23G 1S37S29
 110888036.369 8  21101294.655          49.000       -2061.312
 113244324.911 8  21549683.707          49.000       -2699.309
 112759849.244 8  21457487.046          51.000         677.020
 119995780.747 7  22834438.743          47.000       -3445.333
 123192327.901 8  23442722.223          48.000        1149.731
 128826859.20125  24514949.379          35.000        1542.465
 135177974.759 6  25723506.096          40.000       -1832.678
 198072499.156 7  37691939.443          42.000       -1157.693
 197762429.064 6  37632947.497          40.000       -1160.430
 07  8 29 13 30 39.0010000  0  9G20G28G17G11G 4G23G 1S37S29
 110890097.751 8  21101687.110          49.000       -2061.890
 113247024.521 8  21550197.232          49.000       -2699.841
 112759172.416 8  21457358.141          51.000         676.460
 119999226.137 7  22835094.278          47.000       -3445.584
 123191177.988 8  23442503.083          48.000        1149.603
 128825315.92726  24514655.797          36.000        1543.093
 135179808.787 6  25723855.344          40.000       -1834.248
 198073657.939 7  37692159.926          42.000       -1159.433
 197763589.896 6  37633168.400          40.000       -1161.072
 07  8 29 13 30 40.0010000  0  9G20G28G17G11G 4G23G 1S37S29
 110892159.828 8  21102079.600          49.000       -2062.221
 113249724.809 8  21550711.088          49.000       -2700.392
 112758495.964 8  21457229.568          51.000         676.627
 120002671.725 7  22835749.952          47.000       -3445.531
 123190028.373 8  23442284.310          48.000        1150.086
 128823772.83426  24514362.476          36.000        1543.766
 135181643.514 6  25724204.854          40.000       -1835.072
 198074817.009 7  37692380.444          42.000       -1159.034
 197764750.651 6  37633389.285          39.000       -1159.854
 07  8 29 13 30 41.0010000  0  9G20G28G17G11G 4G23G 1S37S29
 110894222.554 8  21102472.369          49.000       -2062.958
 113252425.741 8  21551225.032          49.000       -2701.234
 112757819.841 8  21457100.820          50.000         675.629
 120006117.457 7  22836405.766          47.000       -3445.979
 123188879.000 8  23442065.816          48.000        1149.124
 128822229.83426  24514069.069          36.000        1544.246
 135183478.786 6  25724554.626          41.000       -1835.578
 198075976.177 7  37692600.980          43.000       -1158.543
 197765911.836 6  37633610.466          41.000       -1161.937
 07  8 29 13 30 42.0010000  0  9G20G28G17G11G 4G23G 1S37S29
 110896285.919 8  21102864.947          49.000       -2063.539
 113255127.273 8  21551739.045          49.000       -2701.749
 112757144.006 8  21456972.160          51.000         676.006
 120009563.315 7  22837061.284          47.000       -3445.353
 123187729.858 8  23441847.077          49.000        1149.030
 128820687.02825  24513776.044          35.000        1543.830
 135185314.588 6  25724904.136          41.000       -1836.060
 198077135.225 7  37692821.586          43.000       -1159.011
 197767073.583 6  37633831.473          41.000       -1161.427
 07  8 29 13 30 43.0010000  0  9G20G28G17G11G 4G23G 1S37S29
 110898350.061 8  21103257.559          49.000       -2064.162
 113257829.561 8  21552253.722          49.000       -2702.472
 112756468.638 8  21456843.900          51.000         675.216
 120013009.432 7  22837717.080          47.000       -3445.697
 123186581.124 8  23441628.670          48.000        1148.842
 128819144.458 6  24513481.972          36.000        1541.816
 135187151.160 6  25725254.362          40.000       -1836.414
 198078294.669 7  37693042.174          42.000       -1159.586
 197768234.966 6  37634052.340          40.000       -1160.847
 07  8 29 13 30 44.0010000  0  9G20G28G17G11G 4G23G 1S37S29
 110900414.919 8  21103650.328          48.000       -2064.800
 113260532.542 8  21552768.363          49.000       -2703.253
 112755793.651 8  21456715.135          50.000         675.181
 120016455.747 7  22838372.912          46.000       -3446.171
 123185432.682 8  23441410.246          48.000        1148.926
 128817602.164 5  24513188.338          35.000        1541.471
 135188988.349 6  25725603.977          40.000       -1836.705
 198079454.069 7  37693262.710          42.000       -1158.833
 197769396.293 6  37634273.487          40.000       -1161.546
 07  8 29 13 30 45.0010000  0  9G20G28G17G11G 4G23G 1S37S29
 110902480.239 8  21104043.342          48.000       -2065.411
 113263235.964 8  21553282.883          49.000       -2703.558
 112755118.801 8  21456586.509          50.000         675.227
 120019902.024 7  22839028.778          46.000       -3446.041
 123184284.296 8  23441191.717          48.000        1148.736
 128816059.820 5  24512895.314          35.000        1543.922
 135190825.957 6  25725953.906          40.000       -1837.482
 198080613.083 7  37693483.211          42.000       -1158.362
 197770557.495 6  37634494.371          39.000       -1162.501
 07  8 29 13 30 46.0010000  0  9G20G28G17G11G 4G23G 1S37S29
 110904546.205 8  21104436.530          48.000       -2066.057
 113265940.025 8  21553797.385          49.000       -2704.524
 112754444.271 8  21456458.145          50.000         674.689
 120023348.466 7  22839684.278          46.000       -3446.518
 123183136.173 8  23440973.484          48.000        1147.725
 128814517.642 5  24512602.255          35.000        1543.555
 135192664.133 6  25726304.009          39.000       -1838.665
 198081771.888 7  37693703.764          43.000       -1159.091
 197771718.900 6  37634715.292          41.000       -1160.224
 07  8 29 13 30 47.0010000  0  9G20G28G17G11G 4G23G 1S37S29
 110906612.908 8  21104829.648          49.000       -2066.471
 113268644.779 8  21554311.974          49.000       -2704.731
 112753770.131 8  21456329.956          51.000         674.282
 120026795.106 7  22840340.319          46.000       -3446.720
 123181988.343 8  23440755.112          48.000        1147.977
 128812975.673 5  24512309.213          35.000        1541.578
 135194502.975 6  25726654.305          40.000       -1838.500
 198082930.847 7  37693924.457          43.000       -1158.829
 197772880.569 6  37634936.421          39.000       -1161.084
 07  8 29 13 30 48.0010000  0  9G20G28G17G11G 4G23G 1S37S29
 110908680.157 8  21105222.993          49.000       -2067.397
 113271350.058 8  21554826.686          49.000       -2704.975
 112753096.218 8  21456202.046          51.000         674.353
 120030241.807 7  22840996.534          47.000       -3446.399
 123180840.661 8  23440536.914          49.000        1147.932
 128811433.726 5  24512015.910          35.000        1541.513
 135196342.301 6  25727004.443          40.000       -1839.609
 198084089.746 7  37694144.976          43.000       -1157.864
 197774041.869 6  37635157.428          41.000       -1159.428
 07  8 29 13 30 49.0010000  0  9G20G28G17G11G 4G23G 1S37S29
 110910747.995 8  21105616.548          49.000       -2067.774
 113274055.909 8  21555341.502          49.000       -2706.105
 112752422.558 8  21456073.786          51.000         673.370
 120033688.580 7  22841652.453          47.000       -3446.438
 123179693.144 8  23440318.822          49.000        1147.630
 128809891.916 5  24511722.100          35.000        1541.478
 135198182.135 6  25727355.157          40.000       -1840.190
 198085248.446 7  37694365.529          42.000       -1158.445
 197775202.878 6  37635378.348          40.000       -1160.327
